osm_id,osm_type,name,category,city,address,postcode,website,lat,lon
28334394,node,Échauguette,viewpoint,Bayonne,,,,43.4938012,-1.4735335
192308589,node,Hôtel Les Goëlands,hotel,Bayonne,"6 Avenue d'Etcheverry, 64500, Saint-Jean-de-Luz",64500,https://www.hotel-lesgoelands.com/,43.393763,-1.6571091
443346049,node,Brindos Lac & Château,hotel,Bayonne,,,,43.4626705,-1.5298653
443346050,node,Brindos Lac & Château,restaurant,Bayonne,,,,43.4627161,-1.5297146
454335753,node,Mugarrien 91. zenbakia,attraction,Bayonne,,,,43.1753226,-1.4019846
472940830,node,Ibis Styles,hotel,Bayonne,,,,43.4954048,-1.4709077
472940837,node,Le Victor Hugo,restaurant,Bayonne,,,,43.4919902,-1.4744534
478842038,node,,viewpoint,Bayonne,,,,43.0812123,-1.252034
478842109,node,,viewpoint,Bayonne,,,,43.0922195,-1.0460365
478925321,node,,viewpoint,Bayonne,,,,43.0765637,-1.2303925
480412050,node,Sources de la Nive,hotel,Bayonne,,,,43.0682727,-1.1948301
546874398,node,Santiago,hotel,Bayonne,,,,43.3515149,-1.7780325
546874402,node,La Palombe bleue,hotel,Bayonne,"64700, Hendaye",64700,,43.3526375,-1.7812933
560938947,node,Belvédères d'Ellori Mendi et d'Arrapidia,viewpoint,Bayonne,,,,43.4503209,-1.4221431
560939046,node,Croix de Mougerre,memorial,Bayonne,,,http://www.napoleonprisonnier.com/lieux/mouguerre.html,43.4706642,-1.4289146
570750993,node,Hôtel Loreak,hotel,Bayonne,,,,43.493542,-1.4524777
570750996,node,Campanile,hotel,Bayonne,,,,43.4911618,-1.4547424
588403582,node,Chalet Pédro,restaurant,Bayonne,64220,64220,https://www.chaletpedro.com/,43.0367977,-1.0747258
597620979,node,La pizza de Nico,restaurant,Bayonne,"5 Rue Pannecau, 64100, Bayonne",64100,https://lapizzadenico.com/restaurant/la-pizza-de-nico-bayonne/,43.4898328,-1.473812
597622049,node,Le Bistrot Itsaski,restaurant,Bayonne,,,,43.4893146,-1.4751158
597622054,node,Le bistro' Quai,restaurant,Bayonne,,,,43.4888883,-1.4751965
631661850,node,Musée Basque et de l'histoire de Bayonne,museum,Bayonne,,,,43.4910854,-1.473799
631661851,node,Le Bayonnais,restaurant,Bayonne,,,,43.4912519,-1.4737848
706153377,node,Obélisque de l'impératrice Eugénie,memorial,Bayonne,,,,43.3087478,-1.6344856
706302358,node,Château-Neuf,castle,Bayonne,,,,43.4898624,-1.4701678
746271493,node,Musée de la Mer,museum,Bayonne,,,https://www.paysbasque.net/aquariums-et-musees/musee-de-la-mer-biarritz/,43.4833364,-1.568191
750029378,node,Lavoir du Houndaro,ruins,Bayonne,,,,43.4711096,-1.524525
775835142,node,Aguerria,hotel,Bayonne,,,,43.3074995,-1.2443381
777200218,node,,viewpoint,Bayonne,,,,43.3355804,-1.4253344
777200236,node,,memorial,Bayonne,,,,43.3358046,-1.4208786
777200246,node,,memorial,Bayonne,,,,43.3355198,-1.4254162
777303802,node,Txistulari,hotel,Bayonne,"Route d'Errobi, Itxassou",,,43.3292622,-1.3970025
777319092,node,Ostape,hotel,Bayonne,,,,43.2894846,-1.3618892
837622030,node,,viewpoint,Bayonne,,,,43.3121225,-0.8997174
837930034,node,,memorial,Bayonne,,,,43.1656354,-1.2338282
854903782,node,Première classe,hotel,Bayonne,,,,43.4663954,-1.5405777
861393457,node,Archerie Tag,attraction,Bayonne,"11 Chemin de Bittola, 64122, Urrugne",64122,https://archerietag.com/,43.3560497,-1.7405739
862957332,node,,memorial,Bayonne,,,,43.4902162,-1.4723213
862986706,node,,memorial,Bayonne,,,,43.4915887,-1.4737733
876377420,node,Vierge de Biakorri,attraction,Bayonne,,,,43.0804832,-1.2516823
882507860,node,,memorial,Bayonne,,,,43.3629321,-1.4032367
885192737,node,Ruine Cabane,ruins,Bayonne,,,,43.241688,-1.3736639
885192941,node,Monument aux Morts,memorial,Bayonne,,,,43.1776465,-1.3420287
885193327,node,Atsuametako borda,ruins,Bayonne,,,,43.1906461,-1.3676301
885193497,node,,ruins,Bayonne,,,,43.2558924,-1.3592395
897126822,node,,memorial,Bayonne,,,,43.3552117,-1.5507866
897766489,node,Wow Park,attraction,Bayonne,"11 Chemin de Bittola, 64122, Urrugne",64122,https://www.wowpark.fr/,43.3562291,-1.7407447
914806352,node,,viewpoint,Bayonne,,,,40.6638315,-74.068405
967655488,node,Gerexiteneko borda,ruins,Bayonne,,,,43.2240145,-1.3084202
974349800,node,Etchebarne,restaurant,Bayonne,,,,43.3405512,-1.2988171
978398680,node,Ondikolako Borda,ruins,Bayonne,,,,43.3050024,-1.3206679
979083785,node,Le Trinquet Moderne,restaurant,Bayonne,,,,43.4912892,-1.4870815
1125914341,node,Batxuri,restaurant,Bayonne,"48 Erromardie Plage, 64500, Saint-Jean-de-Luz",64500,,43.4064987,-1.641418
1156941880,node,Kaskoleta,viewpoint,Bayonne,,,,43.0923491,-1.165891
1236244933,node,A La Bolée,restaurant,Bayonne,,,https://alabolee.com/,43.4908767,-1.4771316
1278640537,node,Pierre Romaine,artwork,Bayonne,,,,43.384003,-1.3051437
1308710586,node,Euskalduna,hotel,Bayonne,,,,43.2336654,-1.3044796
1308715282,node,Mende Aldi,hotel,Bayonne,Route du Bourg,,https://www.hotel-mendi-alde.com/hotel/,43.2418337,-1.2849783
1313039204,node,Les Collines Iduki,hotel,Bayonne,"Route de la Côte, 64240, La Bastide-Clairence",64240,https://www.location-vacances-paysbasque.com/,43.433592,-1.2575581
1323280676,node,Le Kayolar,restaurant,Bayonne,"Iraty Sorho, 64220, Mendive",64220,,43.044408,-1.0738893
1323280677,node,Ferme Auberge Ibarnia,hotel,Bayonne,,,https://www.facebook.com/fermeibarnia,43.135177,-1.1443659
1323280678,node,,viewpoint,Bayonne,,,,43.0886853,-1.1096759
1331514443,node,Goxoki,hotel,Bayonne,,,,43.3449102,-1.1959269
1345788440,node,Hôtel Résidence Anglet Biarritz-Parme,hotel,Bayonne,,,,43.4764468,-1.5046981
1361379420,node,Café du Commerce,restaurant,Bayonne,"1 Rue des Halles, 64200, Biarritz",64200,https://www.cafeducommerce-biarritz.com/,43.4813993,-1.5629494
1361412604,node,Hôtel Cosmopolitain,hotel,Bayonne,1 Rue Gambetta,,https://hotelcosmopolitain.com/,43.4820414,-1.5618977
1361442955,node,Hôtel Mercure Le Président,hotel,Bayonne,,,,43.4818119,-1.559779
1361463830,node,Brasserie Gardères,restaurant,Bayonne,,,,43.4825627,-1.559212
1361467438,node,Comptoir Umami,restaurant,Bayonne,"Avenue Joseph Petit, 64200, Biarritz",64200,,43.4828229,-1.5581029
1361473274,node,Le Pim'Pi,restaurant,Bayonne,,,,43.4817484,-1.557053
1362429263,node,Elissaldia,restaurant,Bayonne,"Place Sauveur Atchoarena, 64210, Bidart",64210,https://www.hotel-elissaldia.com/,43.4388756,-1.5901267
1362558463,node,Hôtel Best Western Kemaris,hotel,Bayonne,,,,43.4765176,-1.5624959
1362597014,node,Bar restaurant Bistrot zingué,restaurant,Bayonne,"5 Avenue de la Gare, 64200",64200,,43.4781112,-1.5571093
1362597015,node,La bonne franquette,restaurant,Bayonne,,,,43.4780809,-1.5567602
1362597016,node,Los tacos chingones,restaurant,Bayonne,,,,43.4781628,-1.5568088
1362597018,node,Le TajMahal,restaurant,Bayonne,,,,43.478011,-1.5567337
1362718060,node,Le Crabe Tambour,restaurant,Bayonne,,,,43.4746072,-1.5636616
1362718063,node,Chez Bibi,restaurant,Bayonne,,,,43.4745254,-1.5638654
1362724090,node,Tantina de Burgos,restaurant,Bayonne,"2 Place Beaurivage, 64200",64200,,43.4728777,-1.5667815
1363034906,node,Grand Tonic Hôtel,hotel,Bayonne,"58 Avenue Édouard VII, 64200, Biarritz",64200,,43.4845262,-1.5568936
1363042051,node,Hostellerie Victoria,hotel,Bayonne,,,,43.4849856,-1.5544232
1363045787,node,Xuxu,restaurant,Bayonne,"8bis, 64200",64200,,43.4844249,-1.5483352
1363396195,node,Chez nous,restaurant,Bayonne,,,,43.4811633,-1.5337561
1363396198,node,Saint-Georges,restaurant,Bayonne,,,,43.4811887,-1.5335874
1401399263,node,Manechenea,restaurant,Bayonne,,,https://www.manexenea.com/fr/,43.2063761,-1.3362069
1401842809,node,Café Garra,restaurant,Bayonne,,,https://app.aji-code.com/place/257910?slugged=1,43.3848979,-1.6673185
1415224366,node,Le Royalty,restaurant,Bayonne,,,,43.4823514,-1.5607501
1446894614,node,Bao Ttiki,restaurant,Bayonne,"14 Rue des Eucalyptus, 64700",64700,https://baottiki.com/,43.3724045,-1.7756663
1446894616,node,Café des Délices,restaurant,Bayonne,,,,43.3723048,-1.7756814
1452018126,node,La Rhune,viewpoint,Bayonne,,,,43.3090323,-1.6356799
1452018161,node,,viewpoint,Bayonne,,,,43.3153186,-1.6188047
1464304895,node,Octopus,restaurant,Bayonne,"2 Rue Gardères, 64200, Biarritz",64200,https://octopus-biarritz.com/,43.4829443,-1.559571
1464304928,node,Statue de la Vierge,artwork,Bayonne,,,,43.4840677,-1.5702939
1635628044,node,,viewpoint,Bayonne,,,,43.4931771,-1.5540945
1635640446,node,Hôtel Eddouard VII,hotel,Bayonne,,,https://www.hotel-edouardvii.com,43.479262,-1.5623341
1635645886,node,Hôtel le Biarritz,hotel,Bayonne,,,https://www.hotel-le-biarritz.com/,43.4693977,-1.5692582
1635645906,node,Le Ponton,restaurant,Bayonne,,,,43.469223,-1.5693349
1635658630,node,Chez Txotx,restaurant,Bayonne,,,,43.4894443,-1.475095
1691117692,node,Aux Morts pour la France (1914-1918 1939-1945),memorial,Bayonne,,,,43.4835262,-1.5684384
1691117744,node,Rocher de la Vierge,viewpoint,Bayonne,,,,43.4843232,-1.5709229
1707146837,node,Monument aux morts,artwork,Bayonne,,,,43.3605084,-1.7759014
1708153447,node,,memorial,Bayonne,,,,43.3842535,-1.6657287
1713192348,node,La Chaloupe,restaurant,Bayonne,,,,43.5207497,-1.5255105
1721106892,node,Restaurant du Moulin de Bassilour,restaurant,Bayonne,,,,43.4328445,-1.5640809
1734188851,node,Monument aux Morts,memorial,Bayonne,,,,43.4750895,-1.2036615
1738381210,node,Monument aux Morts,memorial,Bayonne,,,,43.3402266,-1.0235128
1739123951,node,Château d'Uhart-Mixe,castle,Bayonne,,,,43.2793779,-1.0190635
1788684272,node,Jungle Café,restaurant,Bayonne,,,,43.4838203,-1.5067538
1791437915,node,Sukaldea,restaurant,Bayonne,,,,43.3479927,-1.7707485
1791445513,node,Favela hendaye,restaurant,Bayonne,"11 Place de la République, 64700",64700,https://www.favela-hendaye.com/,43.3581417,-1.7746215
1791451560,node,Bellevue,hotel,Bayonne,,,,43.3683165,-1.7705008
1806192742,node,,memorial,Bayonne,,,,43.492663,-1.4794166
1808614364,node,Nik Borroka Maite Dut,artwork,Bayonne,,,,43.4950138,-1.4671722
1828784581,node,Taloka,restaurant,Bayonne,,,,43.4902121,-1.475131
1837356881,node,Ohartzia,hotel,Bayonne,"28 Rue Garat, 64500, Saint-Jean-de-Luz",64500,https://www.hotel-ohartzia.com/,43.389341,-1.6625986
1837356897,node,La Diva,restaurant,Bayonne,"7 Rue de la République, 64500, Saint-Jean-de-Luz",64500,http://www.restaurantladiva.com/,43.3882183,-1.6642909
1837359135,node,Txalupa,restaurant,Bayonne,,,,43.3873601,-1.6640029
1853410664,node,La cabane à pizzas,restaurant,Bayonne,64990,64990,,43.4699856,-1.4258639
1887242784,node,Cardinal Charles Martial Lavigerie,artwork,Bayonne,,,,43.4933138,-1.4734846
1895020129,node,Le Bon coin,hotel,Bayonne,,,,43.4822188,-1.5543702
1895026557,node,Hôtel Oxo,hotel,Bayonne,,,,43.4817128,-1.5546169
1895026566,node,Le café des artistes,restaurant,Bayonne,26 Avenue du Maréchal Foch,,https://www.cafedesartistesbiarritz.com/,43.480017,-1.5587227
1895027968,node,Jules Verne,hotel,Bayonne,,,,43.4785287,-1.555486
1895088892,node,,viewpoint,Bayonne,,,,43.4830046,-1.5590849
1919138021,node,Hôtel du Fronton,hotel,Bayonne,,,,43.3374825,-1.2063447
1934932932,node,,viewpoint,Bayonne,,,,43.3999896,-1.6640967
1947441115,node,Restaurant Malgorenia,restaurant,Bayonne,,,,43.2823056,-1.1810558
2023244877,node,Bistrot Régent,restaurant,Bayonne,"272 Avenue du Plateau, 64210, Bidart",64210,,43.4452812,-1.5831406
2133119413,node,,ruins,Bayonne,,,,43.4776281,-1.477718
2167673752,node,,viewpoint,Bayonne,,,,43.3225944,-1.6413642
2246263450,node,Hôtel Chantaco Golf et Wellness,hotel,Bayonne,"Route d'Ascain, 64500, Saint-Jean-de-Luz",64500,https://www.lechantaco.com/,43.3810847,-1.6404397
2265785268,node,Monument M. Renaud,monument,Bayonne,,,,43.1647657,-1.2378095
2291915155,node,,viewpoint,Bayonne,,,,43.3207004,-1.6595341
2299289636,node,,viewpoint,Bayonne,,,,43.3249106,-1.7160057
2344621543,node,Anaiak,restaurant,Bayonne,,,,43.3561831,-1.5507322
2353422678,node,"Etxola, Chalet de Cize",restaurant,Bayonne,,,https://www.facebook.com/etxola.irati.9,43.0485334,-1.0731075
2365636579,node,,ruins,Bayonne,,,,43.3104524,-1.7122155
2422908367,node,,viewpoint,Bayonne,,,,43.4678754,-1.5726369
2425157642,node,Casa Juan Pedro,restaurant,Bayonne,,,http://casajuanpedro.com/,43.4830524,-1.565791
2425157673,node,Chez Albert,restaurant,Bayonne,"51 Allée Port des Pêcheurs, 64200",64200,,43.4831011,-1.5653029
2425157710,node,Le Corsaire,restaurant,Bayonne,,,,43.4831284,-1.5655281
2425164179,node,Ventilo Café - Restaurant & Bar,restaurant,Bayonne,"30 Rue Mazagran, 64200",64200,,43.4819511,-1.5648177
2425164191,node,Crêperie,restaurant,Bayonne,,,,43.4819277,-1.5646773
2426458192,node,Hôtel Parc Mazon,hotel,Bayonne,,,,43.4777538,-1.5622065
2426579863,node,Les Terrasses,restaurant,Bayonne,,,,43.478538,-1.564523
2428702318,node,Grande Amapola,artwork,Bayonne,,,,43.4793161,-1.558721
2428702355,node,Faune,artwork,Bayonne,,,,43.4795958,-1.5603505
2429827521,node,,viewpoint,Bayonne,,,,43.4395353,-1.5927112
2429836014,node,Nuance,restaurant,Bayonne,,,https://www.restaurantnuance.com/,43.4892942,-1.4732498
2431603578,node,Maison Plaisir,restaurant,Bayonne,,,,43.4814856,-1.5585135
2432919072,node,Chez Scott,restaurant,Bayonne,,,,43.4810214,-1.5582216
2432919077,node,Chez Pilou,restaurant,Bayonne,,,,43.4816765,-1.5580367
2432919086,node,Hôtel Villa Koegui,hotel,Bayonne,,,,43.4807408,-1.5580851
2432919091,node,Hôtel Alcyon,hotel,Bayonne,,,,43.481241,-1.5575206
2432919097,node,La Goulue,restaurant,Bayonne,"3 Rue Étienne Ardoin, 64200",64200,http://www.lagouluebiarritz.com/,43.4805829,-1.5583178
2432919103,node,Sillon,restaurant,Bayonne,,,,43.4810103,-1.5584573
2432919114,node,Légende de Biarritz,artwork,Bayonne,,,,43.4805941,-1.5586183
2432927642,node,Helbidea - Bistrot locavore,restaurant,Bayonne,,,,43.4818909,-1.5571667
2433987631,node,Bar Jean,restaurant,Bayonne,"5 Rue des Halles, 64200",64200,https://barjean-biarritz.fr/,43.4812782,-1.5625382
2433987632,node,Chistera & Coquillages,restaurant,Bayonne,"13 13 Rue des Halles, 64200, Biarritz",64200,https://chisteraetcoquillages.fr/,43.4811368,-1.5618861
2435452685,node,Bistrot des Halles,restaurant,Bayonne,,,,43.4807533,-1.5624008
2437908663,node,Au Bouchon Basque,restaurant,Bayonne,,,,43.4858999,-1.4765465
2437908666,node,B.O.U.L.O.M,restaurant,Bayonne,,,,43.4866073,-1.475862
2437908667,node,Brasserie de la Nive,restaurant,Bayonne,,,,43.485552,-1.4754627
2437908726,node,,memorial,Bayonne,,,,43.4865827,-1.4763238
2440435666,node,Adour - Château de Montpellier,viewpoint,Bayonne,,,,43.5000454,-1.2979315
2441768262,node,Stèle,monument,Bayonne,,,,43.382432,-1.3269959
2443499141,node,Cantina Biarritz Bodega Restaurant de Nuit,restaurant,Bayonne,,,,43.4788892,-1.5622154
2443576986,node,Hôtel Saint-Julien,hotel,Bayonne,,,https://saint-julien-biarritz.com/,43.4790298,-1.5625226
2444299979,node,Four à chaux,monument,Bayonne,,,,43.4245033,-1.4611063
2461361069,node,Vue sur la Vallée des Aldudes,viewpoint,Bayonne,,,,43.0910134,-1.4211222
2495185909,node,,memorial,Bayonne,,,,43.1908474,-1.1645724
2503124135,node,Le Pottok,restaurant,Bayonne,,,,43.1906934,-1.165406
2510905348,node,Hôtel-restaurant Le Midi,hotel,Bayonne,"11 Place du Foirail, 64120, Saint-Palais",64120,http://www.hoteldumidi64.fr,43.328322,-1.0349639
2521282612,node,,viewpoint,Bayonne,,,,43.4940552,-1.5528906
2542281304,node,Aguerria,restaurant,Bayonne,,,,43.3727183,-1.7476082
2590751455,node,Hôtel Côte Basque,hotel,Bayonne,,,https://www.hotel-cotebasque.fr/,43.4961653,-1.4695787
2601389048,node,Le Chaudron,restaurant,Bayonne,,,,43.5267223,-1.5216815
2601389063,node,Tinta Beltza,restaurant,Bayonne,,,,43.5269238,-1.5226999
2620412295,node,,viewpoint,Bayonne,,,,40.6801018,-74.119134
2702756266,node,Le Bistrot gourmet,restaurant,Bayonne,"18 Rue de la Bergerie, 64200, Biarritz",64200,https://le-bistrot-gourmet.com/,43.4860631,-1.5509466
2702756268,node,L'Impertinent,restaurant,Bayonne,"5 Rue d'Alsace, 64200, Biarritz",64200,https://www.l-impertinent.fr/,43.486443,-1.5504442
2749274320,node,Chez Margot,restaurant,Bayonne,"Avenue du Commandant Passicot, 64500, Ciboure",64500,,43.3935226,-1.6851538
2796127025,node,L.M.B,restaurant,Bayonne,"58 Avenue Édouard VII, 64200, Biarritz",64200,,43.484464,-1.5568829
2796181655,node,La Table Basque,restaurant,Bayonne,,,https://www.restaurant-ltb-biarritz.com/,43.4840173,-1.5569158
2796181656,node,La Crêpe Dentelle,restaurant,Bayonne,,,,43.4840241,-1.5568568
2796181657,node,Le Bistrot 2 Génie,restaurant,Bayonne,,,,43.4840309,-1.5566502
2798505757,node,Windsor,hotel,Bayonne,"11 Avenue Édouard VII, 64200, Biarritz",64200,,43.4838927,-1.5584457
2798505764,node,Happy Days Diner,restaurant,Bayonne,"46 Avenue Édouard VII, 64200, Biarritz",64200,,43.4838587,-1.5580141
2798505765,node,Le Bellevue,hotel,Bayonne,"5 Avenue Édouard VII, 64200, Biarritz",64200,,43.4835772,-1.5588359
2799172201,node,La Trattoria,restaurant,Bayonne,"20 Avenue Édouard VII, 64200, Biarritz",64200,,43.4834852,-1.5584406
2849939580,node,Monument à Edmond Rostand,memorial,Bayonne,,,,43.3597309,-1.3987993
2979278619,node,Hôtel de la Paix,hotel,Bayonne,"33 Rue du Jeu de Paume, 64120, Saint-Palais",64120,https://www.hotellapaix.com/,43.3279192,-1.0348177
2979278620,node,Restaurant Le Midi,restaurant,Bayonne,"Place du Foirail, 64120, Saint-Palais",64120,http://www.hoteldumidi64.fr/,43.3283016,-1.0349959
2979278623,node,Bar Brasserie au Comptoir,restaurant,Bayonne,"Avenue de Garris, 64120, Saint-Palais",64120,,43.3289378,-1.0349653
2984742240,node,Itxasoa,restaurant,Bayonne,,,,43.520642,-1.5253713
2995411171,node,Saint Sylvestre,restaurant,Bayonne,"Iruñeko errepidea, 64430, Les Aldudes",64430,https://www.stsylvestre-paysbasque.com/,43.0825144,-1.4353688
2995411172,node,Ostatua Menta,restaurant,Bayonne,"Esnazu, 64430, Les Aldudes",64430,https://www.ferme-auberge-menta.com/,43.0804476,-1.4403229
3014055033,node,Arraya,restaurant,Bayonne,"Plaza, Sare",,https://www.arraya.com/,43.3124881,-1.5801345
3014055036,node,Mimosa,restaurant,Bayonne,,,,43.3125674,-1.5804236
3036956666,node,Getaria,restaurant,Bayonne,"Avenue du Général de Gaulle, 64210, Guéthary",64210,https://getaria.fr/,43.4233388,-1.6086969
3048583194,node,,memorial,Bayonne,,,,43.4859602,-1.4831656
3080643023,node,,viewpoint,Bayonne,,,,43.4840475,-1.5631157
3172043288,node,L'Hirondelle,restaurant,Bayonne,"3 Rue du 17 Pluviôse, 64500, Saint-Jean-de-Luz",64500,,43.3875225,-1.6624436
3228598323,node,Mahaina,restaurant,Bayonne,"5 Rue de la Madeleine, 64210, Bidart",64210,https://www.restaurantmahaina-bidart.fr,43.439484,-1.590674
3248237883,node,,memorial,Bayonne,,,,43.3862492,-1.4335631
3259967790,node,,viewpoint,Bayonne,,,,43.4831667,-1.5608722
3351832510,node,Café Ttipia,restaurant,Bayonne,"2 Place Floquet, 64220, Saint-Jean-Pied-de-Port",64220,https://www.cafettipia.com/,43.1622966,-1.2386387
3351941947,node,Café de la Paix,restaurant,Bayonne,"4 Place Floquet, 64220, Saint-Jean-Pied-de-Port",64220,https://cafedelapaix-saintjean.com/,43.1621127,-1.2388935
3370085839,node,Clementenia,hotel,Bayonne,"le bourg D933, 64220, Arnéguy",64220,,43.1103937,-1.2799494
3398123563,node,Hôtel des Pyrénées,hotel,Bayonne,"19 Place Charles de Gaulle, 64220, Saint-Jean-Pied-de-Port",64220,,43.1633925,-1.2377477
3398130453,node,Amatto,restaurant,Bayonne,,,,43.1628032,-1.2376849
3409041798,node,Noblia,hotel,Bayonne,"64780, Bidarray",64780,https://www.hotel-basque-noblia.com/,43.268301,-1.345025
3483565294,node,B&B Hôtel,hotel,Bayonne,29 Rue Melville-Lynch,,https://www.hotel-bb.com/fr/-/hotelByName.htm?id=4120,43.464512,-1.4960013
3496512536,node,Le Gantxo,restaurant,Bayonne,,,https://www.restaurant-le-gantxo.fr/,43.5212466,-1.1975099
3503656736,node,Oroit Mina,artwork,Bayonne,,,,43.3537034,-1.5493036
3503685987,node,L'Oiseau,artwork,Bayonne,,,,43.5277125,-1.5221742
3519438120,node,Chez Pablo,restaurant,Bayonne,"5 Rue Mademoiselle Etcheto, 64500, Saint-Jean-de-Luz",64500,https://www.restaurant-chez-pablo.com/,43.3870528,-1.6601335
3519843474,node,Chez Michel,restaurant,Bayonne,"65 Rue Saint-Jacques, 64500, Saint-Jean-de-Luz",64500,,43.390548,-1.6586802
3520000994,node,Ilura,hotel,Bayonne,"1 Avenue Gaëtan de Bernoville, Saint-Jean-de-Luz",,https://www.hotel-lareserve.com/,43.401725,-1.6596468
3520002689,node,L'Océan,hotel,Bayonne,,,https://luzgrandhotel.fr/,43.3926219,-1.6598101
3520002692,node,Erroa,restaurant,Bayonne,"32 Boulevard Adolphe Thiers, 64500, Saint-Jean-de-Luz",64500,https://www.restaurant-erroa.fr/,43.3916892,-1.6592781
3520009463,node,Le Bistrot Luzien,restaurant,Bayonne,"23 Boulevard Adolphe Thiers, 64500, Saint-Jean-de-Luz",64500,https://www.bistrotluzien.fr/,43.3904206,-1.6593996
3520009464,node,Le Madison,restaurant,Bayonne,"25 Boulevard Adolphe Thiers, 64500, Saint-Jean-de-Luz",64500,https://www.madison-saintjeandeluz.com/fr/restauration/brasserie-du-madison/,43.390652,-1.659291
3520039777,node,Tokiko,restaurant,Bayonne,"45 Chemin de Chibau, 64500, Saint-Jean-de-Luz",64500,https://www.tokiko-restaurant.fr/,43.4069069,-1.6279656
3520039779,node,Le komptoir des amis,restaurant,Bayonne,"7, 64500, Saint-Jean-de-Luz",64500,https://www.lekomptoirdesamis.com,43.38647,-1.6603584
3520048489,node,Pizza Donna,restaurant,Bayonne,"4 Rue Philippe Veyrin, 64500, Saint-Jean-de-Luz",64500,,43.3860489,-1.6559084
3520072367,node,L'Odyssée,restaurant,Bayonne,,,https://www.restaurant-odyssee-64.com/,43.3675234,-1.7710757
3520072368,node,Le Resto de l'Océan,restaurant,Bayonne,,,http://www.resto-de-locean.fr,43.3754285,-1.7625755
3520080414,node,Briketenia,hotel,Bayonne,"Rue de l'Église, 64210, Guéthary",64210,https://www.briketenia.com,43.4195656,-1.6060988
3520082111,node,Le O2 Verdun,restaurant,Bayonne,,,,43.4818866,-1.5541852
3534152093,node,Belvedère de Miremont,viewpoint,Bayonne,,,,43.4814337,-1.2108566
3578539814,node,Novotel Biarritz Anglet Aéroport,hotel,Bayonne,68 Avenue d'Espagne,,,43.4772562,-1.5259879
3578541697,node,Ibis Budget 'Biarritz Anglet',hotel,Bayonne,68 Avenue d'Espagne,,,43.4768098,-1.5269527
3578548917,node,Ibis 'Biarritz Anglet Aéroport',hotel,Bayonne,64 Avenue d'Espagne,,https://all.accor.com/ssr/app/ibis/rates/0822/index.fr.shtml,43.4777645,-1.5249176
3629839440,node,Les Trois Fontaines,restaurant,Bayonne,Sare,,,43.3256914,-1.6029497
3697213253,node,Ziripot,restaurant,Bayonne,1 Place du Trinquet,,,43.1638789,-1.2370106
3703207825,node,Le Galion,restaurant,Bayonne,,,,43.4840944,-1.5583338
3710733725,node,,viewpoint,Bayonne,,,,43.4829847,-1.5676631
3710768127,node,Vue sur le port de Biarritz,viewpoint,Bayonne,,,,43.4826699,-1.5652627
3713419479,node,Helice du Frans Hals,artwork,Bayonne,,,,43.4933251,-1.5541921
3718238050,node,,viewpoint,Bayonne,,,,43.1995969,-1.2915102
3731890887,node,Pizzeria Le Capri,restaurant,Bayonne,,,https://www.lecapribiarritz.fr/,43.4826119,-1.5636938
3731893314,node,,viewpoint,Bayonne,,,,43.4913612,-1.5523295
3733294117,node,Tajinier,restaurant,Bayonne,"2 Rue des Pontots, Anglet",,,43.4936991,-1.4964012
3736442506,node,Saint-Pierre,restaurant,Bayonne,,,,43.2821058,-1.4272886
3737600279,node,Hiriburu,restaurant,Bayonne,"27 Avenue de la Basse Navarre, Saint-Pierre-d'Irube",,,43.473593,-1.451735
3739322573,node,Manava,restaurant,Bayonne,,,,43.5004749,-1.5423342
3779990057,node,,viewpoint,Bayonne,"La Citadelle, 64220, Saint-Jean-Pied-de-Port",64220,,43.1628746,-1.2350149
3798013616,node,,viewpoint,Bayonne,,,,43.4873359,-1.4741702
3798032370,node,,viewpoint,Bayonne,,,,43.4734429,-1.4780983
3800054392,node,La Gaita,restaurant,Bayonne,,,https://www.baigura.com/la-gaita,43.3101042,-1.2828188
3817846605,node,,artwork,Bayonne,,,,43.4458615,-1.5532929
3871575562,node,Bidaian,restaurant,Bayonne,,,,43.4948181,-1.4678735
3871575569,node,Matsya Hostel,hotel,Bayonne,,,https://matsyahostel.com/,43.5107324,-1.5001873
3871575570,node,Bistrot Fine,restaurant,Bayonne,,,https://hotelrestaurantfine.com/,43.5038025,-1.5037841
3871575571,node,Chez Georges,restaurant,Bayonne,,,,43.4930033,-1.488063
3871575573,node,Bistro A,restaurant,Bayonne,,,,43.4985111,-1.4879926
3871575582,node,I. D. Halles,restaurant,Bayonne,,,,43.5210154,-1.5011417
3871575583,node,Ibis Bayonne Centre,hotel,Bayonne,,,http://www.ibishotel.com,43.4926392,-1.465716
3871575585,node,Mômes,restaurant,Bayonne,,,,43.4956363,-1.5297084
3871575586,node,L'Endroit,restaurant,Bayonne,,,,43.4957459,-1.4964455
3871575589,node,La Cita,restaurant,Bayonne,,,,43.5213439,-1.5242408
3871575591,node,La Fleur de Sel,restaurant,Bayonne,,,,43.5083402,-1.5230624
3871575593,node,Le petit bistrot,restaurant,Bayonne,,,,43.492531,-1.4650124
3871575597,node,Le Cèdre du Liban,restaurant,Bayonne,,,https://www.facebook.com/Le-C%C3%A8dre-du-Liban-170995299647367/,43.4873726,-1.5372114
3871575599,node,Le Gulf Stream,restaurant,Bayonne,,,,43.5212566,-1.5238798
3871575601,node,Sc Pizza,restaurant,Bayonne,,,,43.5053165,-1.496127
3871575603,node,Leonie,restaurant,Bayonne,,,http://www.restaurant-leonie.com,43.4828825,-1.5442289
3871575604,node,Les Bahines,restaurant,Bayonne,,,,43.5213131,-1.5240709
3871575606,node,Les Pins,restaurant,Bayonne,,,,43.5198256,-1.5016581
3871575607,node,Les Tam Long,restaurant,Bayonne,,,,43.4888215,-1.4661075
3871575609,node,Chez Denise,restaurant,Bayonne,,,,43.4983199,-1.5438755
3871575612,node,Novotel Café,restaurant,Bayonne,,,http://www.novotel.biarritz.anglet.aeroport.com,43.477153,-1.5262789
3871575648,node,Orange et Chocolat,restaurant,Bayonne,,,https://www.creperie-anglet.com/,43.5011562,-1.5394958
3871575858,node,Villa Roma,restaurant,Bayonne,,,,43.5243491,-1.5068798
3871575859,node,West Side,restaurant,Bayonne,,,http://www.westside64.com,43.5242499,-1.5041536
3871575860,node,Wok64,restaurant,Bayonne,,,,43.4851654,-1.4727877
3871575923,node,Le Bistrot Urbain,restaurant,Bayonne,,,,43.4934128,-1.4681529
3891040374,node,La Socket,restaurant,Bayonne,"Avenue du Château, 64210, Bidart",64210,,43.4576114,-1.5766911
3891494132,node,,viewpoint,Bayonne,,,,43.1179622,-1.2384995
3916017747,node,,ruins,Bayonne,,,,43.3534545,-1.5488742
3960327138,node,Monument aux morts,memorial,Bayonne,"Avenue du Jai Alai, 64220, Saint-Jean-Pied-de-Port",64220,,43.1655011,-1.2334693
3982558300,node,Bar Restaurant de L'Arradoy,restaurant,Bayonne,"Bourg, 64220, Ispoure",64220,,43.1713046,-1.2353641
3986082916,node,,viewpoint,Bayonne,"64220, Ispoure",64220,,43.1703891,-1.2322397
3991636978,node,,viewpoint,Bayonne,,,,43.1806295,-1.2455176
4001052363,node,Auberge Koxeinea,restaurant,Bayonne,"64430, urepel",64430,,43.0660568,-1.4117848
4001053079,node,Auberge Lafitte,restaurant,Bayonne,"64430, Urepel",64430,,43.064269,-1.4094825
4054831705,node,Restaurant Universitaire de la Nive,restaurant,Bayonne,,,,43.4909055,-1.4700197
4058164930,node,Xalbadorren omenezko harria,memorial,Bayonne,,,,43.0709546,-1.4169233
4075590120,node,Restaurant Pizzeria Maxime,restaurant,Bayonne,,,,43.3582755,-1.7749118
4075590122,node,Ttiki Baci,restaurant,Bayonne,Place de la République,,,43.3582345,-1.7749227
4075650878,node,Casa Jose,restaurant,Bayonne,"Rue du Général de Gaulle, 64700, Hendaye",64700,,43.3529049,-1.7812379
4076986672,node,Le Comptoir des Allées,restaurant,Bayonne,,,,43.3567628,-1.7744418
4109630690,node,,memorial,Bayonne,,,,43.4943282,-1.5039053
4119124861,node,Le Perroquet,restaurant,Bayonne,,,,43.4937792,-1.4770129
4126485750,node,Atelier Chris,gallery,Bayonne,,,,43.4887003,-1.4659179
4139038384,node,Saint-Sylvestre,hotel,Bayonne,"64430, Les Aldudes",64430,,43.0824275,-1.4353424
4147089391,node,Hôtel Les Alizes,hotel,Bayonne,13 Rue du Port-Vieux,,,43.4820713,-1.5662305
4158994289,node,Jimba,restaurant,Bayonne,"Quai de la Floride, 64700, Hendaye",64700,,43.3676721,-1.7814746
4163587733,node,Auberge Etxeko Borda,restaurant,Bayonne,"64780, Ossès",64780,,43.2246594,-1.2657176
4171759116,node,L'Apostrophe,restaurant,Bayonne,"11 Rue de l'Église, 64700, Hendaye",64700,https://www.apostrophe-hendaye.com/,43.3585803,-1.7741883
4171969646,node,Gogoko,restaurant,Bayonne,"Boulevard du Général Leclerc, 64700, Hendaye",64700,,43.37102,-1.7728583
4182937196,node,Hôtel Bar de la Gare,hotel,Bayonne,"64700, Hendaye",64700,,43.3523352,-1.7813568
4208091189,node,Andrew's Healthy Eating,restaurant,Bayonne,"737 Broadway, 07002, Bayonne",07002,http://www.andrewshealthyfoods.com/,40.6724093,-74.1112876
4212479861,node,Nire Bidean,artwork,Bayonne,,,,43.4960263,-1.4726937
4248223404,node,Arraina,restaurant,Bayonne,"39 Avenue du Commandant Passicot, 64500, Ciboure",64500,,43.3934197,-1.6851894
4248223405,node,Pantxua,restaurant,Bayonne,"37 Avenue du Commandant Passicot, 64500, Ciboure",64500,,43.3933335,-1.685223
4248223406,node,La Cueva du Fort,restaurant,Bayonne,"29 Avenue du Commandant Passicot, 64500, Ciboure",64500,,43.3931236,-1.6852513
4271475951,node,Jeanne d'Arc,artwork,Bayonne,,,,43.4919491,-1.4708434
4298743995,node,Lieu des Pêcheurs,restaurant,Bayonne,,,http://lelieuanglet.fr/,43.499159,-1.5434304
4301924529,node,Rocher de la Vierge,attraction,Bayonne,,,,43.4842074,-1.57058
4303093600,node,Aintzina,restaurant,Bayonne,"4440 Karrika Nagusia, 64250, Espelette",64250,https://www.pagesjaunes.fr/pros/51650400,43.3410424,-1.4490192
4305923514,node,Ibaina,restaurant,Bayonne,,,,43.4949474,-1.5136816
4308055395,node,Arosta,restaurant,Bayonne,52 Avenue Alan Seeger,,,43.4494188,-1.5449932
4308887902,node,Juantorena,restaurant,Bayonne,"64430, Saint-Étienne-de-Baigorry",64430,https://hotelrestaurantjuantorena.fr/,43.1742022,-1.3485105
4319202491,node,Sushiwave,restaurant,Bayonne,,,,43.4863508,-1.5500134
4319290089,node,,restaurant,Bayonne,,,,43.4868258,-1.5502478
4329164650,node,,viewpoint,Bayonne,,,,43.4840701,-1.5667561
4330743199,node,La Petite Plage,restaurant,Bayonne,,,,43.4783499,-1.5645523
4330743200,node,Arena Biarritz,restaurant,Bayonne,,,,43.4823534,-1.5671689
4332387018,node,Juantorena,hotel,Bayonne,"Route de Banca, 64430, Saint-Étienne-de-Baigorry",64430,https://hotelrestaurantjuantorena.fr/,43.1741914,-1.348556
4333899383,node,Auberge Etchoinia,hotel,Bayonne,"64220, Lasse",64220,https://www.auberge-etchoinia-pays-basque.com/,43.156951,-1.2601619
4338054711,node,Le Cancre,restaurant,Bayonne,,,,43.4889431,-1.4735984
4341010376,node,Briseteia,restaurant,Bayonne,"Bourg, 64120, Saint-Just-Ibarre",64120,http://www.briseteia.com,43.1937452,-1.0561897
4341018400,node,Hôtel Mendy,hotel,Bayonne,"64220, Saint-Jean-le-Vieux",64220,https://www.hotel-mendy.com/,43.1653112,-1.193685
4358109001,node,Memphis Coffee,restaurant,Bayonne,"8 bis Chemin de Hayet, 64100, Bayonne",64100,http://www.memphis-coffee.com,43.4914653,-1.4514676
4363581389,node,Pottoka,restaurant,Bayonne,"5 Place du Jeu de Paume, 64250, Espelette",64250,,43.3411925,-1.449774
4366416091,node,Le Chistera,restaurant,Bayonne,,,,43.4918162,-1.4763416
4366486389,node,Les Arcades,restaurant,Bayonne,,,,43.4918977,-1.4762523
4366487392,node,Bouillon Armand,restaurant,Bayonne,,,https://www.bouillonarmand.com/,43.4925497,-1.4763789
4381997006,node,Notre-Dame de Muskoa,artwork,Bayonne,,,,43.3884173,-1.6716383
4387368412,node,Ibis Ciboure Saint-Jean-de-Luz,hotel,Bayonne,"13 Rue Georges Olascuaga, Ciboure",,,43.3835912,-1.6652322
4387368460,node,Maitenia,restaurant,Bayonne,"8 Place du Fronton, 64500, Ciboure",64500,https://lephemere-ciboure.fr/,43.3840143,-1.668108
4402585103,node,Bahia Beach,restaurant,Bayonne,"Chemin Borognenia Ko Bidea, 64210, Bidart",64210,,43.4279019,-1.6067018
4428729389,node,Le Poinçon,restaurant,Bayonne,"Rue du Comte G. de Swiecinski, 64210, Guéthary",64210,,43.4252164,-1.6102018
4439223933,node,Tour de Rocafort,castle,Bayonne,,,,43.3531182,-1.2076381
4442609251,node,Txinako,restaurant,Bayonne,"4 Rue des Mésanges, 64200, Biarritz",64200,,43.4624768,-1.5392862
4446544978,node,Snoopduck,restaurant,Bayonne,,,,43.4511544,-1.557443
4448899184,node,Les Patios d'Eugénie,hotel,Bayonne,32 Avenue de la Reine Victoria,,,43.4851452,-1.5521364
4463057591,node,Parc d'aventures et Paintball,attraction,Bayonne,,,,43.3567797,-1.7429278
4465183876,node,Haize Hegoa,restaurant,Bayonne,,,,43.3326123,-1.4105775
4485480133,node,Le Restaurant du café de la plage,restaurant,Bayonne,,,,43.3902931,-1.6859822
4485480135,node,,restaurant,Bayonne,,,,43.3941444,-1.6850874
4485480138,node,Le SocoWa,restaurant,Bayonne,"45 Avenue du Commandant Passicot, 64500, Ciboure",64500,,43.3944991,-1.6847501
4485480139,node,Pizza Arteka,restaurant,Bayonne,,,,43.3911037,-1.6858984
4485480140,node,Bistrot le Jeu de Paume,restaurant,Bayonne,"11 Avenue du Commandant Passicot, 64500, Ciboure",64500,,43.3908983,-1.6857053
4485480141,node,Snack du Fort,restaurant,Bayonne,"45 Avenue du Commandant Passicot, 64500, Ciboure",64500,,43.3942182,-1.6850166
4485486388,node,Capybara,restaurant,Bayonne,"Rue de l'Uhabia, 64210, Bidart",64210,https://www.capybara-bidart.com/,43.4331077,-1.5968118
4485488189,node,La Cucaracha,restaurant,Bayonne,"Rue de l'Uhabia, 64210, Bidart",64210,,43.4328278,-1.5965531
4485488192,node,Anaia,restaurant,Bayonne,"9 Rue de la Plage, 64210, Bidart",64210,https://restaurant-anaia.com/,43.4364071,-1.5964021
4485488193,node,Tantina de la Playa,restaurant,Bayonne,"Plage du Centre, 64210, Bidart",64210,https://tantinadelaplaya.com/,43.4365228,-1.5963078
4487412244,node,Itsas Zaldi,restaurant,Bayonne,9 Rue des Figuiers,,,43.3719697,-1.774757
4487412245,node,Trattoria della Nonna,restaurant,Bayonne,,,,43.3720778,-1.7747731
4487412246,node,Hell's Burger,restaurant,Bayonne,,,,43.3719668,-1.7744656
4494189491,node,Zapi: La Trattoria des Bons Amis,restaurant,Bayonne,,,https://zapi-traiteur.fr,43.4812384,-1.4885004
4497534389,node,Le P'tit Bistrot,restaurant,Bayonne,"Route Départementale 22, 64780, Suhescun",64780,,43.2305615,-1.2021372
4499277681,node,Jarapea,restaurant,Bayonne,"94 Rue du Fronton, 64220, Irouléguy",64220,https://jarapea-restaurant.eatbu.com,43.177055,-1.299682
4506510047,node,Hôtel des Basses Pyrénées,hotel,Bayonne,,,,43.4884451,-1.4771152
4507848851,node,Central Hotel,hotel,Bayonne,1 Place Charles de Gaulle,,https://centralhotel64.com/,43.1627901,-1.2383413
4512482009,node,,viewpoint,Bayonne,,,,43.3804355,-1.755668
4534902228,node,,artwork,Bayonne,,,,43.3082482,-1.6427971
4578333389,node,Le Comptoir du Foie Gras,restaurant,Bayonne,,,,43.4808691,-1.5624686
4579719491,node,Cosy West,restaurant,Bayonne,"19 Rue Loquin, 64500, Saint-Jean-de-Luz",64500,,43.3904316,-1.6601431
4579720591,node,Le Prado,restaurant,Bayonne,"Promenade Jacques Thibaud, 64500, Saint-Jean-de-Luz",64500,,43.3918528,-1.6604879
4579721389,node,Ama Lur,artwork,Bayonne,,,,43.3929079,-1.6599124
4579749897,node,Xaya La cave à manger,restaurant,Bayonne,"3 Rue Saint-Jean, 64500, Saint-Jean-de-Luz",64500,https://xaya.fr/,43.3875369,-1.6627169
4579749900,node,Kaïku,restaurant,Bayonne,"17 Rue de la République, 64500, Saint-Jean-de-Luz",64500,https://www.kaiku.fr/,43.3885808,-1.6644333
4579753396,node,Le Suisse,restaurant,Bayonne,"Place des Corsaires, 64500, Saint-Jean-de-Luz",64500,,43.3875621,-1.6638297
4579762894,node,Le Sud,restaurant,Bayonne,"20 Promenade Jacques Thibaud, 64500, Saint-Jean-de-Luz",64500,,43.3910984,-1.661542
4579763094,node,Crèperie Ilunabarra,restaurant,Bayonne,"9 Promenade Jacques Thibaud, 64500, Saint-Jean-de-Luz",64500,,43.3915323,-1.6611779
4579763095,node,Toki Goxoa,restaurant,Bayonne,"7 Promenade Jacques Thibaud, 64500, Saint-Jean-de-Luz",64500,http://www.tokigoxoa.fr/,43.3915982,-1.6610633
4579785292,node,L'Artha,restaurant,Bayonne,"28 Rue de la République, 64500, Saint-Jean-de-Luz",64500,,43.3887834,-1.6643649
4615781026,node,Restaurant Andreinia,restaurant,Bayonne,"64220, Estérençuby",64220,https://www.hotel-andreinia.com/,43.1036244,-1.1964673
4641765006,node,Atelier Mala,restaurant,Bayonne,,,,43.489143,-1.4775121
4641765008,node,Nina et Lilly,artwork,Bayonne,,,https://www.trompe-l-oeil.info/graffitis/details.php?image_id=23806,43.4901968,-1.4766448
4641773304,node,Restaurant Dacquois,restaurant,Bayonne,,,,43.4894797,-1.4770485
4641984090,node,La Cave des Gouverneurs,restaurant,Bayonne,,,,43.4909862,-1.4777597
4642421592,node,Restaurant Le Moulin d'Alotz,restaurant,Bayonne,"Chemin Alotz Errota, Arcangues",,https://moulindalotz.com/home/,43.4214583,-1.5384046
4643656095,node,Monument à Juan de Huarte,memorial,Bayonne,,,,43.1654375,-1.2325544
4697018980,node,Bar Restaurant Eskularia,restaurant,Bayonne,"89 Chemin Oihan Bazter, 64990, Villefranque",64990,https://eskularia-restaurant-villefranque.eatbu.com/?lang=fr,43.4359164,-1.4554361
4701119193,node,Galerie d'art du Taoulet - Jacques Pineau verrier,gallery,Bayonne,"Place des Arceaux, 64240, La Bastide-Clairence",64240,https://www.pineau-artverrier.com/,43.4292641,-1.2563034
4706405136,node,Auberge 22,restaurant,Bayonne,"22 Rue Harispe, 64200",64200,https://auberge22.fr/,43.4735874,-1.5657735
4726498189,node,Los dos hermanos,restaurant,Bayonne,"36 Avenue de Verdun, 64200",64200,,43.4816992,-1.5547474
4726507490,node,Xurasco,restaurant,Bayonne,,,,43.4897558,-1.4754727
4741244011,node,Le Peita,restaurant,Bayonne,"21 Rue Pierre-Louis Tourasse, 64500, Saint-Jean-de-Luz",64500,https://www.restaurant-lepeita.com/,43.3882833,-1.663498
4741244013,node,Hôtel La Marisa,hotel,Bayonne,"16 Rue Martin de Sopite, 64500",64500,https://www.hotel-lamarisa.com/,43.3898999,-1.6616068
4741244014,node,Kaia Ostatua,restaurant,Bayonne,"39 Tourasse karrika, 64500, Donibane Lohizune",64500,,43.3889738,-1.6637691
4741244020,node,Le Patio,restaurant,Bayonne,"33 Rue Pierre-Louis Tourasse, 64500, Saint-Jean-de-Luz",64500,,43.3886672,-1.6636555
4741244725,node,Hôtel Colbert,hotel,Bayonne,"3 Boulevard du Commandant Passicot, 64500, Saint-Jean-de-Luz",64500,https://www.hotelcolbertsaintjeandeluz.com/,43.386317,-1.6608033
4741244726,node,Grand Hôtel de la Poste,hotel,Bayonne,"83 Rue Léon Gambetta, 64500, Saint-Jean-de-Luz",64500,https://www.grandhoteldelaposte.com/,43.3905267,-1.6579598
4741244732,node,Hôtel de Paris,hotel,Bayonne,"Boulevard du Commandant Passicot, 64500, Saint-Jean-de-Luz",64500,https://hotel-saintjeandeluz.brithotel.fr/,43.3862442,-1.6610553
4741274360,node,Zubiburu,restaurant,Bayonne,,,https://www.hotel-du-pont-ascain.fr/,43.3512087,-1.6256914
4741274361,node,Hôtel du Pont,hotel,Bayonne,"55 Route de Saint-Jean-de-Luz, Ascain",,https://www.hotel-du-pont-ascain.fr/,43.3511187,-1.6257337
4741305233,node,Chemin de fer de la Rhune,attraction,Bayonne,,,https://www.rhune.com/fr/,43.3249996,-1.600713
4741305234,node,Le Pullman,restaurant,Bayonne,,,,43.3250243,-1.6003262
4741750316,node,,viewpoint,Bayonne,,,,43.3807641,-1.7550561
4770775560,node,Restaurant C'Vall,restaurant,Bayonne,"64430, Urepel",64430,https://www.cvall.fr/,43.070512,-1.4165719
4789924527,node,Un jour à Peyrassol,restaurant,Bayonne,Avenue de la Reine Victoria,,,43.4853541,-1.5536595
4789924530,node,Le Majestic,restaurant,Bayonne,,,,43.4852967,-1.5547711
4790240921,node,Les Arènes,restaurant,Bayonne,,,,43.4917525,-1.4855838
4790297530,node,Rosy,restaurant,Bayonne,,,,43.4913727,-1.4737787
4790433722,node,Chez Baï Les Goûts d'Ailleurs,restaurant,Bayonne,,,,43.4902838,-1.4731059
4790453822,node,Sen Viet,restaurant,Bayonne,,,,43.4910792,-1.4725711
4791583027,node,Déjà vu,restaurant,Bayonne,,,,43.4901698,-1.4734894
4791590824,node,O’jura mendia,restaurant,Bayonne,,,,43.4901829,-1.4736136
4791590827,node,La Grange,restaurant,Bayonne,,,,43.4906121,-1.4739802
4791804136,node,Fufu Ramen,restaurant,Bayonne,"66 Rue d'Espagne, 64100",64100,https://restaurantfufu.com/,43.4899747,-1.476728
4791810027,node,4 mmamma,restaurant,Bayonne,,,,43.4903441,-1.47648
4795376225,node,Brasserie Luz,restaurant,Bayonne,"107 Avenue de Jaldaï, 64500, Saint-Jean-de-Luz",64500,,43.405582,-1.6269539
4798897524,node,Patxamama,restaurant,Bayonne,,,,43.4909162,-1.4753947
4822597322,node,Poza,restaurant,Bayonne,"64 Rue Gambetta, 64200",64200,,43.479397,-1.5642859
4822612421,node,L'Entre Deux,restaurant,Bayonne,"5 Avenue du Maréchal Foch, 64200",64200,https://www.lentredeuxbiarritz.com/,43.4809451,-1.5588098
4822759232,node,Le Comptoir à Burger,restaurant,Bayonne,"62 Rue Gambetta, 64200",64200,,43.4795279,-1.5642051
4822819623,node,L'Etable,restaurant,Bayonne,"6 Rue Lavernis, 64200",64200,,43.4825318,-1.5595277
4823857105,node,Résidence Bergara,hotel,Bayonne,"Rue principale, Souraide",,,43.3415568,-1.4739248
4826759957,node,La petite pause,restaurant,Bayonne,"17 Place Duhalde, 64250, Cambo-les-Bains",64250,,43.3603502,-1.3990746
4826926275,node,Etxe Tipia,restaurant,Bayonne,"4 Rue Chiquito de Cambo, 64250, Cambo-les-Bains",64250,https://etxe-tipia-restaurant-cambo-les-bains.eatbu.com/,43.3616808,-1.3995593
4828373683,node,Ingres,restaurant,Bayonne,13 Place Duhalde,,,43.3604082,-1.3991161
4828433843,node,Pizza Mia,restaurant,Bayonne,"Allée Edmond Rostand, 64250, Cambo-les-Bains",64250,,43.3607641,-1.4013944
4828433844,node,Brasserie le Chiquito,restaurant,Bayonne,"13, 64250, Cambo-les-Bains",64250,https://www.le-chiquito.com/,43.3607135,-1.4012707
4828446067,node,Bodega Pil Pil,restaurant,Bayonne,"12 Rue du Trinquet, 64250, Cambo-les-Bains",64250,,43.3614641,-1.3996949
4829138551,node,Terrae,restaurant,Bayonne,"7 Avenue de la Mairie, 64250, Cambo-les-Bains",64250,https://restaurant-terrae.fr/,43.3612046,-1.3984663
4829209266,node,Pizza 64,restaurant,Bayonne,"50 Avenue d'Espagne, 64250, Cambo-les-Bains",64250,,43.3559425,-1.414221
4835012143,node,Ibis Budget,hotel,Bayonne,,,,43.4886905,-1.4572935
4835012145,node,Courtepaille,restaurant,Bayonne,,,,43.4888543,-1.4570764
4837028238,node,Hôtel Café du Trinquet,hotel,Bayonne,"Rue du Trinquet, 64250, Cambo-les-Bains",64250,,43.3616648,-1.3999821
4841298284,node,Larreako dorrea,ruins,Bayonne,,,,43.2632766,-1.5894824
4847100003,node,Chez Coco,restaurant,Bayonne,"5 Rue Gardères, 64200, Biarritz",64200,,43.4825455,-1.5593255
4862088921,node,Txik Txak,restaurant,Bayonne,,,,43.4843303,-1.5381972
4865582866,node,Les Genêts,hotel,Bayonne,,,,43.4649558,-1.4959565
4868223507,node,Ttipia,restaurant,Bayonne,,,,43.4893196,-1.473077
4868223508,node,Los Tacos Chingones,restaurant,Bayonne,,,,43.4889828,-1.4730717
4868223515,node,Hegoa,restaurant,Bayonne,,,,43.4897393,-1.4734722
4868223519,node,Mona Lisa,restaurant,Bayonne,,,,43.491935,-1.4737326
4868225025,node,Cantine du Musée,restaurant,Bayonne,,,,43.4925075,-1.4731202
4868366888,node,Vieille voiture,artwork,Bayonne,,,https://www.trompe-l-oeil.info/graffitis/details.php?image_id=18122,43.4909287,-1.4759796
4868369131,node,Influences,restaurant,Bayonne,,,,43.4890982,-1.4784874
4871233715,node,Campanile,hotel,Bayonne,,,,43.4668986,-1.5401446
4877320049,node,Le Palmarium,restaurant,Bayonne,,,,43.4821591,-1.5658456
4877320063,node,Palmito,hotel,Bayonne,,,https://www.palmito-biarritz.com/fr,43.4819938,-1.565769
4877320064,node,Hôtel Georges VI,hotel,Bayonne,,,,43.4821766,-1.5662793
4877320065,node,Hôtel Marbella,hotel,Bayonne,,,,43.4820501,-1.5660901
4877320066,node,L'Equinoxe,restaurant,Bayonne,,,,43.482088,-1.5663417
4877320068,node,Les Baigneuses,hotel,Bayonne,,,,43.4822291,-1.566624
4877320069,node,Les Baigneuses,restaurant,Bayonne,,,,43.4823065,-1.5667997
4877320081,node,Les Armées Française de la Libération,memorial,Bayonne,,,,43.4832912,-1.5685331
4877320086,node,,viewpoint,Bayonne,,,,43.4834027,-1.5667058
4877320111,node,Hôtel L'Atalaye,hotel,Bayonne,,,,43.4822053,-1.5645513
4877320112,node,La Marine,hotel,Bayonne,,,,43.4819863,-1.5645768
4877320120,node,Bouillon Hortense,restaurant,Bayonne,11 Rue Gardères,,,43.4828281,-1.5595215
4889167222,node,Le Jaurès,restaurant,Bayonne,,,,43.4925162,-1.4630385
4890132321,node,La Table | Sébastien Gravé,restaurant,Bayonne,,,,43.4917108,-1.4745473
4890132322,node,Au Ptit Bistro,restaurant,Bayonne,,,,43.4913136,-1.4747825
4890132421,node,Les Tontons Flingueurs,restaurant,Bayonne,,,https://www.les-tontons-flingueurs.fr,43.4912537,-1.4748296
4892464786,node,Monument aux Morts,memorial,Bayonne,,,,43.2029571,-1.0677883
4905800942,node,Monument aux Morts,memorial,Bayonne,,,,43.3263568,-1.0346842
4914369269,node,Agri Eder,hotel,Bayonne,13 Rue Peyroloubilh,,https://www.hotel-argieder.fr/,43.4807016,-1.5642316
4914369619,node,Judicious,restaurant,Bayonne,,,,43.4818199,-1.5647688
4933378075,node,Bar-Restaurant Auberge du Fronton,restaurant,Bayonne,,,,43.3944471,-1.4526745
4933378909,node,Bar-Restaurant La Petite Auberge,restaurant,Bayonne,"340 Rue du Bourg, Ustaritz",,https://lapetiteauberge-ustaritz.zenchef.com/,43.3944032,-1.4522569
4944179321,node,La Galupe,restaurant,Bayonne,"le port, 64240, Urt",64240,http://www.lagalupe.fr,43.4996316,-1.2981119
4947431376,node,,viewpoint,Bayonne,,,,43.1611225,-1.2318606
4947440908,node,Le Kawa,restaurant,Bayonne,"46 Rue de la Citadelle, 64220, Saint-Jean-Pied-de-Port",64220,,43.1634218,-1.2355595
4947684325,node,Ostalamer,restaurant,Bayonne,"160 Route des Plages, 64500",64500,https://ostalamer.com/,43.4140569,-1.625776
4947697322,node,Chez Mattin,restaurant,Bayonne,"63 Rue Évariste Baignol, 64500",64500,http://chezmattin.fr,43.3826422,-1.6692045
4955297702,node,Goia,restaurant,Bayonne,,,https://www.goiarestaurant.fr/,43.5010134,-1.5398394
4976227063,node,La Grillerie du port,restaurant,Bayonne,"Quai Marechal Leclerc, Saint-Jean-de-Luz",,,43.3863787,-1.6634699
4978213874,node,Love Tower,artwork,Bayonne,,,https://lalittorale.anglet.fr/artiste/tadashi-kawamata/,43.497889,-1.5430239
4984723915,node,,viewpoint,Bayonne,,,,43.1368369,-1.3094544
5003137823,node,Arrantzaleak,restaurant,Bayonne,64500,64500,http://restaurantarrantzaleakciboure.plaza24deseptiembre.co/,43.3831939,-1.6636563
5029663823,node,Chez Doxpi,restaurant,Bayonne,"80 Merkatu plaza, 64250",64250,,43.3395101,-1.4473113
5030800524,node,Pizza Cosy,restaurant,Bayonne,2 Avenue Léon Bonnat,,https://pizzerias.pizzacosy.fr/bayonne-leon-bonnat/,43.4940318,-1.4769016
5031109910,node,,viewpoint,Bayonne,,,,43.4918908,-1.5525853
5032335021,node,Les Arceaux,restaurant,Bayonne,Place des Arceaux,,,43.4290315,-1.2561251
5036521570,node,Erreguina,restaurant,Bayonne,"64430, Banca",64430,http://www.erreguina.com,43.1253377,-1.3743585
5036521571,node,Erreguina,hotel,Bayonne,,,http://www.erreguina.com/,43.1254519,-1.3742051
5040035294,node,Haut-fourneau métallurgique Mines de Banca,attraction,Bayonne,,,http://www.jpdugene.com/tourisme/pays_basque/banca.htm,43.128628,-1.3739368
5042758370,node,Parc Animalier Etxola,zoo,Bayonne,"Route des Grottes, Sare",,,43.2768622,-1.5882407
5051812503,node,,viewpoint,Bayonne,,,,43.1638459,-1.2344179
5051856021,node,Pizza One Garaxi,restaurant,Bayonne,,,,43.1637669,-1.2365236
5068209035,node,Ferme auberge Ibarnia,restaurant,Bayonne,,,,43.1350796,-1.1442666
5068361892,node,Redoute de Souhamendi,attraction,Bayonne,,,,43.3311394,-1.5867224
5068361894,node,Redoute Louis XIV,castle,Bayonne,,,,43.3440529,-1.7521852
5068361896,node,Redoute de Bortuste,castle,Bayonne,,,,43.3375628,-1.71849
5068361897,node,Domaine d'Haïtze,castle,Bayonne,,,,43.39635,-1.4621043
5070253906,node,Ameriketako euskal artzainen orroitharria,memorial,Bayonne,,,http://vallee-aldudes.com/listings/la-pierre-des-bergers-basques/,43.0984786,-1.4284025
5070291457,node,Xalbador-en orroitgarriak: burdinlana,memorial,Bayonne,,,http://vallee-aldudes.com/listings/xalbador-maison-natale/,43.0667031,-1.4171387
5075239523,node,Kohi Mame,restaurant,Bayonne,,,,43.480508,-1.5157364
5075298822,node,Campanile,hotel,Bayonne,"109 Chemin de Chibau, 64500, Saint-Jean-de-Luz",64500,https://www.campanile.com/fr-fr/,43.4067473,-1.6288319
5075299822,node,Courtepaille,restaurant,Bayonne,,,,43.4057978,-1.6303748
5076816924,node,La Verbéna,restaurant,Bayonne,,,,43.4901865,-1.4750033
5092775122,node,Attatea,restaurant,Bayonne,,,,43.3836277,-1.2508572
5092783922,node,Bellevue,hotel,Bayonne,,,,43.3624517,-1.401504
5092818606,node,Pavilion Bleu,restaurant,Bayonne,,,,43.3552633,-1.3871763
5093023744,node,Bellevue,restaurant,Bayonne,,,https://www.hotel-bellevue64.fr/,43.3625031,-1.401466
5098966049,node,Demeure d'Edmond Rostand,attraction,Bayonne,,,,43.3671467,-1.4219691
5102098085,node,,viewpoint,Bayonne,,,,43.3931849,-1.6943763
5107210775,node,La Kantoche,restaurant,Bayonne,"21 Rue d'Ouristy, 64700, Hendaye",64700,https://pole64.wixsite.com/pole64/le-resto,43.3628671,-1.7692601
5108266047,node,Statue de Mattin Treku,artwork,Bayonne,,,,43.4059663,-1.5707398
5108828928,node,,restaurant,Bayonne,,,,43.2419025,-1.2850986
5128770496,node,,memorial,Bayonne,,,,43.3870158,-1.6632037
5128777382,node,,memorial,Bayonne,,,,43.3871093,-1.6674274
5131793173,node,,memorial,Bayonne,,,,43.3333606,-1.4018324
5134524821,node,Senpereko aintzira,attraction,Bayonne,,,,43.3466491,-1.5204021
5157571127,node,Broadway Diner,restaurant,Bayonne,"1075 Broadway, 07002, Bayonne",07002,,40.684969,-74.100767
5157571128,node,Chandelier,restaurant,Bayonne,"1081 Broadway, 07002, Bayonne",07002,,40.6852863,-74.1007616
5169250653,node,Stèle Honneur à tous les Républicains,artwork,Bayonne,,,,43.3505293,-1.7848325
5169349669,node,,memorial,Bayonne,,,,43.4784838,-1.4992592
5172882721,node,,viewpoint,Bayonne,,,,43.4837852,-1.5663177
5172904422,node,Le Tandem,restaurant,Bayonne,,,,43.4827925,-1.563645
5172957447,node,,restaurant,Bayonne,,,,43.4144985,-1.6168545
5173004522,node,,viewpoint,Bayonne,,,,43.4838881,-1.5622527
5183757374,node,Xoko Ona,restaurant,Bayonne,,,,43.3453534,-1.6214351
5209301918,node,Esponda,hotel,Bayonne,"9 Place du Trinquet, 64220, Saint-Jean-Pied-de-Port",64220,,43.1642189,-1.2365409
5209321424,node,Comme a la maison,restaurant,Bayonne,"28 Rue de la Citadelle, 64220, Saint-Jean-Pied-de-Port",64220,,43.163089,-1.2362686
5209321427,node,Paxkal Oillarburu,restaurant,Bayonne,"8 Rue de l'Église, 64220, Saint-Jean-Pied-de-Port",64220,,43.1628144,-1.2374651
5209321428,node,Izaxulo,hotel,Bayonne,"2 Avenue Renaud, 64220, Saint-Jean-Pied-de-Port",64220,https://www.gite-izaxulo.com/,43.1639962,-1.2371847
5228417524,node,La croisière chez Patxi,restaurant,Bayonne,,,,43.3733151,-1.7743705
5281811485,node,,viewpoint,Bayonne,,,,43.3590274,-1.7776128
5304975022,node,,viewpoint,Bayonne,,,,43.4044544,-1.6497337
5322391526,node,Belle vue sur les pyrénées,viewpoint,Bayonne,,,,43.3365448,-1.0729692
5344927225,node,Germaine,restaurant,Bayonne,,,https://www.germainerestaurant.fr/,43.4918471,-1.4744799
5411762054,node,Le Kanttu,restaurant,Bayonne,"Plage d'Erretegia, 64210, Bidart",64210,https://www.facebook.com/Kanttu-102188471972241/,43.4451095,-1.5887663
5415413022,node,Etxe Nami,restaurant,Bayonne,"11 Avenue Jauréguiberry, 64500, Saint-Jean-de-Luz",64500,https://etxenami.com/,43.3872459,-1.6591481
5417099715,node,Mendi Bichta,hotel,Bayonne,,,,43.3611136,-1.7002
5417908691,node,Guerre 1914 1918,monument,Bayonne,,,,43.3625244,-1.6989233
5426525722,node,Ferme Artayet François,viewpoint,Bayonne,,,,43.3766347,-1.28591
5426529521,node,Ferme lthurburu Jean-Antoine,viewpoint,Bayonne,,,,43.3775677,-1.2872017
5444812648,node,Arte Bideak,gallery,Bayonne,"2 Rue Pocalette, 64500, Ciboure",64500,https://www.artebideak.com/,43.3853072,-1.6678096
5455239712,node,,artwork,Bayonne,,,,43.4697257,-1.4453394
5464348579,node,Point de vue Port de la Cale.,viewpoint,Bayonne,,,,43.521876,-1.4902227
5473072600,node,Le Monte Carlo,restaurant,Bayonne,,,,43.496111,-1.4706897
5478506700,node,Kaxu Galerie,gallery,Bayonne,35 Rue Sainte-Catherine,,,43.4951025,-1.4680225
5478507046,node,Relief,restaurant,Bayonne,,,,43.4955225,-1.4688678
5478507057,node,Atlas,restaurant,Bayonne,,,,43.4950009,-1.4672057
5487949721,node,Adventure Côte-Basque-Paramoteur,attraction,Bayonne,"Chemin de Maxalenia, 64310, Saint-Pée-sur-Nivelle",64310,http://www.cotebasqueparamiteur.fr,43.3397096,-1.5309949
5545527149,node,Itsasuko Agiria,memorial,Bayonne,,,,43.3254139,-1.4052282
5580557021,node,,viewpoint,Bayonne,,,,43.378202,-1.7552225
5617951892,node,La Table Gourmande,restaurant,Bayonne,,,,43.4291798,-1.2555367
5617951893,node,,memorial,Bayonne,,,,43.4283032,-1.2550928
5617951899,node,Le Relais,artwork,Bayonne,,,,43.4291097,-1.2560181
5633445019,node,Domaine du Lac d'Harrieta,attraction,Bayonne,,,https://www.lac-harrieta.fr/fr/accueil,43.1521931,-1.2015184
5660841150,node,,viewpoint,Bayonne,,,,43.497612,-1.4825395
5667333321,node,Heteroclito,restaurant,Bayonne,"Sentier des baleines - Baleen xendera, 64210, Guéthary",64210,https://www.heteroclito.fr,43.4261525,-1.608862
5672561455,node,Osméra,restaurant,Bayonne,,,,43.4898235,-1.4723545
5675620723,node,Restaurant le Petit Chinois,restaurant,Bayonne,"12 Rue du Jeu de Paume, 64120, Saint-Palais",64120,,43.3283284,-1.0351353
5675620727,node,Chortaya,hotel,Bayonne,"Bourg, 64120, Arbouet-Sussaute",64120,https://auberge-chortaya.business.site/,43.369666,-1.000958
5675620728,node,Espelletenia,hotel,Bayonne,"Bourg, 64120, Larceveau-Arros-Cibits",64120,https://www.espelletenia.eus/,43.2328667,-1.096312
5675620729,node,Espelletenia,restaurant,Bayonne,"15 Route de Garazi, 64120, Larceveau-Arros-Cibits",64120,https://www.espelletenia.eus/restaurant,43.2328269,-1.0962707
5675620730,node,Restaurant Art'Zain,restaurant,Bayonne,"20, 64780, Irissarry",64780,https://www.restaurant-art-zain.fr/fr/,43.257088,-1.2325384
5675668330,node,Restaurant chez Lafitte,restaurant,Bayonne,"35 Rue Thiers, 64120, Saint-Palais",64120,,43.3287583,-1.0347629
5677286152,node,Restaurant Le Trinquet - Le Bouchon Basque,restaurant,Bayonne,"31 Rue du Jeu de Paume, 64120, Saint-Palais",64120,,43.3278159,-1.0345277
5677286153,node,Restaurant de la Paix,restaurant,Bayonne,"33 Rue du Jeu de Paume, 64120, Saint-Palais",64120,https://www.hotellapaix.com/,43.3280027,-1.0348618
5677286154,node,Auberge du Foirail,restaurant,Bayonne,"Place du Foirail, 64120, Saint-Palais",64120,,43.3281179,-1.035052
5677286155,node,Auberge du Foirail,hotel,Bayonne,,,,43.3280682,-1.0350363
5679850442,node,La Lucciola,restaurant,Bayonne,8 Place des Docteurs Gentilhe,,https://www.lalucciola.fr/,43.4992142,-1.5420052
5704214623,node,,artwork,Bayonne,,,,43.3128771,-1.57969
5711047106,node,,viewpoint,Bayonne,,,,43.4829784,-1.5611864
5711188921,node,Bistro M,restaurant,Bayonne,,,,43.4889693,-1.4732513
5711382686,node,Barranco,restaurant,Bayonne,"Rue Gambetta, 64200, Biarritz",64200,,43.4793705,-1.5640997
5721802022,node,La P’tite Creperie,restaurant,Bayonne,,,,43.4821592,-1.5661352
5732091189,node,Hannya sushi,restaurant,Bayonne,"16 Avenue Jean Jaurès, 64500, Ciboure",64500,https://www.hannya.fr/,43.383009,-1.6676873
5733461969,node,Euskal Baserria,artwork,Bayonne,,,,43.4829187,-1.5612081
5733482126,node,Urkuku,artwork,Bayonne,,,,43.4808659,-1.5615367
5733482127,node,La Dame de la Mer,artwork,Bayonne,,,,43.462244,-1.5708931
5733482128,node,Cabesa de Régina,artwork,Bayonne,,,,43.4844658,-1.5571133
5733482130,node,Arbre Main,artwork,Bayonne,,,,43.4849349,-1.5579072
5734555071,node,Mémorial aux membres des réseaux d'évasion,memorial,Bayonne,,,,43.058104,-1.26708
5736718401,node,,artwork,Bayonne,,,,43.5098717,-1.4993347
5768733622,node,Bar Restaurant Tranquille,restaurant,Bayonne,,,,43.4842987,-1.480406
5779796407,node,,memorial,Bayonne,,,,43.3637455,-1.4495618
5783205240,node,Pont Romain,attraction,Bayonne,,,,43.1771747,-1.3425217
5783396461,node,,viewpoint,Bayonne,,,,43.5228132,-1.522859
5783396463,node,,viewpoint,Bayonne,,,,43.5249001,-1.5221
5786488802,node,Abrazo,restaurant,Bayonne,,,https://www.hotelmaisonchiberta.com/restaurant,43.5131156,-1.5239132
5799396649,node,Statue de Saint-Jean-Baptiste,artwork,Bayonne,,,,43.4670431,-1.4160307
5819240582,node,L'Adour,restaurant,Bayonne,"Quai du Bazé, 64340, Boucau",64340,,43.5233223,-1.4913031
5825871636,node,Musée de la chaise,museum,Bayonne,,,http://www.museedelachaise.fr/,43.4725053,-1.0977834
5825871638,node,Centre d'Interprétation des stèles du Pays Basque,museum,Bayonne,"bourg, 64120, Larceveau",64120,https://steles-paysbasque.jimdo.com/,43.2318439,-1.0942046
5825928972,node,Ecomusée de la Pelote et du Xistera Pilotari,museum,Bayonne,"Rue Karrika, 64310, Saint-Pée-sur-Nivelle",64310,https://www.en-pays-basque.fr/visite/ecomusee-de-la-pelote-et-du-xistera-pilotari/,43.3550124,-1.5496194
5825958094,node,Musée historique du Biarritz Olympique,museum,Bayonne,,,https://musee-historique-biarritz-olympique.fr/,43.4813157,-1.5389822
5825958095,node,L'Art de l'Espadrille,museum,Bayonne,64990,64990,https://lartdelespadrille.book.fr/,43.4740181,-1.4521493
5837840205,node,OKKO Hôtel,hotel,Bayonne,,,,43.4957842,-1.4834172
5856226443,node,Jap 64,restaurant,Bayonne,"Bazter Karrika, 64480, Ustaritz",64480,http://lejap64.com/,43.3925673,-1.4558191
5862127535,node,,viewpoint,Bayonne,,,,43.4260874,-1.6089392
5862127556,node,Bar Basque,restaurant,Bayonne,"Place Toulet, 64210, Guéthary",64210,https://www.facebook.com/barbasque.guethary,43.4252684,-1.6088157
5862159857,node,Restaurant de la jetée des Alcyons,restaurant,Bayonne,"Jetée des Alcyons, 64210, Guéthary",64210,,43.4259462,-1.6121055
5862159858,node,Txamara,restaurant,Bayonne,"Chemin du Port, 64210, Guéthary",64210,https://www.restaurant-txamara-guethary.fr,43.4259667,-1.6107376
5862159860,node,Le Madrid,restaurant,Bayonne,"Avenue du Général de Gaulle, 64210, Guéthary",64210,https://www.lemadrid.com,43.4251953,-1.6090558
5873254385,node,Bali Bowls,restaurant,Bayonne,"4 Rue Gaston Larre, 64200",64200,,43.4818009,-1.565721
5917985725,node,Jardin des Barthes,garden,Bayonne,,,,43.5272318,-1.1872812
5918002624,node,Jardin du Curé,garden,Bayonne,,,,43.4739967,-1.1116067
5920462351,node,Le Bistrot de Manu,restaurant,Bayonne,,,,43.4936402,-1.2938522
5922299419,node,Château des Seigneurs de Luxe,castle,Bayonne,,,,43.339382,-1.0830965
5922299420,node,"Château de Sumberraute, dit Jaureguia",castle,Bayonne,,,,43.3625912,-1.0733973
5926556555,node,Gamia,restaurant,Bayonne,"95 Chemin de Munho, 64220, Bussunarits-Sarrasquette",64220,https://www.restaurant-gamia.fr/,43.173651,-1.1307441
5927013275,node,Le Gamaritz,hotel,Bayonne,"5 Perspective Côte des Basques, 64200, Biarritz",64200,https://hotel-biarritz-gamaritz.com/,43.4816058,-1.5662182
5936881506,node,Gueleton,restaurant,Bayonne,,,,43.492206,-1.4737173
5971540418,node,Le p'tit creux,restaurant,Bayonne,,,,43.4908661,-1.4769517
5992472294,node,Courtly Ladies,artwork,Bayonne,,,,43.4923165,-1.4775534
6004928216,node,,artwork,Bayonne,,,,43.4465482,-1.5538332
6005400075,node,Sans titre,artwork,Bayonne,,,,43.4929427,-1.4624661
6041759137,node,Saline,restaurant,Bayonne,,,,43.4795604,-1.5642039
6041813604,node,Hôtel Beau-Séjour,hotel,Bayonne,,,,43.4818365,-1.5659514
6041849234,node,Le Saphir,hotel,Bayonne,,,,43.4817382,-1.5653975
6052790389,node,Yoko Garbi,artwork,Bayonne,,,http://www.ffpb.net/fr/27-chistera-yoko-garbi-federation-francaise-de-pelote-basque.php,43.3575313,-1.5599706
6071159495,node,Pont Romain,viewpoint,Bayonne,,,,43.3502788,-1.6219208
6073344899,node,Bar-Restaurant du Trinquet,restaurant,Bayonne,,,https://www.trinquetdarcangues.com/,43.4370506,-1.5220105
6073344904,node,Restaurant du Golf,restaurant,Bayonne,,,https://www.golfdarcangues.com/,43.4372476,-1.5283888
6076858394,node,Palais de Jade,restaurant,Bayonne,"2 Avenue de la Reine Victoria, 64200, Biarritz",64200,,43.4850217,-1.5561288
6076889372,node,Galerie d'art Bouscayrol,gallery,Bayonne,"2 Avenue de la Reine Victoria, 64200, Biarritz",64200,,43.4850428,-1.5559917
6087398790,node,Snack Lunchery,restaurant,Bayonne,"13 Rue de l'Industrie, Saint-Jean-de-Luz",,,43.406546,-1.6223317
6126432272,node,Jauregia,ruins,Bayonne,,,,43.3459098,-1.1960781
6143405210,node,Mendi Berdea,restaurant,Bayonne,12 Place de l'Église,,,43.3629437,-1.4037094
6163187173,node,Tarte Julie,restaurant,Bayonne,,,,43.4927593,-1.4766481
6163187174,node,Le Grand Hôtel,hotel,Bayonne,,,,43.4924654,-1.4764674
6163192794,node,Woods,restaurant,Bayonne,,,https://foodcollect.fr/store/Woods/restaurant#,43.4931902,-1.4772757
6166374337,node,Restaurant d'Application du Lycée Hôtelier,restaurant,Bayonne,,,,43.4624846,-1.5524381
6199025441,node,Séquence(s),restaurant,Bayonne,,,,43.4915404,-1.4746584
6201420443,node,Arraya,hotel,Bayonne,"Plaza, Sare",,https://www.arraya.com/,43.3124201,-1.5801416
6209786311,node,Auberge du Cheval Blanc,restaurant,Bayonne,,,http://www.cheval-blanc-bayonne.com/,43.4908495,-1.4719403
6213792554,node,Eat Salad,restaurant,Bayonne,,,https://eatsalad.fr/,43.4834353,-1.5033647
6238319931,node,Croix des Anglais,viewpoint,Bayonne,,,,43.3875343,-1.4925635
6256023032,node,,viewpoint,Bayonne,,,,43.4778406,-1.4723215
6256023036,node,,viewpoint,Bayonne,,,,43.4777924,-1.4724087
6274519186,node,Tombe de Luis Mariano (1914-1970),attraction,Bayonne,,,,43.4360434,-1.5217899
6274733931,node,Les 3 Salsas,restaurant,Bayonne,,,,43.4741817,-1.5642678
6282797525,node,Hôtel Thalazur Saint-Jean-de-Luz,hotel,Bayonne,"Place Maurice Ravel, 64500, Saint-Jean-de-Luz",64500,,43.3910984,-1.6608262
6364758224,node,Arzon,restaurant,Bayonne,,,,43.4548835,-1.577885
6365413789,node,Pizza Manu,restaurant,Bayonne,,,,43.3925995,-1.4557718
6469967604,node,O Cantinho Português,restaurant,Bayonne,,,,43.4959058,-1.4657508
6470100944,node,Gulls in the sky,artwork,Bayonne,,,,43.4945605,-1.4672084
6483445436,node,Serino,restaurant,Bayonne,,,,43.3723008,-1.7751794
6499493786,node,MORI’S,restaurant,Bayonne,,,,43.4819542,-1.5534274
6499673516,node,,artwork,Bayonne,,,,43.4806181,-1.5553015
6499684280,node,El Sol,artwork,Bayonne,,,,43.480873,-1.5552366
6516615660,node,Urruty Bar-Restaurant,restaurant,Bayonne,,,,43.3011919,-1.1743116
6584197451,node,,memorial,Bayonne,,,,43.4821685,-1.5138291
6584199874,node,Océanides,artwork,Bayonne,,,,43.4821843,-1.5136027
6584200733,node,Double flux,artwork,Bayonne,,,,43.4823449,-1.5136471
6584206689,node,Arbre calciné,artwork,Bayonne,,,,43.4819364,-1.5132204
6584211095,node,Matière et lumière,artwork,Bayonne,,,,43.4821475,-1.5130119
6584212904,node,Stèle familles enterrées dans le cimetière,memorial,Bayonne,,,,43.4819186,-1.5140861
6584214376,node,Hommage à Maurice Ravel,artwork,Bayonne,,,https://cac.anglet.fr/detail-d-une-notice/notice/700000216-6426,43.4848223,-1.5135083
6584229378,node,L'homme couché,artwork,Bayonne,,,,43.4820089,-1.512857
6584250975,node,,artwork,Bayonne,,,,43.4829002,-1.5130756
6584256158,node,Café Quintaou,restaurant,Bayonne,,,,43.4843348,-1.5133504
6587467981,node,Le p'tit resto,restaurant,Bayonne,,,https://leptitresto.fr/,43.5011669,-1.5396109
6587493073,node,L'Euphrate,restaurant,Bayonne,"38 Avenue des Dauphins, 64600, Anglet",64600,,43.5011047,-1.5397075
6587493999,node,A table !,restaurant,Bayonne,"15 Avenue du Rayon Vert, Anglet",,https://www.restaurantatableanglet.com/,43.5010018,-1.5391376
6589949656,node,,viewpoint,Bayonne,,,,43.5258632,-1.4874134
6589960243,node,Mémorial Amicale Boucalaise et Boucau Stade,memorial,Bayonne,,,,43.527593,-1.4879022
6627360488,node,Gary Lapelusa Landscaping LLC,garden,Bayonne,"41 W 19th St, 07002, Bayonne",07002,http://garylapelusalanscaping.com,40.6624121,-74.1220108
6643238987,node,Au Bureau,restaurant,Bayonne,,,,43.4814478,-1.5089729
6646072561,node,L'Atelier du Chocolat,museum,Bayonne,,,https://www.atelierduchocolat.fr/fr/page/2-le-musee-du-chocolat,43.4914402,-1.4579804
6660036387,node,Le BlueBay,restaurant,Bayonne,,,,43.5004159,-1.5421157
6676081654,node,Espace Montaut,gallery,Bayonne,,,,43.4891889,-1.4780572
6691812011,node,Loretxoa,restaurant,Bayonne,,,,43.2607902,-1.5767563
6697954786,node,Ti Cab',restaurant,Bayonne,"661 Route des Plages, 64500, Saint-Jean-de-Luz",64500,,43.4181172,-1.6247022
6699476312,node,Chez Odile,restaurant,Bayonne,65 Place du Château Salha,,,43.4753184,-1.2036699
6699476314,node,chez Bixente,restaurant,Bayonne,,,,43.4745023,-1.203285
6706556785,node,Panorama,viewpoint,Bayonne,,,,43.3309373,-1.7115818
6707424580,node,Pizz'osteria L'Angolo,restaurant,Bayonne,,,,43.4952974,-1.468708
6710195477,node,Le Croque Bedaine,restaurant,Bayonne,"36 Route de Bigot, 64990, Mouguerre",64990,https://www.lecroquebedaine.fr/mouguerre/,43.484185,-1.443579
6715454648,node,Bajadita,restaurant,Bayonne,,,,43.4891765,-1.4751281
6732290372,node,A la cantine,restaurant,Bayonne,,,,43.4905764,-1.4716286
6759476071,node,La Station,restaurant,Bayonne,,,,43.4595724,-1.5465692
6762357407,node,Pizza Hut,restaurant,Bayonne,"1347 Kennedy Boulevard, 07002, Bayonne",07002,https://locations.pizzahut.com/nj/bayonne/1347-kennedy-blvd,40.6935721,-74.1033953
6762357410,node,Wonder Bagel,restaurant,Bayonne,,,,40.6934805,-74.1031973
6776616950,node,,artwork,Bayonne,,,,43.5054553,-1.4452234
6808206085,node,Hordago ostatua,restaurant,Bayonne,"Col de Lizarrieta, Sare",,https://www.chambresdhotes-hordago.com/restaurant_hordago_ostatua/,43.2611861,-1.6192751
6813787753,node,La Cantine,restaurant,Bayonne,,,http://www.lacantinebiarritz.com,43.481264,-1.5585332
6813925543,node,L'oeil de prince,gallery,Bayonne,,,,43.4811611,-1.5588928
6813960405,node,Santosha,restaurant,Bayonne,,,,43.4817399,-1.5573723
6814013313,node,Frozen Palm,restaurant,Bayonne,,,,43.4809838,-1.5587567
6816987571,node,Albert Camus,artwork,Bayonne,,,,43.4993944,-1.4527929
6816987572,node,Concrete ARO,artwork,Bayonne,,,,43.5003633,-1.4517361
6816987573,node,Le Passeur,artwork,Bayonne,"16 Boulevard Jean Jaurès, 64100, Bayonne",64100,https://www.pointsdevue.eus/monkeybird-fr/,43.4930327,-1.4617941
6816987580,node,Taureau,artwork,Bayonne,,,,43.4989968,-1.4893689
6817154416,node,Sans titre,artwork,Bayonne,,,,43.484593,-1.479102
6817376288,node,Olatua,restaurant,Bayonne,,,,43.4836712,-1.5675644
6827876235,node,HW ARO,artwork,Bayonne,,,,43.5003731,-1.4522378
6827876237,node,,artwork,Bayonne,,,,43.4962871,-1.4735726
6827876238,node,,artwork,Bayonne,,,,43.4970684,-1.4591539
6828011425,node,Guy 9,artwork,Bayonne,,,,43.4905744,-1.4739892
6828011428,node,Urdin,artwork,Bayonne,,,https://www.pointsdevue.eus/fin-dac/,43.503224,-1.4697308
6828011431,node,,artwork,Bayonne,,,,43.4909259,-1.4739404
6828011433,node,Guy 2,artwork,Bayonne,,,,43.4945695,-1.4671985
6828011434,node,Are you ready ?,artwork,Bayonne,"15 rue Ulysse Darracq, 64100, Bayonne",64100,,43.4948218,-1.4678171
6828011442,node,Hemen sartzen dena bere etxean da,artwork,Bayonne,"Place Jeanne d'Albret, 64100, Bayonne",64100,,43.4941823,-1.4663543
6828011443,node,Pensando en un cambio,artwork,Bayonne,"2 Avenue Duvergier de Hauranne, 64100, Bayonne",64100,,43.4889016,-1.4681992
6828011445,node,,artwork,Bayonne,,,,43.4780156,-1.4895314
6828011446,node,Nina,artwork,Bayonne,,,https://www.trompe-l-oeil.info/graffitis/details.php?image_id=18142,43.489826,-1.4731879
6828011449,node,Bonnet d'âne,artwork,Bayonne,,,,43.495163,-1.4684661
6828011451,node,Pacman,artwork,Bayonne,,,,43.4949123,-1.4675134
6828011454,node,Rwandais,artwork,Bayonne,,,https://www.trompe-l-oeil.info/graffitis/details.php?image_id=18133,43.4931939,-1.4777678
6828011456,node,Boys Climbers,artwork,Bayonne,,,,43.4903285,-1.4765272
6828011457,node,Hitza Hitz,artwork,Bayonne,"44 Avenue Capitaine Resplandy, 64100, Bayonne",64100,,43.4861598,-1.4614807
6828011462,node,Chat,artwork,Bayonne,,,,43.4923119,-1.4766111
6828029868,node,Le Bouchon Biarrot,restaurant,Bayonne,,,https://www.lebouchonbiarrot.com/fr/,43.4851115,-1.5557381
6828048397,node,,artwork,Bayonne,,,,43.4880863,-1.4648885
6828048398,node,,artwork,Bayonne,,,,43.4955008,-1.4862704
6828048399,node,Hizkuntza,artwork,Bayonne,,,,43.4903309,-1.4720542
6828048400,node,,artwork,Bayonne,,,,43.4962491,-1.4734449
6828048402,node,,artwork,Bayonne,,,,43.5069041,-1.4617623
6828048403,node,INM#25,artwork,Bayonne,"rue Jeanne Peyré, 64100, Bayonne",64100,,43.4958278,-1.4571554
6828048404,node,Rope Dance,artwork,Bayonne,,,,43.5018157,-1.4562545
6828048405,node,Sans titre,artwork,Bayonne,,,,43.4930747,-1.4750835
6828048406,node,Punto y flecha sobre el plano,artwork,Bayonne,,,,43.5001258,-1.4568712
6828048407,node,,artwork,Bayonne,,,,43.4968952,-1.4513313
6828048408,node,,artwork,Bayonne,,,,43.479318,-1.499189
6828065518,node,,artwork,Bayonne,,,,43.4939822,-1.4606658
6828065519,node,,artwork,Bayonne,,,,43.4977153,-1.4574748
6828065520,node,,artwork,Bayonne,,,,43.4946187,-1.4665715
6828065523,node,Our beloved land,artwork,Bayonne,,,,43.5011721,-1.4570264
6828065525,node,Recycle,artwork,Bayonne,,,,43.4987468,-1.455585
6828065526,node,Tide,artwork,Bayonne,64100,64100,,43.4949616,-1.4699738
6828065527,node,,artwork,Bayonne,,,,43.4842577,-1.4715672
6852413086,node,Little Trallalà,restaurant,Bayonne,51 bis Rue Gambetta,,,43.4791626,-1.5642468
6859162336,node,Alf & Gremlins,artwork,Bayonne,,,,43.4967258,-1.4702502
6860096385,node,Chez Fanny,restaurant,Bayonne,,,,43.4836394,-1.5623101
6863852885,node,The Beach House,restaurant,Bayonne,,,,43.500793,-1.5400273
6870385183,node,,artwork,Bayonne,,,,43.4849435,-1.4854208
6871213086,node,Le Saleya,restaurant,Bayonne,"34 Rue Gambetta, 64200, Biarritz",64200,,43.4809507,-1.5632206
6954963939,node,Usual Suspect,artwork,Bayonne,"12 Rue Albéric Poitrenaud, 64100",64100,https://www.pointsdevue.eus/zalez/,43.4831115,-1.4869542
6969451832,node,Hold Your Time,artwork,Bayonne,,,,43.487113,-1.4636457
6969451834,node,,artwork,Bayonne,,,,43.491583,-1.4642328
6969451835,node,,artwork,Bayonne,,,,43.4931383,-1.4617779
6969451837,node,,artwork,Bayonne,,,,43.4900709,-1.4778732
6969458505,node,Comptoir Agricole,artwork,Bayonne,,,,43.4965322,-1.4731806
6976889548,node,Always lost in the sea,artwork,Bayonne,,,,43.4953958,-1.4688599
6978406332,node,,park,Bayonne,"423-425 Avenue E, 07002, Bayonne",07002,,40.6683783,-74.1118429
6987732691,node,,viewpoint,Bayonne,,,,43.4389883,-1.5894938
6987732829,node,,viewpoint,Bayonne,,,,43.4440847,-1.5850239
6990836830,node,Pavillon du phare,restaurant,Bayonne,"60 bis Esplanade Elisabeth II, 64200, Biarritz",64200,,43.4935636,-1.5540993
6996723904,node,Ezkia,restaurant,Bayonne,"6 Avenue de la Grande Plage, 64210, Bidart",64210,https://www.ezkia-restaurant.fr/,43.4392069,-1.590742
7003829821,node,Le bistro de l'Atalante,restaurant,Bayonne,,,https://atalante-cinema.org/bistro/,43.4956042,-1.4714827
7014744808,node,Venta Gaxuxa,restaurant,Bayonne,"2 Avenue de la Grande Plage, 64210, Bidart",64210,https://www.ventagaxuxa.com/,43.4393202,-1.5904971
7015112228,node,Chez Zéli,restaurant,Bayonne,"Zirlinga, 64210, Bidart",64210,https://www.facebook.com/pages/category/Food-Truck/Chezzeli-229608397620689/,43.4302394,-1.5980595
7016796322,node,Maison du Patrimoine,museum,Bayonne,,,https://www.terreetcotebasques.com/fr/votre-sejour/patrimoine-et-culture/maison-du-patrimoine-ainhoa/,43.3064731,-1.4984605
7019193283,node,Snack Parlementia,restaurant,Bayonne,"Chemin du Port, 64210, Guéthary",64210,,43.4258149,-1.6086824
7019628156,node,Balea,hotel,Bayonne,"Rue Adrien Lahourcade, 64210, Guéthary",64210,https://www.baleahotel.com,43.4207547,-1.6054021
7019656967,node,Villa Catarie,hotel,Bayonne,"Avenue du Général de Gaulle, 64210, Guéthary",64210,https://www.villa-catarie.com/fr/,43.4239018,-1.6092417
7019693583,node,Elissaldia,hotel,Bayonne,"Place Sauveur Atchoarena, 64210, Bidart",64210,https://www.hotel-elissaldia.com/,43.4389391,-1.5901901
7019693584,node,Capybara,hotel,Bayonne,"Rue de l'Uhabia, 64210, Bidart",64210,https://www.capybara-bidart.com/,43.433151,-1.5965927
7025754662,node,Le Madrid,hotel,Bayonne,"Avenue du Général de Gaulle, 64210, Guéthary",64210,https://www.lemadrid.com,43.425152,-1.6090928
7025770377,node,La Ferme de Bassilour,hotel,Bayonne,"1562 Rue de Bassilour, 64210, Bidart",64210,https://www.domainedebassilour.com/,43.4363509,-1.5629415
7029940286,node,Site d'Oronozia,viewpoint,Bayonne,,,,43.1769579,-1.3308407
7030615635,node,,memorial,Bayonne,,,,43.4392281,-1.5896125
7039071423,node,Briketenia,restaurant,Bayonne,"Rue de l'Église, 64210, Guéthary",64210,https://www.briketenia.com,43.4194552,-1.6060129
7041982062,node,Hiriartia,restaurant,Bayonne,"7 Place Mattin Trécu, 64210, Ahetze",64210,,43.4055126,-1.5711829
7047423973,node,La Plancha d'Ilbarritz,restaurant,Bayonne,,,,43.4598818,-1.5780737
7058313248,node,Le Carré,restaurant,Bayonne,,,https://lecarre.fr/,43.4923362,-1.4726011
7082110387,node,Xistera,restaurant,Bayonne,"23 Boulevard Victor Hugo, 64500, Saint-Jean-de-Luz",64500,,43.3878213,-1.6609937
7086317775,node,Laminak,hotel,Bayonne,"Route du Bourg, 64210, Arbonne",64210,https://hotel-laminak.com,43.4269595,-1.5484485
7086332478,node,Cidrerie du fronton,restaurant,Bayonne,"Route du Bourg, 64210, Arbonne",64210,https://cidreriedufronton.com,43.4320074,-1.5515518
7090463104,node,,viewpoint,Bayonne,,,,43.4398682,-1.5909333
7101451314,node,Colmado,restaurant,Bayonne,,,,43.4912859,-1.4756549
7114821758,node,Etorri,restaurant,Bayonne,"Rue Ernest Fourneau, 64310, Ascain",64310,,43.3485309,-1.6238465
7114821763,node,A tutta pizza,restaurant,Bayonne,"Rue Ernest Fourneau, 64310, Ascain",64310,,43.3474094,-1.6226153
7117628743,node,La Frégate,restaurant,Bayonne,,,,43.430277,-1.6001914
7117636939,node,Fasthotel,restaurant,Bayonne,,,,43.4496979,-1.5615514
7119896686,node,Bihotz,restaurant,Bayonne,"Rue Ernest Fourneau, 64310, Ascain",64310,,43.3456779,-1.6212666
7119896688,node,Alaia,hotel,Bayonne,"40 Route d'Arraioa, 64310, Ascain",64310,,43.3457186,-1.619016
7119896690,node,Larralde,restaurant,Bayonne,"55 Rue Oletako Bidea, 64310, Ascain",64310,,43.3446415,-1.6215915
7120037748,node,La Table des Frères Ibarboure,restaurant,Bayonne,,,,43.4181736,-1.5981898
7120037749,node,L'Hostellerie des Frères Ibarboure,hotel,Bayonne,,,,43.4183514,-1.5972232
7122315407,node,Restaurant Ithurria,restaurant,Bayonne,"Place du Fronton, Ainhoa",,https://www.ithurria.com/,43.3079856,-1.4992278
7122315408,node,Hôtel Argi Eder,hotel,Bayonne,"Route de la Chapelle, Ainhoa",,,43.3073275,-1.4956643
7122315409,node,Restaurant Argi Eder,restaurant,Bayonne,"Route de la Chapelle, Ainhoa",,http://www.argi-eder.com,43.3072631,-1.4957634
7122315411,node,Restaurant Ur Hegian,restaurant,Bayonne,"64250, Ainhoa",64250,https://www.hotel-ur-hegian.com/,43.2930651,-1.5032857
7122315412,node,Hôtel Etchartenea,hotel,Bayonne,Ainhoa,,,43.2915237,-1.5037468
7122315415,node,Hôtel Oppoca,hotel,Bayonne,"le bourg, Ainhoa",,,43.3072715,-1.498745
7122315420,node,Restaurant Alzate,restaurant,Bayonne,,,,43.3064912,-1.4989721
7122315421,node,Ferme Segida,restaurant,Bayonne,,,https://www.segida.fr,43.2955266,-1.4952894
7128187392,node,,viewpoint,Bayonne,,,,43.4391231,-1.5892333
7129065608,node,Vierge,artwork,Bayonne,,,,43.4396071,-1.5900269
7129065623,node,Bonnat Vola,restaurant,Bayonne,"64210, Bidart",64210,,43.4336797,-1.5948582
7129065624,node,Le Poisson Rouge,restaurant,Bayonne,"1257 Avenue de Biarritz, 64210, Bidart",64210,https://lepoissonrougebidart.fr/,43.4545827,-1.5736601
7129065625,node,Ahizpak,restaurant,Bayonne,,,,43.4495921,-1.577501
7129065626,node,Étika,restaurant,Bayonne,,,https://etikarestaurant.fr/fr,43.450749,-1.5632282
7130560596,node,,viewpoint,Bayonne,,,,43.4576626,-1.5762665
7131026616,node,La mia Toscana,restaurant,Bayonne,"20 Rue Loquin, 64500, Saint-Jean-de-Luz",64500,,43.390697,-1.6600689
7151043855,node,Eguzki,restaurant,Bayonne,"Zone Artisanale Lanzelai, 64310, Ascain",64310,https://eguzki-restaurant.fr,43.3642916,-1.637146
7151043856,node,Txopinondo,restaurant,Bayonne,"Chemin de la cidrerie - Zone Artisanale Lanzelai, 64310, Ascain",64310,https://www.txopinondo.com,43.3647498,-1.6374387
7153979019,node,René Cassin (1887-1976),artwork,Bayonne,,,https://collections.univ-pau.fr/pub/index.php/Detail/objects/160,43.4889056,-1.4722927
7153979327,node,Banques d'accueil et bancs,artwork,Bayonne,,,https://collections.univ-pau.fr/pub/index.php/Detail/objects/118,43.4891435,-1.4703331
7159713653,node,Bitcha Eder,restaurant,Bayonne,,,,43.3105106,-1.6884246
7159713654,node,Etxola,restaurant,Bayonne,,,,43.3105848,-1.6885614
7159713655,node,Snack Sara Sol,restaurant,Bayonne,,,,43.3106746,-1.6887746
7162174033,node,La trattoria de l'indigo,restaurant,Bayonne,,,,43.5009071,-1.5419859
7203870796,node,,memorial,Bayonne,,,,43.3447961,-1.6210306
7206524536,node,Pizza Giorgio,restaurant,Bayonne,,,http://www.ustaritz-paysbasque.com/route_gourmande/pizza_giorgio.php,43.4039907,-1.4609245
7216291585,node,Le Campero,restaurant,Bayonne,,,,43.4821115,-1.5634264
7222928291,node,,memorial,Bayonne,,,,43.4221592,-1.6088574
7247903693,node,,artwork,Bayonne,,,https://www.trompe-l-oeil.info/graffitis/details.php?image_id=18145,43.4941749,-1.4677634
7261093752,node,Les platanes,restaurant,Bayonne,"7 Boulevard de la Mer, 64600, Anglet",64600,https://lesplatanes-anglet.com,43.4962597,-1.5388496
7271641111,node,La Voile Blanche,restaurant,Bayonne,,,,43.4241374,-1.6049978
7275490985,node,La Belloteka,restaurant,Bayonne,,,,43.4806291,-1.5624752
7288756730,node,,artwork,Bayonne,,,,43.4959339,-1.4721821
7350331594,node,You Sushi,restaurant,Bayonne,,,,43.4766224,-1.547939
7358378762,node,,viewpoint,Bayonne,,,,43.42824,-1.6051911
7358948170,node,Koskenia,restaurant,Bayonne,"Place Sauveur Atchoarena, 64210, Bidart",64210,https://aubergekoskenia.com,43.4393362,-1.5896467
7359015506,node,Bar du fronton,restaurant,Bayonne,"Place Sauveur Atchoarena, 64210, Bidart",64210,http://www.hoteldufronton.com,43.4393231,-1.5900105
7372258685,node,Comme chez toi,restaurant,Bayonne,,,,43.4928782,-1.4655094
7376717877,node,Mémorial départemental pour la seconde guerre mondiale et pour la paix,memorial,Bayonne,,,,43.4397829,-1.5927615
7388348678,node,Le Port Neuf,hotel,Bayonne,,,,43.4917522,-1.4764613
7400944448,node,Etxe Gusto,restaurant,Bayonne,,,,43.4889913,-1.4776273
7404907126,node,Le Tire Bouchon,restaurant,Bayonne,,,,43.4910987,-1.4756615
7442451861,node,Hôtel des Basses Pyrénées,restaurant,Bayonne,,,,43.4886391,-1.4770748
7448073468,node,,artwork,Bayonne,,,,43.4841232,-1.5201691
7486209048,node,Mintza,restaurant,Bayonne,,,,43.4942562,-1.4774594
7486240156,node,Le bistrot des filles,restaurant,Bayonne,,,,43.4810996,-1.4886206
7511314625,node,Hebeho,restaurant,Bayonne,,,,43.4889535,-1.4734615
7511314626,node,Le Bar du marché,restaurant,Bayonne,39 Rue des Basques,,,43.489548,-1.4756054
7511592759,node,Quai n°15,restaurant,Bayonne,"15 Quai Amiral Jaureguiberry, 64100, Bayonne",64100,https://quai-n15.fr/,43.4886302,-1.4752507
7518512975,node,"Sculpture ""Evasion""",artwork,Bayonne,,,,43.4376687,-1.5946433
7521713388,node,Le Saint-Louis,restaurant,Bayonne,,,,43.4927846,-1.4761322
7537048350,node,,viewpoint,Bayonne,,,,43.4470053,-1.5873989
7537048351,node,,viewpoint,Bayonne,,,,43.4470096,-1.5875271
7537048352,node,,viewpoint,Bayonne,,,,43.4268191,-1.607734
7540725269,node,,viewpoint,Bayonne,,,,43.3919916,-1.6607148
7551899000,node,Bombay,restaurant,Bayonne,,,,43.4934531,-1.4668089
7556379171,node,,viewpoint,Bayonne,,,,43.4392059,-1.5930557
7556468031,node,Chixko,restaurant,Bayonne,"197 Avenue du Plateau, 64210, Bidart",64210,https://www.instagram.com/chixko.bidart/,43.4448001,-1.5843257
7556587505,node,,beach,Bayonne,,,,43.3908392,-1.6838257
7562712870,node,,viewpoint,Bayonne,,,,43.3880524,-1.6723509
7563127386,node,,viewpoint,Bayonne,,,,43.3978716,-1.6611819
7565534114,node,Le café d'en bas,restaurant,Bayonne,"4 Rue de l'Église, 64210, Bidart",64210,,43.4385148,-1.5901129
7566607867,node,Baigura,attraction,Bayonne,,,,43.2905035,-1.2928854
7569692106,node,,viewpoint,Bayonne,,,,43.3860293,-1.6671986
7569692107,node,,viewpoint,Bayonne,,,,43.3875072,-1.6694931
7572709286,node,Etxemendi,restaurant,Bayonne,"455 Karrika Nagusia, 64250, Espelette",64250,,43.3410161,-1.4493026
7595302585,node,Le Byron,restaurant,Bayonne,"12 Allée du Cadran, Anglet",,https://lebyron.fr/,43.4819185,-1.5052296
7595666124,node,Aho Fina,restaurant,Bayonne,"43 Boulevard Adolphe Thiers, 64500, Saint-Jean-de-Luz",64500,https://luzgrandhotel.fr/,43.3925817,-1.6598663
7595702647,node,La Cidrerie Luzienne,restaurant,Bayonne,"16 bis Avenue André Ithurralde, 64500, Saint-Jean-de-Luz",64500,https://www.facebook.com/cidrerieLuzienne,43.3929131,-1.6518557
7595819518,node,"Hélianthal, Thalazur Saint-Jean-de-Luz",restaurant,Bayonne,"Hôtel Thalazur Saint-Jean-de-Luz, 64500, Saint-Jean-de-Luz",64500,https://www.thalazur.fr/saint-jean-de-luz/hotel/,43.3912954,-1.6613827
7595863372,node,L'Essentiel,restaurant,Bayonne,"4 Rue Dalbarade, 64500, Saint-Jean-de-Luz",64500,,43.3916689,-1.6600727
7595867441,node,Le Sélect,restaurant,Bayonne,"29 Boulevard Victor Hugo, 64500, Saint-Jean-de-Luz",64500,https://www.cineluz.fr/,43.3881386,-1.6603817
7631725042,node,Jose Antonio Aguirre,artwork,Bayonne,,,,43.3902341,-1.6591219
7635953794,node,Déméter,artwork,Bayonne,,,,43.4999404,-1.4629167
7639967513,node,Beldi Grill,restaurant,Bayonne,,,,43.4955955,-1.466308
7642813687,node,Ristorante Del Arte,restaurant,Bayonne,,,https://www.delarte.fr/restaurants/1405-anglet,43.4823461,-1.5054221
7643809304,node,,memorial,Bayonne,,,,43.3876546,-1.6650302
7646196870,node,Tavola Calda,restaurant,Bayonne,"2-5 Rue Dornaldeguy, 64500, Saint-Jean-de-Luz",64500,,43.3915686,-1.6596173
7646215441,node,Mezze Ona,restaurant,Bayonne,"52 Boulevard Victor Hugo, 64500, Saint-Jean-de-Luz",64500,http://www.mezzeona.com/,43.3891585,-1.657851
7646231933,node,Le dauphin,restaurant,Bayonne,"39 Promenade Jacques Thibaud, 64500, Saint-Jean-de-Luz",64500,https://www.restaurantledauphin.com/,43.3910237,-1.6616009
7646255846,node,Cadrimages,gallery,Bayonne,"16 Rue Garat, 64500, Saint-Jean-de-Luz",64500,https://www.cadrimages.com/,43.3885885,-1.6623253
7646257840,node,Galerie Hordago,gallery,Bayonne,"3 Rue Saint-Jacques, 64500, Saint-Jean-de-Luz",64500,http://www.galerie-hordago.com/#about_us.html,43.3891791,-1.6624038
7646265987,node,Galerie d'ici et d'ailleurs,gallery,Bayonne,"6 Rue Saint-Jacques, 64500, Saint-Jean-de-Luz",64500,http://www.art-paysbasque.com/galerie/dici-et-dailleurs/,43.3890655,-1.6623043
7649492934,node,La Boëte,restaurant,Bayonne,"3 Rue Jean Bague, 64500, Saint-Jean-de-Luz",64500,https://www.laboete-restaurant-poissonnerie-64.com/,43.3888112,-1.6610936
7649513412,node,Chez Mimi,restaurant,Bayonne,"2 Place du Collège, 64500, Saint-Jean-de-Luz",64500,https://chez-mimi-st-jean-de-luz.eatbu.com/?lang=fr,43.3888956,-1.6606595
7649526455,node,Hôtel de la Plage,hotel,Bayonne,"33 Rue Garat, 64500, Saint-Jean-de-Luz",64500,https://www.hoteldelaplage.com/,43.3896445,-1.6629851
7649526573,node,"L'Alcalde, l'écailler",restaurant,Bayonne,"22 Rue de la République, 64500, Saint-Jean-de-Luz",64500,https://www.restaurant-alcalde.com/,43.3885655,-1.6642134
7649534321,node,L'Escale,restaurant,Bayonne,"9 Rue Pierre-Louis Tourasse, 64500, Saint-Jean-de-Luz",64500,,43.3877111,-1.6633202
7649542426,node,Restaurant Hor Dago,restaurant,Bayonne,"19 Rue de la République, 64500, Saint-Jean-de-Luz",64500,https://hordago.fr/,43.388669,-1.6644808
7649542505,node,La Taverne Basque,restaurant,Bayonne,"5 Rue de la République, 64500, Saint-Jean-de-Luz",64500,,43.3881783,-1.66426
7649550409,node,Uhaina,restaurant,Bayonne,"18 Rue de la République, 64500, Saint-Jean-de-Luz",64500,,43.3884375,-1.6641997
7649645672,node,Cruosoée,gallery,Bayonne,"25 Rue Joseph Garat, 64500, Saint-Jean-de-Luz",64500,,43.3890848,-1.6627348
7652717467,node,Chez Gus,restaurant,Bayonne,"28 Rue de la République, 64500, Saint-Jean-de-Luz",64500,,43.3888596,-1.6643893
7652898571,node,,attraction,Bayonne,,,https://www.atlantic-pirogue.com/,43.3932096,-1.6852623
7655502159,node,Gurekin Plongée,attraction,Bayonne,"Place Port Nivelle, 64500, Saint-Jean-de-Luz",64500,https://www.gurekin-plongee.com/,43.3819778,-1.6550341
7673166672,node,Le Bodega La Plancha,restaurant,Bayonne,"31 Rue Pierre-Louis Tourasse, 64500, Saint-Jean-de-Luz",64500,https://bodega-la-plancha-le-patio.fr/menu/menu-bodega-la-plancha.pdf,43.3886217,-1.6636323
7673179180,node,La pile d'assiettes,restaurant,Bayonne,"6 Rue d'Ellissagaray, 64500, Saint-Jean-de-Luz",64500,,43.3880914,-1.6608407
7673183899,node,La cueva,restaurant,Bayonne,"32 Rue Garat, 64500, Saint-Jean-de-Luz",64500,,43.3895167,-1.662775
7673191821,node,La Vieille Auberge,restaurant,Bayonne,"22 Rue Pierre-Louis Tourasse, 64500, Saint-Jean-de-Luz",64500,http://www.restaurant-lavieilleauberge.com/,43.3886884,-1.6634903
7673194100,node,Crêperie Piper Beltz,restaurant,Bayonne,"29 Rue Joseph Garat, 64500, Saint-Jean-de-Luz",64500,,43.3893816,-1.6628583
7673197119,node,Le P'tit Hasard,restaurant,Bayonne,"26 Rue du Maréchal Harispe, 64500, Saint-Jean-de-Luz",64500,,43.3873222,-1.6603712
7673221289,node,Kako Etxea,restaurant,Bayonne,"18 Rue du Maréchal Harispe, 64500, Saint-Jean-de-Luz",64500,https://www.restaurant-kako-saintjeandeluz.com/,43.3871004,-1.6609757
7673226670,node,Hôtel Le relais de Saint Jacques,hotel,Bayonne,"13 Avenue de Verdun, 64500, Saint-Jean-de-Luz",64500,https://www.hotelstjacques-stjeandeluz.com/,43.3862874,-1.6615579
7673233995,node,Chez Jules,restaurant,Bayonne,"45 Avenue du Commandant Passicot, 64500, Ciboure",64500,,43.3942897,-1.6849535
7673239827,node,Ispeguy,restaurant,Bayonne,"35 Avenue du Commandant Passicot, 64500, Ciboure",64500,,43.3932524,-1.6852534
7673239828,node,,viewpoint,Bayonne,,,,43.3925398,-1.6831263
7674028492,node,Hoso Sushi - Café& Fresh Food,restaurant,Bayonne,"14 Boulevard Victor Hugo, 64500, Saint-Jean-de-Luz",64500,https://www.hososushi.fr/,43.3873026,-1.6617035
7677319434,node,Casa del Sol,restaurant,Bayonne,"25 Rue Abbé Onaindia, 64500, Saint-Jean-de-Luz",64500,,43.3888859,-1.6619508
7677344853,node,Pil Pil Enea,restaurant,Bayonne,"3 Rue Salagoity, 64500, Saint-Jean-de-Luz",64500,https://www.pilpilenea.fr/,43.3872848,-1.6590236
7698581938,node,Zokoa Kanttu,restaurant,Bayonne,"31 Avenue du Commandant Passicot, 64500, Ciboure",64500,,43.3900767,-1.6848
7698588577,node,Alaïa,restaurant,Bayonne,"2 Allée André Hiriart, 64500, Ciboure",64500,https://www.restaurantalaia.com/,43.3900109,-1.6841883
7698736490,node,Exte Kim,restaurant,Bayonne,"41 Rue Agorette, 64500, Ciboure",64500,,43.3834703,-1.6686255
7698792656,node,Ibis Budget Saint Jean de Luz Ciboure,hotel,Bayonne,"13 Rue Georges Olascuaga, 64500, Ciboure",64500,https://all.accor.com/lien_externe.svlt?goto=fiche_hotel&code_hotel=6560&merchantid=seo-maps-FR-6560&sourceid=aw-cen,43.383535,-1.6652517
7701968385,node,Donnie Ocean,restaurant,Bayonne,,,,43.3867871,-1.6615928
7701990737,node,Ekaitza,restaurant,Bayonne,"15 Quai Maurice Ravel, 64500, Ciboure",64500,https://www.restaurant-ekaitza.fr/,43.3852118,-1.6674947
7711565353,node,Table d'Orientation,viewpoint,Bayonne,,,,43.1531298,-1.334366
7711594519,node,Table d'Orientation,viewpoint,Bayonne,,,,43.1727179,-1.3035432
7730218385,node,,viewpoint,Bayonne,,,,43.3627049,-1.4022179
7733572128,node,Hôtel Les Almadies,hotel,Bayonne,"58 Rue Léon Gambetta, 64500, Saint-Jean-de-Luz",64500,http://www.hotel-les-almadies.com/,43.3888086,-1.6604837
7733737448,node,Hôtel La Devinière,hotel,Bayonne,"5 Rue Loquin, 64500, Saint-Jean-de-Luz",64500,https://www.hotel-la-deviniere.com/,43.3898393,-1.6597103
7733796935,node,Hôtel La Réserve,hotel,Bayonne,"1 Avenue Gaëtan de Bernoville, 64500, Saint-Jean-de-Luz",64500,https://www.hotel-lareserve.com/,43.4018194,-1.6596527
7733857468,node,Le Mosaïk Hôtel,hotel,Bayonne,"56 Boulevard Victor Hugo, 64500, Saint-Jean-de-Luz",64500,https://www.hotel-lepetittrianon.com/,43.3897353,-1.6575185
7733868224,node,Hôtel Le Madison,hotel,Bayonne,"25 Boulevard Adolphe Thiers, 64500, Saint-Jean-de-Luz",64500,https://www.madison-saintjeandeluz.com/fr/hotel-madison/,43.3906975,-1.6593606
7733887999,node,Hôtel Kapa Gorry,hotel,Bayonne,"9 Rue Paul Gelos, 64500, Saint Jean de Luz",64500,https://www.hotel-kapa-gorry.com/,43.3964701,-1.657828
7734124588,node,Hôtel Maria Christina,hotel,Bayonne,"13 Rue Paul Gelos, 64500, Saint Jean de Luz",64500,https://www.hotel-maria-christina.com/,43.3967374,-1.6575966
7734139068,node,La Caravelle,hotel,Bayonne,"1 Boulevard Pierre Benoit, 64500, Ciboure",64500,https://www.hotellacaravelle-stjeandeluz.com/,43.3876457,-1.6706182
7739290406,node,,viewpoint,Bayonne,,,,43.4079137,-1.6390628
7755939142,node,,viewpoint,Bayonne,,,,43.4299316,-1.6023039
7764607343,node,Le Spot de Sainte-Barbe,restaurant,Bayonne,"Rue de Sainte-Barbe, 64500, Saint-Jean-de-Luz",64500,,43.3993286,-1.6628401
7771127714,node,Atlanthal,hotel,Bayonne,,,,43.5214654,-1.5239936
7772818585,node,Choko Ona,restaurant,Bayonne,"155 Xerrendako Bidea, 64250",64250,https://choko-ona.fr/,43.3415485,-1.4447912
7773208847,node,Citadelle Vauban,attraction,Bayonne,"Chemin de la Citadelle, 64220, Saint-Jean-Pied-de-Port",64220,,43.1612211,-1.232061
7780588110,node,Abbaye de Lahonce,attraction,Bayonne,"Place Louis Laffargue, 64304, Lahonce",64304,,43.4867185,-1.3861824
7780858283,node,Uhina Rafting,attraction,Bayonne,,,,43.2661623,-1.332837
7780880631,node,Base de loisirs du Baigura,attraction,Bayonne,"Route de Louhossa, 64240, Mendionde",64240,https://www.baigura.com/,43.3096467,-1.2827071
7783068575,node,,artwork,Bayonne,,,,43.3610017,-1.775161
7783511795,node,Pointe de Sainte Barbe,viewpoint,Bayonne,,,,43.3992044,-1.6644641
7783833885,node,,viewpoint,Bayonne,,,,43.4717018,-1.5690781
7787834340,node,Brasserie Xarnegu,restaurant,Bayonne,,,,43.4837029,-1.1405664
7787910453,node,Stèle des tailleurs de pierre,artwork,Bayonne,,,,43.4838337,-1.1408085
7810499102,node,Bistrot Lana,restaurant,Bayonne,"2 Rue Bazter, 64210, Bidart",64210,https://www.facebook.com/Bistrot-lana-272683276262715,43.4461695,-1.5440748
7825433150,node,Plaisir,restaurant,Bayonne,,,,43.4909005,-1.4727588
7825433153,node,Goxoki,restaurant,Bayonne,,,,43.4907594,-1.4725484
7825433155,node,Akelarre,restaurant,Bayonne,"4 Rue Pontrique, 64100, Bayonne",64100,,43.490124,-1.4730818
7825433156,node,Bakera,restaurant,Bayonne,,,,43.4902276,-1.4731248
7825433160,node,Naan Express,restaurant,Bayonne,,,,43.4901637,-1.4734316
7832672217,node,L'Océ,restaurant,Bayonne,"9 Avenue des Mimosas, 64700, Hendaye",64700,,43.372316,-1.7738928
7832900051,node,,viewpoint,Bayonne,,,,43.1845837,-1.2660915
7843712879,node,You Sushi,restaurant,Bayonne,,,,43.4918665,-1.4746798
7844150888,node,Pépite,restaurant,Bayonne,"61 Rue Pannecau, 64100",64100,,43.4898139,-1.4721013
7846980712,node,La Pinta,restaurant,Bayonne,,,,43.370918,-1.7848103
7860363329,node,Stéle mémoire à Aristides de Sousa Mendes,artwork,Bayonne,,,,43.3506051,-1.7847313
7871023285,node,,viewpoint,Bayonne,,,,43.1475676,-1.2456618
7885089524,node,,viewpoint,Bayonne,,,,43.0607682,-1.093316
7904077297,node,,viewpoint,Bayonne,,,,43.5151217,-1.5302663
7910024520,node,Il Sussurro,restaurant,Bayonne,,,,43.4951625,-1.4682359
7936800379,node,,gallery,Bayonne,1 Rue Amédée Dufourg,,,43.4814609,-1.5152255
7958711132,node,L'Artsenal,gallery,Bayonne,,,,43.4955447,-1.4690647
7979945734,node,Le M.U.R. du Trinquet,artwork,Bayonne,,,,43.4901505,-1.4715572
8000143006,node,Le petit hôtel,hotel,Bayonne,,,,43.4828485,-1.5596501
8000145796,node,OPIOM,restaurant,Bayonne,64200,64200,,43.4854606,-1.5569646
8000147635,node,Akena,hotel,Bayonne,,,,43.4853881,-1.552392
8000483993,node,Plage naturiste,beach,Bayonne,,,,43.3795035,-1.7558642
8003693208,node,Le labo du Pizzaillo,restaurant,Bayonne,,,,43.4614015,-1.549504
8004146268,node,Aupa Pizza,restaurant,Bayonne,"3 Rue Jean Bague, 64500, Saint-Jean-de-Luz",64500,,43.3887991,-1.661059
8005473285,node,Gîte de M. et Mme Luberriaga Jean-Marie,hotel,Bayonne,64240,64240,,43.3897151,-1.2931974
8006989578,node,L'Atelier du piment,attraction,Bayonne,"Elizaldeko Bidea, 64250, espelette",64250,http://www.atelierdupiment.com/,43.345852,-1.440689
8010384302,node,Auberge Iparla,restaurant,Bayonne,,,,43.2652801,-1.3499324
8013513985,node,Xuxu,restaurant,Bayonne,"8 bis, 64200",64200,,43.4850859,-1.5483012
8025460108,node,Restaurant Euzkadi,restaurant,Bayonne,"285 Karrika Nagusia, 64250, Espelette",64250,https://www.hotel-restaurant-euzkadi.com/,43.3402318,-1.4479609
8032776057,node,Basa,restaurant,Bayonne,"74 Rue d'Espagne, 64100, Bayonne",64100,https://www.brasserie-basa.com/,43.4901652,-1.4763036
8035709571,node,Restaurant Chilhar,restaurant,Bayonne,"25 Xilarreneko Karrika, 64250, Espelette",64250,https://www.hotel-chilhar.com/,43.340652,-1.4495152
8036344618,node,Labea,restaurant,Bayonne,"409 Karrika Nagusia, 64250, Espelette",64250,,43.3406546,-1.4491778
8088577593,node,,memorial,Bayonne,,,,43.0694184,-1.4160838
8088888048,node,,memorial,Bayonne,,,,43.098408,-1.4276077
8096615852,node,Hôtel restaurant Txistulari,restaurant,Bayonne,"442 Route d'Errobo, 64250, Itxassou",64250,https://www.txistulari.fr/fr/,43.3293039,-1.3970098
8100407737,node,,viewpoint,Bayonne,,,,43.3628419,-1.3905741
8100885037,node,,viewpoint,Bayonne,,,,43.3582217,-1.3950497
8100931025,node,,artwork,Bayonne,,,,43.360228,-1.3996665
8111218895,node,Hôtel restaurant du trinquet,restaurant,Bayonne,"Le bourg, 64250, Louhossoa",64250,https://www.hotel-trinquet-louhossoa.com/,43.3163405,-1.3501274
8111238977,node,Maison Bonnet,restaurant,Bayonne,"41 Larrondoko bidea, 64250, Itxassou",64250,https://www.maison-bonnet.com/fr/,43.332274,-1.4111069
8118376340,node,Dispatchwork,artwork,Bayonne,,,https://www.pointsdevue.eus,43.4946167,-1.4699739
8130398867,node,Le Café Bleu,restaurant,Bayonne,,,https://www.cafe-bleu-anglet.com,43.5005798,-1.5422896
8130468641,node,La Table des Compagnons,restaurant,Bayonne,"94, anglet",,,43.5029742,-1.5149961
8137919930,node,Hôtel restaurant Bergara,restaurant,Bayonne,"Rue principale, 64250, Souraide",64250,https://www.hotel-bergara.com/,43.3415807,-1.4740917
8142933100,node,Bar du Port Chez Nicolas,restaurant,Bayonne,,,,43.4909777,-1.3827989
8151984540,node,Dung Beetle,artwork,Bayonne,,,,43.4950487,-1.4597621
8153886452,node,Hôtel-restaurant Berria,hotel,Bayonne,"Rue Francis Jammes, 64240",64240,https://www.hotel-restaurant-berria.fr/fr/,43.3869344,-1.3037878
8155090198,node,Conti.pizza,restaurant,Bayonne,,,,43.4768978,-1.4933488
8155427195,node,,artwork,Bayonne,,,,43.4763363,-1.5088794
8157189849,node,Angelu Pizza,restaurant,Bayonne,"44 Rue de Salis, anglet",,https://angelu-pizza.fr/,43.4860649,-1.5151564
8157225598,node,Maya,restaurant,Bayonne,,,,43.4969904,-1.5069761
8157225599,node,La Royale,restaurant,Bayonne,"3 Place Lamothe, anglet",,https://www.laroyaleanglet.fr,43.4864424,-1.5146716
8157248905,node,La Bottega della Mamma,restaurant,Bayonne,"3 Chemin de Jorlis, anglet",,,43.5006756,-1.4948407
8157281230,node,Le Bouche à Oreille,restaurant,Bayonne,"96, anglet",,,43.5031362,-1.5103807
8168271849,node,Hôtel-restaurant Les Tilleuls,hotel,Bayonne,"Place Verdun, 64240, Hasparren",64240,http://www.hotellestilleuls-hasparren.com/,43.3838222,-1.3055451
8168370765,node,Hôtel Le relais des Tilleuls,hotel,Bayonne,"Rue Pierre Broussain, 64240",64240,https://www.lestilleuls-hasparren.fr/relais,43.3836449,-1.3045713
8175088964,node,,artwork,Bayonne,,,,43.4949575,-1.4787583
8175095250,node,Leave no one behind,artwork,Bayonne,,,,43.4839066,-1.4661201
8182492892,node,Kokot Nomad,restaurant,Bayonne,"4 Chemin de Jorlis, Anglet",,https://kokotnomad.fr/,43.5003643,-1.4949936
8193924373,node,Le Musée du Gâteau Basque,museum,Bayonne,"Quartier Lehenbiscay - D406, 64310, Sare",64310,https://www.legateaubasque.com/,43.2992405,-1.5874227
8231954845,node,,artwork,Bayonne,,,,43.4954139,-1.46474
8241039278,node,San Severo,restaurant,Bayonne,,,,43.4939724,-1.4774132
8241057464,node,Brasserie Le Thiers,restaurant,Bayonne,,,,43.4930178,-1.4758962
8281141717,node,Col d'Iparlatze,viewpoint,Bayonne,,,,43.2588042,-1.0904195
8289200963,node,,viewpoint,Bayonne,,,,43.439024,-1.5895669
8293087608,node,Centre d'interprétation du piment d'Espelette,museum,Bayonne,"25 Merkatu plaza, 64250, Espelette",64250,https://www.pimentdespelette.com/,43.3400888,-1.446846
8293504486,node,Plaque commémorative WWF du père Armand David,memorial,Bayonne,,,,43.3405327,-1.4483248
8303136846,node,Kanbar Sagardotegia,restaurant,Bayonne,"4 Rue de la Poste, 64200, Biarritz",64200,,43.4815905,-1.5606442
8314591519,node,Epherra,restaurant,Bayonne,"Chemin d'Urlo Erreka, 65250, Souraïde",65250,,43.3631573,-1.4843041
8338999987,node,,viewpoint,Bayonne,,,,43.3945948,-1.451994
8344742609,node,Maisons traditionnelles labourdines,attraction,Bayonne,,,,43.3955772,-1.4535836
8344819972,node,Ttok,gallery,Bayonne,"Purguko kurutzeko plaza, 64480, uztaritze",64480,,43.3932845,-1.4512141
8354907310,node,,memorial,Bayonne,,,,43.2247145,-0.9899531
8412465126,node,Hôtel-restaurant Argia,hotel,Bayonne,"Rue Jean Lissar, 64240, Hasparren",64240,https://www.hotel-argia.com/fr/,43.3836121,-1.3068332
8414648672,node,Xuriatea,restaurant,Bayonne,"Rue Francis Jammes, 64240, Hasparren",64240,,43.3843734,-1.3053252
8414693154,node,Mimi Ostatua - bar du fronton,restaurant,Bayonne,"Place du Jeu de Paume, 64240, Hasparren",64240,,43.3849495,-1.3041266
8425702659,node,,memorial,Bayonne,,,,43.3652255,-1.203699
8429426219,node,Komeiteko Borda,restaurant,Bayonne,"1480 Chemin de Komeitekoborda, 64240, Hasparren",64240,http://www.ferme-auberge-komeiteko-borda.fr/,43.3634496,-1.3468953
8435024484,node,Bankje,artwork,Bayonne,,,,43.4816916,-1.5131683
8435054779,node,Le couple en marche,artwork,Bayonne,,,,43.4817666,-1.512902
8435057149,node,Love is in the air,artwork,Bayonne,,,,43.4818806,-1.5127674
8435060913,node,Les fleurs magiques,artwork,Bayonne,,,,43.4815271,-1.5128022
8437300416,node,Anneaux,artwork,Bayonne,,,,43.4817327,-1.5157104
8437319717,node,Bach,artwork,Bayonne,,,,43.4815989,-1.5157997
8445417235,node,Stèle des Evadés,memorial,Bayonne,,,,43.3623377,-1.3245476
8488467936,node,,memorial,Bayonne,,,,43.49658,-1.5387501
8509861070,node,Chez Maité,hotel,Bayonne,"Place de la Mairie, 64122, Urrugne",64122,,43.3622185,-1.6999678
8509861071,node,Chateau D'Urtubie,hotel,Bayonne,,,,43.3661366,-1.6882815
8537212703,node,,artwork,Bayonne,,,,43.4640296,-1.5224942
8557342032,node,La mia Toscana,restaurant,Bayonne,,,,43.4915126,-1.4737734
8569444338,node,,viewpoint,Bayonne,,,,43.5189953,-1.4811239
8571873393,node,Topaketa,memorial,Bayonne,,,,43.3399799,-1.4457977
8571932431,node,Hôtel Chilhar,hotel,Bayonne,"25 Xilarreneko Karrika, 64250, Espelette",64250,https://www.hotel-chilhar.com/,43.3406549,-1.4495747
8618099399,node,,viewpoint,Bayonne,,,,43.4746965,-1.4781788
8647029785,node,Auberge d'Achtal,restaurant,Bayonne,,,,43.4367147,-1.5221442
8656532688,node,ahpe Restaurant,restaurant,Bayonne,"34 Avenue du Président J.F. Kennedy, 64200",64200,,43.4722663,-1.5558488
8656552039,node,Restaurant du Trinquet,restaurant,Bayonne,,,,43.3159808,-1.351148
8656753227,node,Hôtel Les Jardins de Bakea,hotel,Bayonne,"Rue Herri Alde, Biriatou",,,43.3334581,-1.7444779
8664187548,node,Arrolako Harriaren Gudea,monument,Bayonne,,,,43.1215724,-1.3328955
8664233241,node,,artwork,Bayonne,,,,43.4935495,-1.4915711
8669039476,node,,viewpoint,Bayonne,,,,43.4893527,-1.4689869
8669039477,node,,viewpoint,Bayonne,,,,43.489775,-1.4686556
8669039478,node,,viewpoint,Bayonne,,,,43.4895546,-1.4688098
8688499720,node,,memorial,Bayonne,,,,43.3860117,-1.6627579
8692848142,node,Le Château de Gramont,castle,Bayonne,"Allée de Gramont, Bidache",,,43.4873319,-1.1381896
8701403586,node,Restaurant Ezkaratza,restaurant,Bayonne,"Maison Errekartia, 64640, HELETTE",64640,https://ezkaratza-helette.com/restaurant/,43.3111298,-1.2567319
8701435250,node,Restaurant La Tour de Pizz,restaurant,Bayonne,"70 Route de Came, 64520, Bidache",64520,https://latourdepizzz.business.site/,43.4838332,-1.1377588
8701700761,node,Le site de Miremont,attraction,Bayonne,,,,43.4814561,-1.2109424
8709375523,node,Le Bouquet,artwork,Bayonne,,,,43.5237546,-1.5231885
8709375524,node,"Hérodote, Histoires. VII. 35.",artwork,Bayonne,,,,43.5257631,-1.5239778
8709741457,node,Gallerie Cortez,gallery,Bayonne,"360 Kaminoko patarra, 64250, Espelette",64250,,43.3416879,-1.4420048
8725314886,node,Hôtel Arcé,hotel,Bayonne,"Route du Col d'Ispéguy, 64430, SAINT-ETIENNE-DE-BAIGORRY",64430,https://www.hotel-arce.com/fr/,43.1753106,-1.3488087
8725349995,node,Restaurant Pecoitz,restaurant,Bayonne,"37 Chemin de Plaza, 64220, Aincille",64220,,43.1448568,-1.1952963
8725359368,node,Hôtel Ramuntcho,hotel,Bayonne,"1 Rue de France, 64220, Saint-Jean-Pied-de-Port",64220,https://www.hotel-ramuntcho.com/,43.163128,-1.2365304
8725411272,node,Hôtel Andreinia,hotel,Bayonne,"Bourg, 64220, Estérençuby",64220,https://www.hotel-andreinia.com/,43.1037266,-1.1964764
8725427033,node,Hôtel-Restaurant C'Vall,hotel,Bayonne,"64430, Urepel",64430,https://www.cvall.fr/,43.0705024,-1.4166304
8725433723,node,Les Remparts,hotel,Bayonne,"16 Place Floquet, 64220, Saint-Jean-Pied-de-Port",64220,https://www.hoteldesremparts.fr/,43.162527,-1.2393435
8725492469,node,Kuka,restaurant,Bayonne,"1 Rue de l'Église, 64220, Saint-Jean-Pied-de-Port",64220,,43.1624219,-1.2372783
8727344790,node,Restaurant Arcé,restaurant,Bayonne,"64430, SAINT-ETIENNE-DE-BAIGORRY",64430,https://www.hotel-arce.com/fr/,43.1752761,-1.3488103
8727354085,node,Brasserie du Fronton,restaurant,Bayonne,"Baigorriko plaza, 64430, Saint-Étienne-de-Baïgorry",64430,,43.1792204,-1.3398954
