osm_id,osm_type,name,category,city,address,postcode,website,lat,lon
288827260,node,Laissey Vous Tenter,restaurant,Besançon,"60 Grande Rue, 25820, Laissey",25820,,47.2983979,6.2336845
344937113,node,Mémorial 1914-1918,memorial,Besançon,,,,47.4318564,6.4547414
354372911,node,,memorial,Besançon,,,,47.2453583,6.0214631
365161877,node,,viewpoint,Besançon,,,,47.2199046,6.0510363
365308952,node,,viewpoint,Besançon,,,,47.2246601,6.0461854
368247101,node,Musée du Temps,museum,Besançon,,,http://www.mdt.besancon.fr,47.2358446,6.0269139
369310121,node,,artwork,Besançon,,,,47.239705,6.0205034
369311271,node,Victor Hugo,artwork,Besançon,,,,47.2362017,6.0221599
369312543,node,Le Minotaure,artwork,Besançon,,,,47.2420603,6.0246491
369947112,node,La Vierge du Choléra,viewpoint,Besançon,,,,47.353894,6.3647285
370020570,node,Belvédère Croix de Châtard,viewpoint,Besançon,,,,47.3392816,6.3671286
372649541,node,Lonot,viewpoint,Besançon,,,,47.3482699,6.3824768
373486298,node,Le Tuyé de Mésandans,restaurant,Besançon,"Zone Artisanale en Chandin, 25680, Mésandans",25680,https://www.letuye.fr,47.4310842,6.3742364
383698087,node,Jouffroy d'Abbans,monument,Besançon,,,,47.3441626,6.3596332
385560740,node,,memorial,Besançon,,,,47.1986577,5.9621311
385911825,node,Grotte d’Osselle,attraction,Besançon,,,https://grotte-osselle.fr,47.1384345,5.8363609
386016135,node,Horloge astronomique,artwork,Besançon,,,,47.2336365,6.0307815
388789756,node,Jardin des simples,garden,Besançon,,,,47.2387425,6.1837935
420867212,node,Source du Lison,attraction,Besançon,,,,46.9651261,6.0115853
460345453,node,Etap Hotel Besançon nord,hotel,Besançon,"1 Rue de la Poste, 25048, Besançon",25048,https://www.etaphotel.com/,47.2781457,5.9943168
476280112,node,Musée de la Taillanderie,museum,Besançon,"Creux de la Doye, 25330, Nans-sous-Sainte-Anne",25330,,46.9706685,5.996222
478967172,node,Fente de Babre,viewpoint,Besançon,,,,47.3453465,6.3793361
493508943,node,Point de vue du Moine,viewpoint,Besançon,,,,47.0297158,6.2699238
494253654,node,Belvedère de Gouille Noire,viewpoint,Besançon,,,,47.0686726,6.0177792
525261854,node,Belvédère de Montfaucon,viewpoint,Besançon,,,,47.2413718,6.0824416
529035926,node,,monument,Besançon,,,,47.2070984,6.0066016
529050230,node,,viewpoint,Besançon,,,,47.2060799,6.009804
529050255,node,,viewpoint,Besançon,,,,47.2075184,6.0096651
534448739,node,Effet Boeuf,restaurant,Besançon,"3 Rue Mairet, 25000, Besançon",25000,https://www.lesmeilleursrestos.fr/restaurant-besancon/142-l-effet-boeuf-besancon.html,47.2342913,6.0264417
544131843,node,,monument,Besançon,,,,47.3482987,6.3889285
619172433,node,Hôtel du Nord,hotel,Besançon,,,https://www.hotel-du-nord-besancon.com,47.2373004,6.0259501
619172952,node,Hôtel Regina,hotel,Besançon,,,,47.2372029,6.0263858
624057160,node,Fontaine Wallace,artwork,Besançon,,,,47.2354249,6.0264202
676752295,node,Le Saint-Cerf,restaurant,Besançon,"1 Rue Mégevand, 25000, Besançon",25000,,47.2364259,6.0229277
677325668,node,,memorial,Besançon,,,,47.2365652,6.0287474
688482034,node,Bélvèdere La Chaussée,viewpoint,Besançon,,,,46.9728749,5.9765326
738605208,node,Les Oiseaux,restaurant,Besançon,,,,47.2550385,6.0345691
740599857,node,Le Sycomorre,restaurant,Besançon,,,,47.2263955,6.0648516
769222959,node,Au Messimo,restaurant,Besançon,"16 Place d'Armes, 25440, Quingey",25440,https://www.pizzeria-messimo.fr/,47.1032312,5.8837409
769222960,node,Café de l'hôtel de ville,restaurant,Besançon,,,,47.103079,5.883031
769222965,node,Hôtel de la truite de la Noue,hotel,Besançon,,,,47.1022019,5.8852712
778678272,node,Restaurant du Casino,restaurant,Besançon,,,,47.2428657,6.0311156
798996833,node,Belvédère de la Roche du Gratteris,viewpoint,Besançon,,,,47.1754816,6.141258
799168912,node,Le Tilleul,restaurant,Besançon,,,,47.0644958,6.2161037
843139798,node,Le Saut du Chevalier,viewpoint,Besançon,,,,47.1281408,6.1792276
846981569,node,Hôtel-Restaurant La Cascade,hotel,Besançon,,,,47.0388029,6.2743382
869306812,node,LauMas,restaurant,Besançon,35 Rue Charles Nodier,,https://restaurant-laumas.com,47.2315081,6.0263856
890710872,node,,memorial,Besançon,,,,47.381554,6.3498568
894618147,node,Miroir d'eau de Rennes-sur-Loue,viewpoint,Besançon,,,,47.0148835,5.8529279
910728578,node,,viewpoint,Besançon,,,,47.3217911,6.4349975
928803052,node,,memorial,Besançon,,,,47.0245621,6.2027082
928803119,node,,memorial,Besançon,,,,47.0245032,6.2024929
972740907,node,Château ruiné,ruins,Besançon,,,,47.1435945,6.0545614
972741877,node,,viewpoint,Besançon,,,,47.1480632,5.9573685
1025021267,node,Monument au morts,memorial,Besançon,,,,47.1847618,5.7912437
1025021319,node,Monument aux morts,memorial,Besançon,,,,47.1811231,5.8101313
1091723852,node,Chez l'Titi,restaurant,Besançon,,,,47.247831,6.236714
1117909208,node,Auberge du Moine,restaurant,Besançon,,,http://aubergedumoine.fr,47.0264043,6.2668105
1167024714,node,,viewpoint,Besançon,,,,47.2274041,6.0215947
1167025001,node,,viewpoint,Besançon,,,,47.2278139,6.0245579
1172812763,node,,monument,Besançon,,,,47.3502559,6.3593062
1176127733,node,,restaurant,Besançon,,,,47.3272974,6.0079368
1176127738,node,Maccenzo,restaurant,Besançon,"8 Rue du Village, 25870, Devecey",25870,,47.3249198,6.0148747
1178860889,node,,memorial,Besançon,,,,47.3304675,6.4581449
1182517994,node,,viewpoint,Besançon,,,,47.3156289,6.3879383
1182518113,node,,viewpoint,Besançon,,,,47.2827664,6.35668
1187228672,node,,viewpoint,Besançon,,,,47.3076353,6.2260322
1193315043,node,Monument de la Libération de Besançon,memorial,Besançon,,,,47.2195739,6.0513988
1193315051,node,Les sentinelles de la mémoire,artwork,Besançon,,,,47.2438151,6.0165254
1195248445,node,,memorial,Besançon,,,,47.3380172,6.3724391
1301772300,node,Creux Billard,viewpoint,Besançon,,,,46.9641396,6.0126239
1329729781,node,,restaurant,Besançon,,,,47.2401319,6.0186435
1329729784,node,Fleur de Sel,restaurant,Besançon,,,,47.2397445,6.0182488
1329729787,node,Perles d'Asie,restaurant,Besançon,,,,47.2398316,6.0181933
1383046583,node,Au bon coin,restaurant,Besançon,"3 Grande Rue, 25170, Noironte",25170,,47.2720653,5.8759079
1404305768,node,Brasserie de l'Île de France,restaurant,Besançon,"18 Avenue de l'Île-de-France, 25000",25000,,47.2211221,5.9659839
1411219988,node,Belvédère du fort de la Dame Blanche,viewpoint,Besançon,,,,47.318803,6.0597243
1416344343,node,Vallée du Cusancin,viewpoint,Besançon,,,,47.3153227,6.3674596
1417452141,node,Belvédère de Chassignole,viewpoint,Besançon,,,,47.3290524,6.3218569
1417452200,node,Belvédère Grange Vuillotey,viewpoint,Besançon,,,,47.3311381,6.3448093
1419563288,node,Le Poker d'As,restaurant,Besançon,"14 Rue du Clos Saint-Amour, 25000, Besançon",25000,https://www.lesmeilleursrestos.fr/restaurant-besancon/56-restaurant-le-poker-d-as-besancon.html,47.2394721,6.0280104
1419597382,node,L’Insolite,restaurant,Besançon,"58 Rue des Granges, 25000, Besançon",25000,https://www.lesmeilleursrestos.fr/restaurant-besancon/885-l-insolite-besancon.html,47.237454,6.0267148
1419626701,node,Au Vieux Comtois,restaurant,Besançon,"13 Grande Rue, 25000, Besançon",25000,https://www.lesmeilleursrestos.fr/restaurant-besancon/112-au-vieux-comtois-besancon.html,47.2364397,6.0264625
1427498403,node,Ibis Besancon Marchaux,hotel,Besançon,"Aire de Besancon Marchaux, 25640, Marchaux",25640,https://all.accor.com/hotel/1147/index.fr.shtml?dateIn=2022-08-17&nights=1&compositions=2&stayplus=false&snu=false#origin=accor,47.3272251,6.126254
1429399346,node,Piz'Bar La Plage,restaurant,Besançon,,,,47.2309149,6.0267917
1533036754,node,,memorial,Besançon,,,,47.2886445,6.2463662
1583753741,node,,memorial,Besançon,,,,47.4052843,6.2717846
1620864725,node,Belvédère des feuilles,viewpoint,Besançon,,,,46.9924197,6.010433
1620903124,node,La Main et l'Esprit,artwork,Besançon,,,,47.2638602,6.0448178
1624054426,node,,memorial,Besançon,,,,47.3447211,6.365914
1625418662,node,Le Charleston,restaurant,Besançon,"10 Rue des Armuriers, 25110, Baume-les-Dames",25110,,47.3518276,6.3610404
1628667089,node,La Truite de la Loue,restaurant,Besançon,,,,47.1022316,5.8852094
1650664169,node,Restaurant du Val,restaurant,Besançon,,,,47.0583565,5.9007759
1665959688,node,Chez Gladoux,restaurant,Besançon,"3 Rue de l'École, 25660, Fontain",25660,,47.1994075,6.0257425
1669990441,node,Fort de Rosemont,ruins,Besançon,,,,47.2219227,6.0002168
1670078519,node,Bistro d'Olivier,restaurant,Besançon,,,,47.1784242,5.9094473
1691804985,node,,viewpoint,Besançon,,,,47.2933978,6.2358815
1693752771,node,Le Sauvage,hotel,Besançon,25000,25000,https://www.lesauvage-besancon.fr,47.2318596,6.0277305
1693752784,node,Best Western Citadelle,hotel,Besançon,"13 Rue du Général Lecourbe, 25000, Besançon",25000,https://www.bestwesterncitadelle.com/,47.23161,6.0269134
1693767895,node,Hôtel de Paris,hotel,Besançon,"33 Rue des Granges, 25000, Besançon",25000,https://www.besanconhoteldeparis.com/,47.2385754,6.0253833
1694302944,node,,memorial,Besançon,,,,47.3236214,6.3628037
1696211868,node,Vierge,artwork,Besançon,,,,47.2561119,6.003899
1737628177,node,,memorial,Besançon,,,,47.2330644,5.7423372
1737629930,node,,memorial,Besançon,,,,47.2432559,5.7326296
1750868204,node,L'atami,restaurant,Besançon,,,,47.2520196,6.0354222
1757393312,node,ibis La City,hotel,Besançon,1 Avenue Louise Michel,,https://all.accor.com/hotel/3297/index.fr.shtml,47.2353733,6.014952
1771174023,node,,memorial,Besançon,,,,47.2263765,6.0656399
1775384079,node,L'Escapade,restaurant,Besançon,,,,47.2494914,5.994467
1779086224,node,,memorial,Besançon,,,,46.9803787,6.030066
1779159328,node,,memorial,Besançon,,,,46.9831775,6.0328003
1779734503,node,,memorial,Besançon,,,,47.0135778,5.9737807
1779734517,node,Alphonse Delacroix,memorial,Besançon,,,,47.0136472,5.9737899
1779845169,node,,memorial,Besançon,,,,47.0074692,6.0297749
1782498724,node,Monument aux Morts,memorial,Besançon,,,,47.0616268,5.8511146
1799999361,node,Le panier fleur y,restaurant,Besançon,,,https://www.lepanierfleury.info,47.2338121,6.0073661
1801832905,node,Steak House,restaurant,Besançon,,,,47.2297731,5.9914377
1814823894,node,Le Delta du Doubs,artwork,Besançon,,,,47.2305546,6.0287709
1814823899,node,Le Delta du Doubs,artwork,Besançon,,,,47.2330412,6.0351041
1814840650,node,Monument au Comte de Chardonnet,memorial,Besançon,,,,47.2423709,6.0291217
1831692502,node,L’horlogerie,restaurant,Besançon,,,https://www.champvanslesmoulins.fr/commerces/10472,47.2572258,5.9204251
1841394095,node,,restaurant,Besançon,,,,47.2597169,6.0722074
1846853863,node,La Vieille Auberge,hotel,Besançon,,,,47.3399845,5.9380693
1870274837,node,Station Pizza,restaurant,Besançon,,,,47.2346886,6.0123247
1872204451,node,Auberge des Moulins,restaurant,Besançon,,,https://www.auberge-des-moulins.fr/restaurant-hotel-restaurant-pont-les-moulins-beaume-les-dames,47.3236418,6.3612998
1923650553,node,Monument aux Morts,memorial,Besançon,,,,47.0559933,5.992665
1924218602,node,,viewpoint,Besançon,,,,47.0737462,6.0340099
1925608976,node,,memorial,Besançon,,,,47.3174087,6.4284146
1927913621,node,,memorial,Besançon,,,,47.1409828,5.9570909
1930561150,node,,memorial,Besançon,,,,47.1270023,5.9552794
1932672579,node,Château de la Roche,castle,Besançon,,,,47.4010007,6.1916947
1932675453,node,Le Chat Botté,restaurant,Besançon,,,,47.3895371,6.1828051
2076932602,node,,monument,Besançon,,,,47.2742052,6.3846556
2094978282,node,Les Gamins,restaurant,Besançon,"10 Rue Pasteur, 25000, Besançon",25000,https://les-gamins-besancon.com/fr/,47.2380746,6.0218576
2104737245,node,,memorial,Besançon,,,,47.2253672,6.1172384
2194632470,node,Saut de Gamache,viewpoint,Besançon,,,,47.3435756,6.320074
2208331898,node,Monument Américain,monument,Besançon,,,,47.1977925,6.0565348
2211230715,node,,viewpoint,Besançon,,,,47.0249388,6.2889339
2284358685,node,Campanile Besançon,hotel,Besançon,,,,47.278028,5.9929562
2301735533,node,Le 52,restaurant,Besançon,"52 Rue Pierre Vernier, 25290, Ornans",25290,https://le52-ornans.fr,47.1052466,6.1485995
2314523101,node,Bistro Régent,restaurant,Besançon,"1 Avenue Louise Michel, 25000, Besançon",25000,https://besancon.bistro-regent.fr/,47.2353366,6.0151253
2413716969,node,Table des jardins,restaurant,Besançon,,,,47.0325511,5.7788036
2413716983,node,Pavillon de la Gabelle,hotel,Besançon,,,,47.0339027,5.7789222
2413717375,node,Bar Restaurant de la Saline Royale,restaurant,Besançon,35 Grande Rue,,https://bar-de-la-saline.edan.io/,47.0317069,5.7788406
2413746927,node,,viewpoint,Besançon,,,,46.9651087,6.0031413
2413746928,node,Le Vieux Château,ruins,Besançon,,,,46.9650061,6.0017466
2446646649,node,Chez Hugo,restaurant,Besançon,"17 Rue François-Louis Bersot, 25000, Besançon",25000,,47.2376131,6.0279265
2446646694,node,Le Record,restaurant,Besançon,"37 Rue François-Louis Bersot, 25000, Besançon",25000,,47.2380937,6.0285647
2447244644,node,La maison de verre,hotel,Besançon,,,,47.2377217,6.0282686
2453997559,node,,viewpoint,Besançon,,,,47.2285662,6.0727971
2468131394,node,Château de Montby,castle,Besançon,"Route d'Uzelle, 25340, Gondenans-Montby",25340,https://www.chateaudemontby.com/,47.4386269,6.4438515
2474019640,node,,memorial,Besançon,,,,47.2020736,5.9648155
2517341037,node,Vierge,monument,Besançon,,,,47.0382555,5.8334688
2555282786,node,Hôtel Victor Hugo & Spa,hotel,Besançon,,,,47.2471873,6.0235277
2589797366,node,,viewpoint,Besançon,,,,47.2847988,6.0836492
2589797367,node,Notre-Dame de la Libération,monument,Besançon,,,,47.2848071,6.0837016
2717120973,node,,memorial,Besançon,,,,47.1730031,5.9032223
2734301816,node,,memorial,Besançon,,,,47.2571911,5.9361945
2812774440,node,La Fontaine Argent,restaurant,Besançon,,,,47.2437772,6.0309159
2812869836,node,Le Pixel,restaurant,Besançon,12 Avenue Arthur Gaulard,,https://taqueriaquest.fr/,47.2363893,6.0337456
2812869839,node,Fonds régional d'art contemporain (FRAC),museum,Besançon,,,https://www.frac-franche-comte.fr/,47.2358809,6.0339579
2813659714,node,Jura Smokehouse,restaurant,Besançon,"10 Faubourg Rivotte, 25000, Besançon",25000,,47.2324894,6.0344979
2813659715,node,Otantic Rivotte,restaurant,Besançon,,,,47.2323182,6.0346373
2813659717,node,Le Manège,restaurant,Besançon,,,,47.233298,6.0339185
2813659720,node,Le Chalet du Cervin,restaurant,Besançon,"8 Faubourg de Rivotte, 25000, Besançon",25000,https://www.lechaletducervin.fr,47.2326205,6.0344067
2813659721,node,Les Bateliers,restaurant,Besançon,"12 Faubourg Rivotte, 25000, Besançon",25000,https://www.restaurant-bateliers-besancon.fr/,47.232391,6.0345783
2820701727,node,Mémorial à la 3e Division d'Infanterie Américaine,memorial,Besançon,,,,47.2276365,6.0243771
2833724115,node,Fort de Chaudanne,castle,Besançon,,,,47.2269625,6.023666
2836075042,node,La Rocca,restaurant,Besançon,"5 Place de l'Église, 25320, Torpes",25320,https://www.la-rocca.fr/,47.1698652,5.8919301
2872105385,node,Au Pays,restaurant,Besançon,,,,47.2359434,6.0234384
2872176224,node,Belvédère de Barmaud,viewpoint,Besançon,,,,47.1037139,6.1188402
2872176228,node,Notre-Dame du Mont,viewpoint,Besançon,,,,47.1077841,6.1513804
2878345918,node,restaurant auberge bar,restaurant,Besançon,,,,47.146568,5.8484643
2967932270,node,Monument aux Morts,memorial,Besançon,,,,47.0976362,5.8102304
2973827572,node,Vue du Moulin d'Avanne,viewpoint,Besançon,,,,47.2045239,5.977335
2982834103,node,Flunch,restaurant,Besançon,"Rue René Char, 25000, Besançon",25000,,47.2182579,5.9498502
2985625139,node,Basilic Instant,restaurant,Besançon,"93 Rue des Granges, 25000, Besançon",25000,https://basilic-instant.com/,47.2367425,6.0284401
2989425483,node,,monument,Besançon,,,,47.2425248,6.027327
3024345456,node,,memorial,Besançon,,,,47.1053825,6.1482145
3024379569,node,Hôtel de la Vallée,hotel,Besançon,"39 Avenue du Président Wilson, 25290, Ornans",25290,https://www.hotel-ornans.fr/fr,47.106703,6.142041
3046783334,node,Restaurant du Plateau,restaurant,Besançon,36,,,47.2446606,6.1828419
3060603287,node,Cercle mixte gendarmerie Besançon,restaurant,Besançon,,,,47.2537476,6.0056874
3074200548,node,Vue sur la Vallée de L'Ognon,viewpoint,Besançon,,,,47.3083164,6.0051716
3074780736,node,,viewpoint,Besançon,,,,47.2723031,6.0579895
3075423275,node,Belvédère de Chalezeule,viewpoint,Besançon,"Chemin des Buis, 25220, Chalezeule",25220,,47.2474359,6.0622208
3075590898,node,,viewpoint,Besançon,,,,47.2354225,6.0414411
3075590905,node,,viewpoint,Besançon,,,,47.2360723,6.0410052
3078079763,node,La Grange,restaurant,Besançon,,,https://www.lagrange-restaurant.fr/,47.2410651,6.0240827
3082856714,node,Éthic Étapes CIS Besançon,hotel,Besançon,,,,47.2502116,5.9993697
3082864542,node,,restaurant,Besançon,,,,47.2499097,5.999505
3113304336,node,Rocher de Valmy,viewpoint,Besançon,,,,47.1924041,5.9672904
3114663930,node,,memorial,Besançon,,,,47.1173759,6.0246744
3117028619,node,Le miroir de Scey,viewpoint,Besançon,,,,47.1020586,6.0781026
3126702931,node,Musée Lucien Roy,museum,Besançon,,,https://museelucienroy.e-monsite.com/,47.2070364,6.0048352
3126852594,node,,memorial,Besançon,,,,47.2065205,6.0013949
3135856138,node,,memorial,Besançon,,,,47.0126701,5.973847
3138875742,node,,ruins,Besançon,,,,47.2199669,6.0044895
3138875744,node,,ruins,Besançon,,,,47.2191709,6.0002791
3140330765,node,Auberge Marle,hotel,Besançon,,,http://www.auberge-marle.fr/,47.0262683,5.9434683
3140330766,node,Georges Colomb,memorial,Besançon,,,,47.0257354,5.9431853
3149718331,node,,memorial,Besançon,,,,47.1572796,5.9278189
3149812399,node,,memorial,Besançon,,,,47.1664221,5.9468364
3166524201,node,,memorial,Besançon,,,,47.0206927,6.1134645
3168267217,node,Les Chalets de la Doye,hotel,Besançon,,,,46.9728029,5.9977495
3172251266,node,Ristorante Del Arte,restaurant,Besançon,,,,47.2172259,5.9636123
3181135834,node,Forteresse d'Arguel,ruins,Besançon,,,,47.2002572,6.0014647
3206214121,node,Chez Bouba,restaurant,Besançon,"2 Place Marulaz, 25000, Besançon",25000,,47.2392388,6.0186127
3213303584,node,Grand Méandre de la Loue,viewpoint,Besançon,,,,47.1491219,5.9688046
3216605582,node,,memorial,Besançon,,,,46.9772278,5.999989
3217736912,node,,memorial,Besançon,,,,46.9567158,6.0112141
3217737404,node,,memorial,Besançon,,,,46.9676766,6.0413384
3226771752,node,Samuraï sushis,restaurant,Besançon,"2 Avenue Maréchal Foch, 25000, Besançon",25000,https://samouraisushis.fr/accueil/besancon/,47.246027,6.0228885
3261337941,node,,viewpoint,Besançon,,,,47.1048392,5.8618478
3298075157,node,,memorial,Besançon,,,,47.0775796,5.8534538
3316748266,node,,monument,Besançon,,,,47.258883,5.9315265
3379715193,node,Ristorante Del Arte,restaurant,Besançon,"Rue Météore, 25480, Miserey-Salines",25480,https://www.delarte.fr/restaurant-italien-pizzeria-besancon-miserey-salines.html,47.2830577,5.9899045
3414491118,node,Fort de Planoise,viewpoint,Besançon,,,,47.2085512,5.9837999
3421200633,node,Les Grands Ruins,viewpoint,Besançon,,,,47.0447307,5.9390337
3421200634,node,Les Chaux,viewpoint,Besançon,,,,47.0617064,5.9404048
3421200635,node,Belvédère de la Croix,viewpoint,Besançon,,,,47.0644727,5.9551539
3440439934,node,Belvédère,viewpoint,Besançon,,,,47.029497,5.9607973
3464900392,node,,memorial,Besançon,,,,47.2724843,5.878063
3465369663,node,Vierge,artwork,Besançon,,,,47.2714989,5.8730285
3476722184,node,,viewpoint,Besançon,,,,47.2626511,5.9379052
3505267957,node,La Grande Doline,attraction,Besançon,,,,47.1618177,6.0628299
3507047174,node,,viewpoint,Besançon,,,,47.2138291,5.9960171
3542006025,node,,viewpoint,Besançon,,,,47.1672232,5.9123093
3623532042,node,,viewpoint,Besançon,,,,47.1975543,5.9918574
3623534793,node,,viewpoint,Besançon,,,,47.1999725,6.001353
3677279935,node,Monument aux morts,memorial,Besançon,,,,47.45588,6.3555675
3710317507,node,Résidence Zenitude Les Hauts Du Chazal,hotel,Besançon,26 Rue du Professeur Paul Milleret,,https://www.zenitude-hotel-residences.com/residences/besancon-3-les-hauts-du-chazal/,47.2245709,5.9559943
3710758943,node,,viewpoint,Besançon,,,,47.202114,5.969447
3710868545,node,,viewpoint,Besançon,,,,47.209289,6.0093074
3710921862,node,,viewpoint,Besançon,,,,47.2267037,6.0340188
3761877084,node,,viewpoint,Besançon,,,,47.0191522,5.9935038
3885987386,node,Poudrière,ruins,Besançon,,,,47.287558,5.988122
3925532031,node,Statue de la Vierge et de Jésus,artwork,Besançon,,,,47.3213009,6.1256194
3944164600,node,,memorial,Besançon,,,,47.324423,6.1372928
3947949654,node,Château,castle,Besançon,,,,47.3359807,6.0506695
3995928849,node,,viewpoint,Besançon,,,,47.2284957,6.0366928
4019807223,node,Vauban et les villes fortifiées,artwork,Besançon,,,,47.2311974,6.0322095
4021543694,node,Rocher Colonne,viewpoint,Besançon,,,,47.1000745,6.0607924
4053107473,node,"Fusillé français agé de 20 ans, 1944",monument,Besançon,,,,47.3176948,6.1022087
4124577329,node,Vierge,memorial,Besançon,,,,47.2420163,6.1238568
4124586042,node,Le Vézois,restaurant,Besançon,,,,47.2101548,6.0668643
4126969847,node,,viewpoint,Besançon,,,,47.2015929,6.0024492
4136238863,node,,viewpoint,Besançon,,,,47.2140885,5.9959778
4156439561,node,,viewpoint,Besançon,,,,47.2620969,5.9385192
4185776493,node,,memorial,Besançon,,,,47.2450517,6.1228121
4187908063,node,Roche Blanche,viewpoint,Besançon,,,,47.293572,6.210668
4190087654,node,La Croix de Morre,ruins,Besançon,,,,47.2284668,6.0728363
4195127639,node,,viewpoint,Besançon,,,,47.3161518,6.2811042
4200284281,node,Solstice,restaurant,Besançon,,,,47.2381392,6.0287827
4200284284,node,Le Primate,restaurant,Besançon,"39 Rue François-Louis Bersot, 25000, Besançon",25000,,47.2381812,6.0286865
4201697328,node,Auberge du Bois de la Faye,restaurant,Besançon,,,,47.1476854,6.1772719
4209268170,node,,viewpoint,Besançon,,,,47.1525818,5.9359618
4209268171,node,,viewpoint,Besançon,,,,47.1564443,5.9398518
4215775084,node,,viewpoint,Besançon,,,,47.4733459,6.4199976
4215775952,node,,memorial,Besançon,,,,47.4905415,6.4271897
4231597700,node,L'Alsacien,restaurant,Besançon,"2 Quai Vauban, 25000, Besançon",25000,https://www.lalsacien.com/restaurant-alsacien-besancon/,47.2394548,6.0208885
4231604659,node,Le Bacchus,restaurant,Besançon,,,,47.2427572,6.0211904
4231604661,node,L'affineur comtois,restaurant,Besançon,,,https://www.l-affineur-comtois-restaurant-besancon.fr,47.2429223,6.0213693
4233829260,node,Al Sirocco,restaurant,Besançon,"1 Rue Chifflet, 25000, Besançon",25000,,47.2336005,6.0268037
4347684488,node,,memorial,Besançon,,,,47.2012036,6.0245138
4466891002,node,,memorial,Besançon,,,,47.1333926,6.1686138
4495153443,node,,viewpoint,Besançon,,,,47.2269406,6.0246767
4593964894,node,Lama loisir Mamirolle,zoo,Besançon,"Champ Paillot, 25620, Mamirolle",25620,https://www.lamaloisirmamirolle.fr/,47.198027,6.173065
4657656610,node,L'Etna 3,restaurant,Besançon,"1 Avenue Maréchal Foch, 25000, Besançon",25000,http://www.letna3.fr,47.247046,6.0232653
4702301992,node,Le P'tit Gourmet,restaurant,Besançon,"18 Rue François-Louis Bersot, 25000, Besançon",25000,https://www.lesmeilleursrestos.fr/restaurant-besancon/884-le-p-tit-gourmet-besancon.html,47.2375248,6.0279847
4715211534,node,Rocher du Moine,viewpoint,Besançon,,,,47.0727616,6.0810934
4715237169,node,Monument aux morts,memorial,Besançon,,,,47.0871918,6.0615749
4716376725,node,Restaurant Bistrot La Charrette,restaurant,Besançon,"11 Rue Jean Petit, 25000, Besançon",25000,,47.2411562,6.0231514
4716457792,node,La Cave au Resto,restaurant,Besançon,,,,47.2008208,5.9650583
4739653679,node,Chez Roméo et Patricia,restaurant,Besançon,"22 Grande Rue, 25330, Nans-sous-Sainte-Anne",25330,https://www.destinationlouelison.com/gastronomie/restaurants/restaurants/fiche/chez-marie.html,46.975881,5.996001
4784464464,node,Roche de Lahier,viewpoint,Besançon,,,,47.0999717,6.1715433
4784467852,node,Roche Bottine,viewpoint,Besançon,,,,47.1067215,6.1626727
4796834403,node,,viewpoint,Besançon,,,,47.2331277,6.0489016
4806164464,node,,viewpoint,Besançon,,,,47.2116366,6.0070648
4813804012,node,,artwork,Besançon,,,,47.3007692,5.9704813
4813804018,node,,artwork,Besançon,,,,47.3007154,5.9704591
4813809534,node,,memorial,Besançon,,,,47.3011397,5.9495714
4867004404,node,,castle,Besançon,,,,47.2328578,5.7822623
4924372370,node,,viewpoint,Besançon,,,,47.1350508,6.159868
4924372372,node,,viewpoint,Besançon,,,,47.1347653,6.1564346
4942249386,node,Ancien Prieuré,attraction,Besançon,,,,47.0398094,6.275729
4948812154,node,,memorial,Besançon,,,,47.1569338,6.1368029
4951769708,node,,artwork,Besançon,,,,47.2261688,6.1139766
4959496385,node,Belvédère,viewpoint,Besançon,,,,47.1123028,6.1423177
4959496410,node,La Table de Gustave,hotel,Besançon,"11 Rue Jacques Gervais, 25290, Ornans",25290,https://www.latabledegustave.fr,47.1034571,6.1514412
4959533607,node,,memorial,Besançon,,,,47.0651452,6.215263
4959533608,node,,memorial,Besançon,,,,47.0651059,6.2161736
4992966341,node,,viewpoint,Besançon,,,,47.0725001,6.2160305
5075881242,node,,artwork,Besançon,,,,47.1025769,6.1543323
5089209519,node,Les tables libanaises,restaurant,Besançon,,,,47.2409455,6.0184171
5096009214,node,Amphithéâtre romain,attraction,Besançon,,,,47.2392345,6.0153106
5169048281,node,,memorial,Besançon,,,,47.0008331,6.0720418
5186613059,node,Pizz' à Mary,restaurant,Besançon,,,,47.0380544,6.0704184
5212385550,node,Café Restaurant du Centre,restaurant,Besançon,,,,47.4800201,6.3541909
5242351462,node,,memorial,Besançon,,,,47.3441817,6.3583079
5316608150,node,,viewpoint,Besançon,,,,47.2484794,6.0871834
5316621024,node,,viewpoint,Besançon,,,,47.2216124,5.9961923
5337902616,node,L'unalôme,restaurant,Besançon,,,,47.2352179,6.0317802
5337902617,node,La cour des paillettes,restaurant,Besançon,,,https://www.instagram.com/lacourdespaillettes?igsh=MW9zd3Frem9tYjk5YQ==,47.2350726,6.03156
5371042170,node,,viewpoint,Besançon,,,,47.3046891,6.2031407
5422941922,node,Saï Thaï,restaurant,Besançon,"3 Rue Chifflet, 25000",25000,https://saithai.fr,47.2333776,6.0265171
5493365399,node,Statue de la Vierge,artwork,Besançon,,,,47.1126058,6.1079395
5593906798,node,Chez PeB,restaurant,Besançon,"34 Grande Rue, 25640, Marchaux",25640,https://www.chezpeb.fr/,47.3232082,6.1348872
5603151093,node,,memorial,Besançon,,,,47.0363489,5.788376
5638669981,node,,viewpoint,Besançon,,,,47.015709,5.985549
5638729579,node,,attraction,Besançon,,,,46.9693696,6.0099966
5641857724,node,canyon d’Amondans,attraction,Besançon,,,,47.069145,6.0207182
5642282999,node,La Bella Italia,restaurant,Besançon,,,https://restaurant-labellaitalia.fr/,47.2668528,6.0725091
5647780076,node,Monument aux morts,memorial,Besançon,,,,47.2328795,6.2996424
5679109454,node,,memorial,Besançon,,,,47.3647042,6.1217196
5794130912,node,,memorial,Besançon,,,,47.2598139,6.0726248
5812895501,node,Le cruzoé,restaurant,Besançon,,,,47.3227081,6.2775342
5833468815,node,Château de Chevroz,castle,Besançon,,,,47.3352682,5.9970841
5833468816,node,Château de Cordiron,castle,Besançon,,,,47.2659764,5.7995045
5838852285,node,Sel'rit,restaurant,Besançon,1 Rue de la Gare,,,47.0309277,5.7771615
5853833960,node,,memorial,Besançon,,,,47.1674969,6.1492622
5872902883,node,Ferme Auberge Saint-Ligier,restaurant,Besançon,,,https://chambre-doubs-saintligier.com/,47.3570559,6.3665054
5893310911,node,Akena Hôtels,hotel,Besançon,,,,47.2346062,5.9007257
5893349544,node,L'Escale Gourmande,restaurant,Besançon,,,https://www.lescalegourmande.org/,47.272376,5.8258875
6166485132,node,Belvedere des Platiéres,viewpoint,Besançon,,,,46.9757323,5.9846174
6178574092,node,Le Café Café,restaurant,Besançon,"36 Rue Claude Pouillet, 25000, Besançon",25000,https://www.le-cafe-cafe-restaurant-bensancon.fr/,47.2384369,6.0197012
6274760840,node,,memorial,Besançon,,,,47.2678991,6.0881471
6289517739,node,Le Vauban,restaurant,Besançon,,,,47.242539,6.0318547
6290769946,node,Chennai Mahal,restaurant,Besançon,,,,47.253198,6.0164533
6291410041,node,Theobald Chartran,memorial,Besançon,,,,47.2348014,6.0264812
6291410049,node,1802,restaurant,Besançon,,,https://www.restaurant-1802.fr/fr/,47.2348502,6.0261704
6291445664,node,My Little Italy,restaurant,Besançon,"33 Rue des Granges, 25000, Besançon",25000,https://www.mylittleitaly-pizzeria.fr,47.2385979,6.0253469
6291507051,node,,artwork,Besançon,,,,47.2363409,6.0299389
6291890757,node,,viewpoint,Besançon,,,,47.086798,6.0814017
6293162899,node,Le Chapelier,restaurant,Besançon,1 Rue Jean-Baptiste-Victor Proudhon,,https://lechapelierbesanco.wixsite.com/lechapelier,47.238067,6.0282628
6293245497,node,Arigato,restaurant,Besançon,,,,47.237758,6.0283171
6293245500,node,Au Bien Ficelé,restaurant,Besançon,,,,47.2377938,6.0283722
6293245502,node,La Cornemuse,restaurant,Besançon,"6 Rue François-Louis Bersot, 25000, Besançon",25000,https://www.lesmeilleursrestos.fr/restaurant-besancon/108-restaurant-la-cornemuse-besancon.html,47.2372889,6.0277554
6293245504,node,Vela Azzurra,restaurant,Besançon,"1- Rue François-Louis Bersot, 25000, Besançon",25000,https://www.restaurant-pizzeria-vela-azzurra-besancon.fr/,47.2375006,6.0279485
6293245507,node,Les Tables d'Antan,restaurant,Besançon,"18 Rue François-Louis Bersot, 25000, Besançon",25000,https://lestablesdantan.fr/,47.237562,6.0280535
6293245512,node,Gordon 25,restaurant,Besançon,,,,47.237751,6.0281214
6293531642,node,Lé Mô Doubs,restaurant,Besançon,,,,47.2402888,6.0280005
6293683013,node,Le 76... L'annexe,restaurant,Besançon,"76 Rue des Granges, 25000, Besançon",25000,https://www.le76besancon.fr/,47.237076,6.0274464
6293878849,node,Central Sushi,restaurant,Besançon,"35 Avenue Carnot, 25000",25000,,47.2452823,6.028371
6295258454,node,Hôtel Foch,hotel,Besançon,,,,47.2463121,6.0232874
6295258512,node,Chez Félix,restaurant,Besançon,,,https://www.chez-felix-restaurant-besanson.fr,47.2464832,6.0230836
6295777752,node,Chinatown,restaurant,Besançon,,,,47.2410753,6.0214496
6295778197,node,Le Safari,restaurant,Besançon,,,,47.2422262,6.0206707
6295778201,node,Chez Achour,restaurant,Besançon,,,https://restaurant-chez-achour.fr,47.242604,6.0208675
6295778218,node,Latelier de francisco,restaurant,Besançon,,,https://www.latelierdefrancisco.fr,47.2428143,6.0210043
6296096285,node,,artwork,Besançon,,,,47.235564,6.0339044
6296096393,node,La Clocherade,restaurant,Besançon,,,,47.2322148,6.0347651
6296221501,node,Les Délices du Cèdre,restaurant,Besançon,,,,47.2368507,6.0282343
6296221506,node,Au Petit Polonais,restaurant,Besançon,"81 Rue des Granges, 25000, Besançon",25000,https://le-petit-polonais.eatbu.com/?lang=fr,47.2370309,6.0279151
6296462248,node,Callahan,restaurant,Besançon,,,,47.2133123,5.9496822
6296462255,node,La Pataterie,restaurant,Besançon,,,,47.2137915,5.9506263
6297306785,node,Little Italy,restaurant,Besançon,,,,47.2381241,6.0281596
6297308286,node,Dar les bains,restaurant,Besançon,,,,47.2382989,6.0282587
6317178557,node,Chez Yoshinoya,restaurant,Besançon,,,https://www.chezyoshinoya.fr/,47.2849274,5.9915635
6327722596,node,,viewpoint,Besançon,,,,47.1239946,6.0811835
6347049752,node,Vierge,artwork,Besançon,,,,47.4793074,6.4367764
6354947258,node,,memorial,Besançon,,,,47.2293166,6.0352003
6354947598,node,Le Grand Couvert,restaurant,Besançon,,,,47.2292164,6.0340899
6354947603,node,Musée de la Résistance et de la Déportation,museum,Besançon,,,https://www.citadelle.com/a-voir-a-faire/musee-de-la-resistance-et-de-la-deportation/,47.2290324,6.0349109
6354947640,node,,memorial,Besançon,,,,47.2333161,6.0327676
6354947648,node,,artwork,Besançon,,,,47.2294368,6.0348597
6354947697,node,,viewpoint,Besançon,,,,47.2269821,6.0341602
6354947814,node,Espace Vauban,museum,Besançon,,,https://www.citadelle.com/,47.2294514,6.0344869
6355402785,node,Buffet Chalèze,restaurant,Besançon,"ZAC Chalezeule, 25220, Chalezeule",25220,,47.2612234,6.0603878
6358023425,node,Monument aux Morts SNCF de la gare Viotte,memorial,Besançon,,,,47.2473401,6.0227881
6364920290,node,Belvédère du moulin sapin,viewpoint,Besançon,,,,47.0650451,5.9939185
6364920298,node,Belvédère de la piquette,viewpoint,Besançon,,,,47.0669887,5.9960428
6408851586,node,Courtepaille,restaurant,Besançon,,,,47.2839638,5.9893118
6408851666,node,La Boucherie,restaurant,Besançon,,,,47.2831433,5.9893601
6422737160,node,Mijoto,restaurant,Besançon,2 Rue Voirin,,,47.2425225,6.0135872
6423766450,node,,artwork,Besançon,,,,47.2436382,6.0219735
6423766459,node,Saint-Pierre,restaurant,Besançon,,,https://www.restaurant-saintpierre.com,47.2434596,6.0220703
6425272430,node,,artwork,Besançon,,,,47.2491289,6.0027136
6426488186,node,,artwork,Besançon,,,,47.2481583,6.0163482
6427644941,node,"eat me, I'm famous",restaurant,Besançon,"18 Rue Ambroise Paré, 25000, Besançon",25000,https://eatmeimfamous.eatbu.com/,47.2237297,5.9564756
6438303175,node,ETVET,restaurant,Besançon,2 Route de Franois,,https://etvet-resto.fr,47.2208434,5.9553363
6440604815,node,Tartes et Tralala,restaurant,Besançon,,,,47.2130854,5.9622877
6442450064,node,,memorial,Besançon,,,,47.4972161,6.3352317
6444870278,node,Vierge,artwork,Besançon,,,,47.0404618,6.2656964
6448041317,node,La table de Cyrille,restaurant,Besançon,,,,47.2416299,6.020106
6448133330,node,,artwork,Besançon,,,,47.2413226,6.0262289
6448133349,node,Vedettes de Besançon Le Battant,attraction,Besançon,,,,47.241144,6.0287985
6448133351,node,Bateau de Besançon Le Vauban,attraction,Besançon,,,,47.2415264,6.0277639
6448133361,node,,artwork,Besançon,,,,47.2410761,6.0273872
6451474800,node,,memorial,Besançon,,,,47.2329257,6.0257365
6451474809,node,Le Cercle,restaurant,Besançon,,,https://www.restaurant-lecercle.net,47.2345426,6.0258772
6451474831,node,Le Saint-Nicola,restaurant,Besançon,,,https://www.il-san-nicola-restaurant-besancon.com,47.2336897,6.0269479
6452662430,node,Vierge,artwork,Besançon,,,,47.2645436,6.2102924
6461394066,node,Le vivier d'argent,restaurant,Besançon,,,https://le-vivier-dargent.eatbu.com/,47.2675045,6.0734586
6467117710,node,Le Ch'ti Comtois,hotel,Besançon,,,,47.0954289,6.0106975
6475714648,node,,memorial,Besançon,,,,47.0358465,6.070874
6480204651,node,,ruins,Besançon,,,,47.0668202,6.2235006
6481374780,node,Bombay,restaurant,Besançon,"3 Rue d'Anvers, 25000, Besançon",25000,https://www.lesmeilleursrestos.fr/emporter-a-besancon/107-le-bombay-besancon.html,47.2381738,6.0230356
6481375092,node,Bon2,restaurant,Besançon,"18 Rue Pasteur, 25000, Besançon",25000,,47.2373351,6.0219736
6482171927,node,,hotel,Besançon,,,https://hotelsalineroyale.com/,47.0326304,5.7762075
6482171928,node,Hôtel de la saline royale,hotel,Besançon,,,,47.0322027,5.7780253
6482171929,node,Musée Ledoux,museum,Besançon,,,,47.032161,5.7774025
6485319096,node,Hummus,restaurant,Besançon,,,https://hummuscantine.my.canva.site/hummus,47.2390126,6.0205174
6487399015,node,Ferme-Auberge du Rondeau,restaurant,Besançon,,,https://ferme-rondeau.fr/restauration/,47.0898226,6.2705085
6488824709,node,Château Aux Combes,castle,Besançon,,,,47.1196334,5.8546154
6515255125,node,,viewpoint,Besançon,,,,47.1125283,6.1493102
6515267476,node,,viewpoint,Besançon,,,,47.1139375,6.1384794
6515274608,node,,viewpoint,Besançon,,,,47.1164491,6.1454585
6516545299,node,,memorial,Besançon,,,,47.0248577,6.292288
6516545300,node,,viewpoint,Besançon,,,,47.0247818,6.292457
6516545301,node,,viewpoint,Besançon,,,,47.0234397,6.2984249
6518867511,node,Belvedere du Grand Saut,viewpoint,Besançon,,,,47.0176432,6.2946188
6518867512,node,,viewpoint,Besançon,,,,47.0193658,6.2979931
6518867515,node,,memorial,Besançon,,,,47.0247928,6.2923765
6530348278,node,L'Épicerie du Canal,restaurant,Besançon,,,,47.198897,5.9615408
6532259722,node,Sen césar,restaurant,Besançon,,,,47.251149,6.0344648
6532298388,node,Sapori Di Sicilia,restaurant,Besançon,"21 Rue de Belfort, 25000, Besançon",25000,https://www.lesmeilleursrestos.fr/emporter-a-besancon/76-sapori-di-sicilia-besancon.html,47.2470403,6.0268091
6537181525,node,Au Doubs Repos,restaurant,Besançon,,,,47.1520721,5.9325126
6542211648,node,Grand Buffet,restaurant,Besançon,,,,47.2364574,5.9875248
6553629018,node,,artwork,Besançon,,,,47.260372,6.0451597
6562651723,node,,memorial,Besançon,,,,47.0103283,5.8523411
6563096170,node,Le Tisonnier,restaurant,Besançon,,,,47.2001042,5.873854
6598238389,node,,memorial,Besançon,,,,47.0002607,6.0723467
6631784400,node,Les Secrets du Heurtoir,attraction,Besançon,,,,47.2419935,6.0223117
6631839068,node,Galerie de l'Ancienne Poste,gallery,Besançon,,,https://www.grandbesancon.fr/wp-content/uploads/sites/2/2020/01/Presentation-2021-salles-en-location-Service-Vie-associative-maj-15.09.2020.pdf,47.2357718,6.0271822
6631942240,node,,viewpoint,Besançon,,,,47.1543109,5.8956086
6634317220,node,Trattoria L'Angelo,restaurant,Besançon,"1B Esplanade du Breuil, 25110, Baume-les-Dames",25110,https://www.trattoria-angelo.fr/,47.3509954,6.3594015
6634317223,node,Chez Laurette,restaurant,Besançon,"17 Rue des Lombards, 25110, Baume-les-Dames",25110,https://www.facebook.com/restaurantchezlalaurette,47.3521923,6.3601994
6660431035,node,,viewpoint,Besançon,,,,47.2404299,6.0363303
6664984085,node,La Pergola,restaurant,Besançon,,,,47.294022,6.20111
6666597963,node,Le relais de la Diligence,restaurant,Besançon,,,,47.1837673,5.9632139
6677255565,node,,memorial,Besançon,,,,47.2854403,6.1327205
6677280109,node,,artwork,Besançon,,,,47.2856616,6.134538
6685053103,node,,memorial,Besançon,,,,47.1159448,6.0238926
6700039452,node,,memorial,Besançon,,,,47.3333656,6.0495482
6700639418,node,,artwork,Besançon,,,,47.2577579,6.0367645
6703795092,node,Casinne,restaurant,Besançon,132 Grande Rue,,https://www.casinne-restaurant.fr/,47.2348905,6.0289704
6708072264,node,,memorial,Besançon,,,,47.1844021,5.9901445
6708072325,node,Champ Fleuri,hotel,Besançon,,,,47.1846482,5.9895462
6712888602,node,Vierge,artwork,Besançon,,,,47.179026,5.9934722
6738192072,node,Monument aux Aviateurs,memorial,Besançon,,,,47.0965915,5.8514619
6739571377,node,Hong Kong,restaurant,Besançon,"6 Quai Vauban, 25000, Besançon",25000,,47.2393627,6.0206906
6739571380,node,Le Vésontio,restaurant,Besançon,,,,47.2398513,6.0215096
6744391277,node,,memorial,Besançon,,,,47.0947872,6.2351165
6778185179,node,F-GGHO,artwork,Besançon,,,,47.271574,6.0844604
6797165292,node,,memorial,Besançon,,,,47.2463751,5.8180403
6801722273,node,,memorial,Besançon,,,,47.2084336,5.8431875
6802056837,node,,memorial,Besançon,,,,47.1805609,5.8039669
6805022304,node,,memorial,Besançon,,,,47.3370797,5.9395418
6814329317,node,La Boucherie,restaurant,Besançon,,,,47.23476,5.9000891
6828927666,node,Namo Toyodoo,restaurant,Besançon,"16 Rue de Pontarlier, 25000, Besançon",25000,https://www.toyodoo.fr,47.2356944,6.0310022
6841997766,node,Fente de Babre,viewpoint,Besançon,,,,47.3449559,6.3795067
6855717131,node,Chez Gianni,restaurant,Besançon,"2 Rue Louis Jouffroy, 25770, Franois",25770,https://www.facebook.com/cusenier25/?locale=fr_FR,47.2302295,5.9396995
6861545474,node,,viewpoint,Besançon,,,,47.1348511,6.1560264
6873426465,node,,restaurant,Besançon,,,,47.2324875,5.9397842
6907150767,node,Belvédère Rocher du Moine,viewpoint,Besançon,,,,47.073105,6.079908
6907150779,node,,viewpoint,Besançon,,,,47.0676774,6.0894218
6951981430,node,Musée du Tacot,museum,Besançon,"7 Rue du Château, 25330, Cléron",25330,https://www.valdoise.fr/608-le-musee-archeologique-departemental-du-val-d-oise.htm,47.0871803,6.0578384
6952143178,node,,viewpoint,Besançon,,,,47.0939261,6.0933732
6965886461,node,La Boîte à crêpes,restaurant,Besançon,"6 Rue Ronchaux, 25000, Besançon",25000,https://www.boiteacrepe.com,47.2347383,6.0280809
7039393496,node,L'Ecrin Bistronomique,restaurant,Besançon,,,,47.2303355,5.9938479
7074295602,node,La Coudée,restaurant,Besançon,,,,47.2398136,6.0214561
7075445955,node,Chez Diego,restaurant,Besançon,"13 Rue des Boucheries, 25000, Besançon",25000,https://chez-diego.eatbu.com/,47.2398782,6.0215455
7116879027,node,La Petite Adresse,restaurant,Besançon,"28 Rue Claude Pouillet, 25000, Besançon",25000,,47.2388277,6.0201165
7119056002,node,Fée Maison,restaurant,Besançon,,,,47.2415031,6.0205467
7164364438,node,Le 76,restaurant,Besançon,"76 Rue des Granges, 25000, Besançon",25000,https://www.le76besancon.fr/,47.2370567,6.0275703
7164364440,node,L'Alchimie,restaurant,Besançon,"1 Rue François-Louis Bersot, 25000, Besançon",25000,https://www.restaurantlalchimie.com/,47.2372655,6.0275725
7191352974,node,Le Petit Atelier,restaurant,Besançon,,,,47.2376081,6.028121
7191352977,node,Chez Loulou La Bodega,restaurant,Besançon,,,,47.237458,6.0279198
7191740398,node,La Plancha,restaurant,Besançon,"10 Rue Gustave Courbet, 25000, Besançon",25000,https://www.la-plancha-restaurant.fr/,47.2403276,6.024256
7191740402,node,L'Antr'Act,restaurant,Besançon,"10 Rue Gustave Courbet, 25000, Besançon",25000,https://lantract.fr/,47.2402762,6.0241573
7191793318,node,Les 4 Saisons,restaurant,Besançon,"22 Rue Mégevand, 25000, Besançon",25000,https://restaurant-les-4-saisons-besancon.eatbu.com/,47.2352776,6.0243077
7191793324,node,,artwork,Besançon,,,,47.2362523,6.025673
7193105899,node,Sole mio,restaurant,Besançon,,,,47.2376926,6.0280353
7193771536,node,L'Ô à la Bouche,restaurant,Besançon,"9 Rue du Lycée, 25000, Besançon",25000,https://lo-restaurant.fr/,47.2379372,6.0205998
7220672648,node,Temis Yuki,restaurant,Besançon,,,,47.2520544,5.9996647
7272378526,node,Osteria Enoteca,restaurant,Besançon,,,,47.2362385,6.0294374
7272378532,node,Raj Mahal,restaurant,Besançon,,,,47.2359137,6.0303563
7272378537,node,Les 2 Portes,gallery,Besançon,,,,47.2356446,6.0312606
7272378539,node,Le Bistrot,restaurant,Besançon,16 Rue de Pontarlier,,https://lebistrot-rivotte.eatbu.com,47.2356306,6.0310795
7272378546,node,Le Maharajah,restaurant,Besançon,,,https://www.restaurantindien-besancon.fr/,47.2350538,6.0320498
7280370812,node,,memorial,Besançon,,,,47.120469,6.0812001
7281837512,node,,artwork,Besançon,,,,47.2312643,6.0392959
7312451590,node,L'Oriental,restaurant,Besançon,,,,47.1055996,6.1461903
7312451591,node,Le Chavot,restaurant,Besançon,"24 Rue Pierre Vernier, 25290, Ornans",25290,https://lechavot.fr,47.1060394,6.146936
7312451592,node,Le P'tit Comtois,restaurant,Besançon,"7 Avenue du Général de Gaulle, 25290, Ornans",25290,https://le-p-tit-comtois-restaurant-ornans.eatbu.com,47.1068096,6.1405431
7345774098,node,Musée Comtois,museum,Besançon,,,http://www.citadelle.com/fr/le-musee-comtois.html,47.2298091,6.034391
7363224278,node,,memorial,Besançon,,,,47.2425909,6.030005
7446764946,node,,viewpoint,Besançon,,,,47.2352104,6.0359235
7515907742,node,,artwork,Besançon,,,,47.2488143,6.0155598
7549339994,node,Jack's,restaurant,Besançon,"12 Rue Richebourg, 25000, Besançon",25000,https://www.jacks-restaurant-besancon.fr,47.2415666,6.0171335
7623059592,node,Mont d'Ornans,viewpoint,Besançon,,,,47.0955939,6.1307682
7638771011,node,,viewpoint,Besançon,,,,47.0930918,6.0938109
7638781517,node,,viewpoint,Besançon,,,,47.0954031,6.0846879
7640090485,node,,viewpoint,Besançon,,,,47.2326116,6.0408266
7791354164,node,La truite,artwork,Besançon,,,,47.1093554,6.1258432
7813164388,node,,viewpoint,Besançon,,,,47.3406582,6.3423424
7825677166,node,Magasin à poudre,zoo,Besançon,,,,47.2289788,6.0357401
7825677167,node,,zoo,Besançon,,,,47.2285603,6.0343809
7834260186,node,,castle,Besançon,,,,47.2051558,6.0097271
7834297585,node,,viewpoint,Besançon,,,,47.2310691,6.0295872
7834297786,node,,viewpoint,Besançon,,,,47.2320778,6.0318278
7834297885,node,,viewpoint,Besançon,,,,47.2317066,6.0323381
7834297886,node,,viewpoint,Besançon,,,,47.2195539,6.0514408
7834297985,node,,viewpoint,Besançon,,,,47.2320176,6.0315409
7840138485,node,,artwork,Besançon,,,,47.3509376,6.1815183
7844047446,node,Bellagio,restaurant,Besançon,,,https://www.restaurantbellagio.fr/,47.2248663,5.9687089
7844717679,node,Les Repaires,restaurant,Besançon,,,https://www.les-repaires.fr/,46.9778783,6.0000149
7845420408,node,,memorial,Besançon,,,,47.0815409,6.1903283
7864719070,node,L'annexe,restaurant,Besançon,,,https://restaurantannexe.fr/,47.2368596,6.0233778
7927350183,node,,castle,Besançon,,,,47.2888475,5.8018805
7939332792,node,,viewpoint,Besançon,,,,47.114036,6.1225149
7947692363,node,Didier Ballet,restaurant,Besançon,,,https://restaurant-didierballet.fr/,47.2104517,6.1026194
7972866919,node,La Boucle,restaurant,Besançon,,,,47.2408713,6.0237439
7978905359,node,Le Chatelard,ruins,Besançon,,,,47.2547232,5.8497155
7997762934,node,,memorial,Besançon,,,,47.1874641,5.9730739
8021854604,node,Ruine ancienne gypserie,ruins,Besançon,,,,47.1503258,5.9243694
8062110359,node,,memorial,Besançon,,,,47.0351839,6.1266412
8062110381,node,,memorial,Besançon,,,,47.0358672,6.1248295
8077225258,node,Le Petit Moncey,restaurant,Besançon,,,,47.3635797,6.1209855
8183064652,node,Kosy'Bar,restaurant,Besançon,,,,47.1062748,6.1468394
8233660847,node,Les Tables d'Uzel,restaurant,Besançon,,,,47.2281881,5.9687104
8238717840,node,Musée du costume et des traditions comtoises,museum,Besançon,"7 Rue Édouard Bastide, 25290, Ornans",25290,,47.1028937,6.1541346
8247482061,node,Un enterrement à Ornans,artwork,Besançon,,,,47.1039386,6.146283
8283976690,node,,viewpoint,Besançon,,,,47.1875623,5.9668382
8283979396,node,Monument de Valmy,memorial,Besançon,,,,47.1924114,5.9673376
8294282512,node,,memorial,Besançon,,,,47.2935079,6.2018909
8312365966,node,,ruins,Besançon,,,,47.3582063,6.3456998
8315070091,node,,artwork,Besançon,,,,47.2287315,6.0416061
8315070092,node,,artwork,Besançon,,,,47.2284693,6.0427326
8334256788,node,Statue de la Diversité,artwork,Besançon,,,,47.2198434,5.965314
8379827996,node,Brasserie Super-U,restaurant,Besançon,,,,47.3459906,6.3599599
8400927537,node,,memorial,Besançon,,,,47.2399996,5.926712
8418489528,node,L'Antique aux Bossages,artwork,Besançon,,,,47.0305754,5.769404
8420920129,node,Vierge,artwork,Besançon,,,,47.2758434,5.8800779
8432162799,node,Château de Noironte,castle,Besançon,,,,47.2730135,5.8753467
8473763305,node,,ruins,Besançon,,,,46.9775268,6.0034442
8545259683,node,Le Clemenceau,restaurant,Besançon,,,https://le-clemenceau.com,47.237391,6.0058793
8549850431,node,Rechandet,viewpoint,Besançon,,,,47.3085796,6.2652111
8550776230,node,,artwork,Besançon,,,,46.9787759,5.9991285
8556711438,node,Cocotte Margotte,restaurant,Besançon,,,,47.2363359,6.0230616
8585403696,node,,viewpoint,Besançon,,,,47.1156589,6.1073233
8591328844,node,,memorial,Besançon,,,,47.0804687,5.9337585
8591400206,node,,memorial,Besançon,,,,47.0605267,5.9012831
8591418876,node,,memorial,Besançon,,,,47.0321441,6.2295982
8591419762,node,,memorial,Besançon,,,,47.0833742,5.963183
8591424585,node,,memorial,Besançon,,,,47.0960267,6.0086251
8591430732,node,,memorial,Besançon,,,,47.0390224,5.8230888
8591431116,node,,memorial,Besançon,,,,47.2094965,6.0672245
8591436430,node,,memorial,Besançon,,,,47.2120358,6.2358709
8614355108,node,,viewpoint,Besançon,,,,47.2646222,6.1031923
8664747999,node,,viewpoint,Besançon,,,,46.9638937,6.001848
8690396118,node,Taj Mahal,restaurant,Besançon,,,,47.2391602,6.02072
8712465831,node,Monument commémoratif des déportés,memorial,Besançon,,,,47.2479741,6.0362376
8721027910,node,Vierge Marie,artwork,Besançon,,,,47.2753375,5.9249792
8750692210,node,Louis Pergaud,artwork,Besançon,,,,47.2412059,6.031568
8750692211,node,,artwork,Besançon,,,,47.2418253,6.0303817
8753503759,node,Roche trouée,attraction,Besançon,,,,47.1967011,5.970763
8753503760,node,,viewpoint,Besançon,,,,47.1965966,5.9703706
8756532851,node,Point de vue Martelin,viewpoint,Besançon,,,,47.1967478,5.9707971
8756532855,node,,viewpoint,Besançon,,,,47.1964239,5.9699408
8757891765,node,,artwork,Besançon,,,,47.2389751,5.9955646
8757891807,node,A Casa,restaurant,Besançon,,,https://www.au-bon-accueil-25.com/,47.2360853,5.9861708
8758158509,node,,artwork,Besançon,,,,47.2469476,6.0011543
8769184317,node,,artwork,Besançon,,,,47.2514438,5.9912054
8775652801,node,,artwork,Besançon,,,,47.2468269,6.0279739
8780935065,node,,viewpoint,Besançon,,,,47.2055644,6.0106696
8856121497,node,La Table du Prof,restaurant,Besançon,,,,47.2410054,6.0179594
8916941400,node,Arts/Galerie,gallery,Besançon,,,,47.2400557,6.0237962
8919912278,node,,artwork,Besançon,,,,47.2453688,6.0214422
8919912279,node,,artwork,Besançon,,,,47.2453163,6.0214523
8919912280,node,,artwork,Besançon,,,,47.2453917,6.0214943
8919912281,node,L'Homme et l'Enfant,artwork,Besançon,,,,47.2454465,6.0220431
8933030257,node,Belvédère de Barmaud,viewpoint,Besançon,,,,47.1062707,6.1090848
8939875799,node,Le Bistrot des Auxons,restaurant,Besançon,,,,47.3043395,5.946506
8972552109,node,,viewpoint,Besançon,,,,47.2943811,6.1940538
8987423577,node,Royal Chalezeule,restaurant,Besançon,,,https://www.royalchalezeule.fr/,47.2641402,6.0589388
8987423579,node,Sushi Yuga,restaurant,Besançon,,,,47.2637639,6.056317
8989740599,node,,artwork,Besançon,,,,47.2321476,6.0197271
9008145711,node,,viewpoint,Besançon,,,,47.0879761,6.0583469
9008204900,node,,viewpoint,Besançon,,,,47.089073,6.0545778
9038055169,node,,viewpoint,Besançon,,,,47.2917176,6.2320025
9038127513,node,,viewpoint,Besançon,,,,47.2915941,6.2304441
9062230929,node,Belvédère de Norvaux,viewpoint,Besançon,,,,47.0484846,6.0870991
9066633512,node,Le Champvans,restaurant,Besançon,,,https://fr-fr.facebook.com/pages/category/Restaurant/Le-Champvans-139210396791227/,47.3474469,6.3367469
9103683000,node,Senestrorsum,artwork,Besançon,,,,47.2401972,6.0227382
9138554680,node,,monument,Besançon,,,,47.3249887,6.1337688
9151028209,node,Maman la plus belle,artwork,Besançon,,,https://bien-urbain.fr/fr/maman-la-plus-belle/,47.2178493,5.9730759
9151068115,node,La Cochonde,artwork,Besançon,,,https://bien-urbain.fr/en/la-cochonde-2/,47.2426818,6.0314848
9207823695,node,Belvédère du temps,viewpoint,Besançon,,,,46.9994439,6.147954
9207839936,node,,viewpoint,Besançon,,,,46.9958359,6.1252717
9221433406,node,,viewpoint,Besançon,,,,47.0982684,6.1510139
9250955068,node,,viewpoint,Besançon,,,,47.2305808,6.0349929
9250955084,node,,viewpoint,Besançon,,,,47.2275875,6.0341707
9250955087,node,Hôtel Vauban,hotel,Besançon,,,https://www.hotel-vauban.fr,47.2398764,6.0213586
9250955090,node,,viewpoint,Besançon,,,,47.2287055,6.0364024
9250955110,node,,viewpoint,Besançon,,,,47.2298257,6.0332955
9265977466,node,,memorial,Besançon,,,,47.0457235,5.9487331
9266110851,node,,memorial,Besançon,,,,47.0601269,5.9564316
9272394818,node,Henriette de Crans,artwork,Besançon,,,,47.233753,6.0172995
9274150420,node,,viewpoint,Besançon,,,,47.1995936,6.0004722
9277304547,node,,memorial,Besançon,,,,47.0472191,6.0289028
9283168825,node,,memorial,Besançon,,,,47.0122085,6.1522263
9288580692,node,,ruins,Besançon,,,,47.2207046,6.0077766
9296290668,node,,memorial,Besançon,,,,47.0094803,6.0254497
9296290775,node,Jardin des Marnes,garden,Besançon,,,,47.0028785,6.0311353
9296476882,node,,memorial,Besançon,,,,47.0430238,6.1504584
9299785489,node,,artwork,Besançon,,,,47.0197547,6.1108292
9299785586,node,,artwork,Besançon,,,,47.0160395,6.1148627
9300356259,node,,artwork,Besançon,,,,47.0308874,6.2204527
9300509539,node,Vierge,artwork,Besançon,,,,47.030598,6.1362272
9300509631,node,,memorial,Besançon,,,,47.032404,6.1407859
9302425416,node,,artwork,Besançon,,,,47.0685547,6.0391771
9302556876,node,,memorial,Besançon,,,,47.0689881,6.0414835
9302556965,node,Vierge,artwork,Besançon,,,,47.0645549,6.0457963
9303585060,node,,memorial,Besançon,,,,47.0514895,6.0631418
9458191736,node,,memorial,Besançon,,,,47.1673486,5.8503759
9486636348,node,Monument aux morts,memorial,Besançon,,,,47.3045298,6.0264747
9490193075,node,,viewpoint,Besançon,,,,47.313623,6.0359136
9490403565,node,L'Escale Gourmande,restaurant,Besançon,"44 Grande Rue, 25170, Recologne",25170,https://www.lescalegourmande.org/,47.2729584,5.8299461
9500748960,node,,viewpoint,Besançon,,,,47.2215456,6.012005
9521251277,node,Les Roches de Nans,viewpoint,Besançon,,,,47.4747647,6.4198484
9528088871,node,Vierge,artwork,Besançon,,,,47.2382336,5.9261526
9528164274,node,,memorial,Besançon,,,,47.2815428,6.0751164
9528272803,node,,memorial,Besançon,,,,47.2984973,5.8356347
9528272807,node,,artwork,Besançon,,,,47.2987561,5.8373805
9528389346,node,,artwork,Besançon,,,,47.3274496,6.008785
9530594717,node,,memorial,Besançon,,,,47.2586109,6.0101208
9540397947,node,,viewpoint,Besançon,,,,47.1353949,6.1488187
9555979780,node,,artwork,Besançon,,,,47.311411,5.8879399
9610912179,node,,memorial,Besançon,,,,47.2350455,6.0799674
9610935689,node,,artwork,Besançon,,,,47.2302259,6.0337951
9611131075,node,,ruins,Besançon,,,,47.244473,6.0870839
9625979967,node,,memorial,Besançon,,,,47.1906687,5.9173011
9643155507,node,,memorial,Besançon,,,,47.2334841,5.9274424
9652787226,node,,memorial,Besançon,,,,47.2473281,6.0291793
9675075532,node,Belvédère de la Thuyère,viewpoint,Besançon,,,,47.0865515,6.1916931
9681051553,node,Moulin ?,ruins,Besançon,,,,47.0484618,6.1284613
9684117585,node,Sculpture en bois,artwork,Besançon,,,,47.1740175,5.8394184
9688404858,node,,ruins,Besançon,,,,47.173269,5.9057281
9737183757,node,Bento Express 25,restaurant,Besançon,,,,47.2495226,6.0231436
9766433051,node,,memorial,Besançon,,,,47.2621692,5.9652452
9766433078,node,,artwork,Besançon,,,,47.26177,5.9669548
9768827248,node,,memorial,Besançon,,,,47.2545931,5.9134537
9768858331,node,,memorial,Besançon,,,,47.2560582,5.9064944
9770266474,node,,memorial,Besançon,,,,47.1873619,5.9730849
9770275338,node,,memorial,Besançon,,,,47.1878977,5.9737119
9779595533,node,L'Olivier,restaurant,Besançon,,,,47.2406422,6.0186872
9812529293,node,,viewpoint,Besançon,,,,47.0404803,6.2656607
9821607522,node,,artwork,Besançon,,,,47.2177757,6.0418107
9823003117,node,Restopolis,restaurant,Besançon,,,,47.2250452,5.9806364
9881691883,node,,memorial,Besançon,,,,47.1870235,5.9493731
9883658130,node,,ruins,Besançon,,,,47.2274598,6.0195679
9883721109,node,,ruins,Besançon,,,,47.2262613,6.0238142
9896101395,node,,viewpoint,Besançon,,,,47.1086446,5.9576462
9907904200,node,Les Amis de Nemo,restaurant,Besançon,,,,46.9760276,5.9981422
9925324694,node,,viewpoint,Besançon,,,,47.0711937,6.0194401
9926296754,node,,memorial,Besançon,,,,47.2374463,6.0149081
9968130963,node,La Sequanaise,memorial,Besançon,,,,47.2336107,6.0220774
9968130980,node,,artwork,Besançon,,,,47.23457,6.0179168
9968130991,node,,artwork,Besançon,,,,47.2345425,6.0177281
9968130995,node,,artwork,Besançon,,,,47.2356735,6.0221527
9973081866,node,Les bords du lac,restaurant,Besançon,,,,47.1395594,5.8510136
10036644909,node,Casa Good Vibes,restaurant,Besançon,"12 Rue Richebourg, 25000, Besançon",25000,https://www.casagoodvibes.com/,47.2416577,6.0172447
10036677189,node,Épicéa,restaurant,Besançon,"11 Rue Claude Pouillet, 25000, Besançon",25000,https://www.restaurant-epicea.fr/,47.2391256,6.020667
10036683356,node,Les Fous d'en face,restaurant,Besançon,"14 Quai Vauban, 25000, Besançon",25000,,47.2391873,6.020592
10036763835,node,Bleu de sapin,restaurant,Besançon,"7 Rue Richebourg, 25000, Besançon",25000,,47.2416343,6.0174242
10064151378,node,,artwork,Besançon,,,,47.2395457,6.0264517
10111841058,node,Au plaisir de pêcher,restaurant,Besançon,"Chemin de Plaisirfontaine, 25620, Bonnevaux-le-Prieuré",25620,https://auplaisirdepeche13.webnode.fr/,47.1374571,6.1581351
10127836717,node,,viewpoint,Besançon,,,,47.1946764,5.9896735
10296556445,node,Fresh Pizza,restaurant,Besançon,,,,47.2415917,6.0206382
10563345930,node,,viewpoint,Besançon,,,,47.1735547,5.9397102
10565157983,node,Stèle Paul Sandoz,memorial,Besançon,,,,47.2726645,5.8771864
10570692509,node,,viewpoint,Besançon,,,,47.311395,6.1553933
10608035559,node,"1055 Restaurant, Micro-Brasserie",restaurant,Besançon,"Chemin des Marnières, Chalezeule",,https://www.1055.fr/besancon/restaurant/,47.2627152,6.0548872
10611337806,node,L'amarante,hotel,Besançon,,,https://hotelmania.net/hotel/besancon/hotel-amarante/,47.2190465,5.9751696
10693347193,node,,viewpoint,Besançon,,,,47.0982991,6.0237463
10695304272,node,,viewpoint,Besançon,,,,47.0705511,6.019803
10701712432,node,Le Saint Géran,restaurant,Besançon,,,,47.2522844,6.0248931
10708958331,node,,artwork,Besançon,,,,47.2273864,5.9388372
10722773640,node,Le visage humain fut toujours mon grand paysage,artwork,Besançon,,,,47.2466726,6.0224806
10727627536,node,,monument,Besançon,,,,47.2377262,6.0312925
10806748855,node,Les Terrasses,restaurant,Besançon,,,,47.2758184,6.1132368
10815267489,node,,artwork,Besançon,,,,47.2883823,5.97002
10819170156,node,Le 52,gallery,Besançon,"52 Rue Battant, 25000, Besançon",25000,https://culture-action.org,47.2420676,6.0207904
10828003870,node,,memorial,Besançon,,,,47.041452,5.9287239
10832046680,node,,memorial,Besançon,,,,47.2283437,6.1875474
10833600309,node,Loiseau du Temps,restaurant,Besançon,"27 Rue des Boucheries, 25000, Besançon",25000,https://www.bernard-loiseau.com/fr/loiseaudutemps.html,47.2404081,6.0222355
10899374210,node,,memorial,Besançon,,,,47.2986507,6.2337189
10906003752,node,,memorial,Besançon,,,,47.2362038,6.0289312
10906040229,node,,artwork,Besançon,,,,47.2338309,6.031227
10906040231,node,,memorial,Besançon,,,,47.2340071,6.0309933
10914155112,node,,artwork,Besançon,,,,47.1051303,6.1475399
10914155119,node,Ensemble pour l'Humanité,artwork,Besançon,,,,47.1058681,6.1459561
10968064098,node,Au P’tit Coin,restaurant,Besançon,"5bis Rue Luc Breton, 25000, Besançon",25000,,47.2392982,6.0225397
10976073825,node,,memorial,Besançon,,,,47.3247807,6.0157538
10979315707,node,Fontaine Argent,hotel,Besançon,,,,47.2458584,6.0334166
10980736873,node,,memorial,Besançon,,,,47.2860959,5.89754
11005886630,node,,memorial,Besançon,,,,47.3087158,6.0904117
11025976738,node,,memorial,Besançon,,,,47.2172797,5.7380932
11028481649,node,,memorial,Besançon,,,,47.1983688,5.7780432
11038122485,node,,memorial,Besançon,,,,47.0444633,5.8758972
11042997390,node,,memorial,Besançon,,,,47.088643,5.8773583
11043005906,node,,memorial,Besançon,,,,47.0581354,5.9001893
11043005914,node,,memorial,Besançon,,,,47.0529352,5.8975258
11050527459,node,,memorial,Besançon,,,,47.2072172,5.8634618
11050527478,node,,memorial,Besançon,,,,47.1631688,5.8268416
11050527483,node,,memorial,Besançon,,,,47.1427416,5.8553595
11050527499,node,,memorial,Besançon,,,,47.1284799,5.9032953
11050527500,node,,memorial,Besançon,,,,47.1064735,5.8932444
11050778643,node,,memorial,Besançon,,,,47.1510286,6.0687152
11050778658,node,,memorial,Besançon,,,,47.1448131,6.0865123
11050778660,node,,memorial,Besançon,,,,47.1245956,6.1973961
11050778664,node,,memorial,Besançon,,,,47.0813273,6.1896
11050778677,node,Belvédère de la Verdotte,viewpoint,Besançon,,,,47.0939607,6.1849339
11053860912,node,,memorial,Besançon,,,,47.2336928,5.7809517
11053860950,node,,memorial,Besançon,,,,47.2634919,5.747526
11055317991,node,,memorial,Besançon,,,,47.2442778,5.8727798
11055317992,node,,memorial,Besançon,,,,47.2448158,5.8727476
11055318002,node,,memorial,Besançon,,,,47.2610036,5.8720288
11055318026,node,,memorial,Besançon,,,,47.2728752,5.8274116
11055318072,node,,memorial,Besançon,,,,47.2658399,5.7984041
11061864108,node,,memorial,Besançon,,,,47.3336758,6.0018497
11062159058,node,,memorial,Besançon,,,,47.3570222,6.2270781
11062159063,node,,artwork,Besançon,,,,47.4097616,6.1911862
11062159117,node,,memorial,Besançon,,,,47.3871295,6.2264907
11062159119,node,,memorial,Besançon,,,,47.3815386,6.2739685
11062159181,node,,memorial,Besançon,,,,47.396805,6.2627911
11062159183,node,,memorial,Besançon,,,,47.4097857,6.268985
11062159188,node,,memorial,Besançon,,,,47.4267309,6.2661029
11062159190,node,,memorial,Besançon,,,,47.4185981,6.2437226
11062159292,node,,memorial,Besançon,,,,47.4187723,6.2239265
11063271206,node,,memorial,Besançon,,,,47.3986633,6.3565175
11063271259,node,,memorial,Besançon,,,,47.4314092,6.3697301
11064903324,node,Le fils du poissonier,restaurant,Besançon,45 Avenue Georges Clemenceau,,https://le-fils-du-poissonnier.eatbu.com/?lang=fr,47.2382829,6.0087177
11096523370,node,monument de la résistance 1939-1945,memorial,Besançon,,,,46.9999557,6.1511845
11096523371,node,Sapin Président,attraction,Besançon,,,,46.9858907,6.1092039
11103190358,node,Boucle d'Or,restaurant,Besançon,"6 Rue Rivotte, 25000, Besançon",25000,,47.2350862,6.0317298
11107721408,node,Piano,restaurant,Besançon,"5 Rue Gustave Courbet, 25000, Besançon",25000,https://pizzeriapiano.fr/,47.2404723,6.0242495
11124618306,node,,memorial,Besançon,,,,47.1283185,5.9031651
11142362255,node,,memorial,Besançon,,,,47.2608216,6.2910797
11142362257,node,,memorial,Besançon,,,,47.2652111,6.2782963
11144469260,node,,memorial,Besançon,,,,47.4255368,6.4308207
11144469262,node,Monument aux morts,memorial,Besançon,,,,47.4481284,6.4154309
11144469286,node,,memorial,Besançon,,,,47.4092615,6.3893907
11144476446,node,,memorial,Besançon,,,,47.3376358,6.2842509
11144476452,node,,memorial,Besançon,,,,47.3442476,6.3060135
11148736207,node,,memorial,Besançon,,,,47.3099936,5.8909705
11149814289,node,,memorial,Besançon,,,,47.2349441,6.0207799
11149887297,node,Les délices de Fafa,restaurant,Besançon,,,,47.2474277,6.0280634
11151390973,node,,artwork,Besançon,,,,47.2431424,6.018692
11170593896,node,,memorial,Besançon,,,,47.372781,6.1231171
11176776601,node,,artwork,Besançon,,,,47.1044829,6.1574369
11177707535,node,,memorial,Besançon,,,,47.1023089,6.1545111
11177707560,node,,memorial,Besançon,,,,47.1044687,6.1497202
11177707561,node,Gendarme Jacques Gervais,memorial,Besançon,,,,47.1047524,6.1492115
11177707599,node,,artwork,Besançon,,,,47.1066652,6.1373837
11177707655,node,Atelier de Gustave Courbet,museum,Besançon,,,https://musee-courbet.fr/informations-pratiques/atelier-courbet/,47.1067054,6.1394417
11177707705,node,,artwork,Besançon,,,,47.1048816,6.1461874
11177707718,node,,memorial,Besançon,,,,47.1054936,6.1444802
11177707719,node,Atelier de lithographie Daniel Donier,memorial,Besançon,,,,47.1055235,6.1453044
11177707767,node,,memorial,Besançon,,,,47.10663,6.1392026
11177707804,node,,memorial,Besançon,,,,47.105508,6.1467732
11177707822,node,Loue Verte,artwork,Besançon,,,,47.1053596,6.1456899
11193800788,node,Signorizza,restaurant,Besançon,"5 Avenue Maréchal Foch, 25000, Besançon",25000,https://pizzerias.signorizza.com/besancon/,47.2466769,6.0231141
11251951408,node,,memorial,Besançon,,,,47.2416502,6.0256953
11253823062,node,Belvédère Croix de Châtard,viewpoint,Besançon,,,,47.3393435,6.3676446
11266202977,node,,memorial,Besançon,,,,47.1965756,5.9071992
11266273364,node,,memorial,Besançon,,,,47.1190637,5.8567254
11286571686,node,Titi Pizz,restaurant,Besançon,,,,47.2089658,6.101414
11301586864,node,superflu,gallery,Besançon,"4 Place du Général de Gaulle, 25110, Baume-les-Dames",25110,,47.3524401,6.3610876
11352168696,node,,viewpoint,Besançon,,,,47.2346218,6.3084024
11365606622,node,Les vivants,restaurant,Besançon,,,,47.2354743,6.0254379
11457321873,node,Au Tour du Monde,restaurant,Besançon,,,,47.2564733,6.0115397
11511110941,node,Doubs Hotel,hotel,Besançon,,,,47.270508,5.9955113
11547202658,node,Restaurant d'Entreprise,restaurant,Besançon,,,,47.2186841,5.969989
11610165984,node,,artwork,Besançon,,,,47.2482754,6.0306737
11613367206,node,Hommage à Eugène Bullard,artwork,Besançon,,,,47.2207361,5.9737299
11681514064,node,,artwork,Besançon,,,,47.2254597,5.9554399
11698433183,node,,artwork,Besançon,,,,47.2248929,5.9729844
11698463459,node,,artwork,Besançon,,,,47.2240966,5.9711584
11705905069,node,Esplanade Jean Charbonnier,garden,Besançon,,,https://www.grandbesancon.fr/infos-pratiques/environnement/biodiversite/,47.2208601,5.9679165
11708884670,node,Stèle Albert Abel DAVID,memorial,Besançon,,,,47.2441433,6.0128372
11734928363,node,Les fours à chaux,attraction,Besançon,,,,47.2509385,6.0637292
11738961578,node,,memorial,Besançon,,,,47.386805,6.1170786
11742801276,node,,memorial,Besançon,,,,47.4812116,6.3543262
11760773024,node,Castan Relais,hotel,Besançon,4,,,47.2346835,6.0305471
11762178809,node,Ancien poids public,attraction,Besançon,,,,47.1183008,6.027402
11763546585,node,,artwork,Besançon,,,,47.2352599,6.0224321
11763581790,node,Soeur Anne Biget de Thoraise,memorial,Besançon,,,,47.2351978,6.021016
11763582438,node,Jadis,restaurant,Besançon,25000,25000,,47.2437932,6.0301908
11763933726,node,Wangari Muita Maathai,memorial,Besançon,,,,47.2362264,6.0298979
11812604500,node,Grill House,restaurant,Besançon,,,,47.2427753,6.0081996
11820145340,node,,memorial,Besançon,,,,47.1028979,6.154348
11820145341,node,,memorial,Besançon,,,,47.1029961,6.1543641
11919717805,node,,artwork,Besançon,,,,47.2500029,6.237303
11919717949,node,,memorial,Besançon,,,,47.2458578,6.2381171
11922313134,node,,artwork,Besançon,,,,47.3871978,6.222031
11925207491,node,,memorial,Besançon,,,,47.2673021,6.2141613
11925833038,node,,memorial,Besançon,,,,47.291005,6.2653525
11928278921,node,,memorial,Besançon,,,,47.4204369,6.2881551
11936533468,node,,memorial,Besançon,,,,47.2270486,5.8510456
11939133116,node,,memorial,Besançon,,,,47.327426,6.2048167
11939192769,node,,memorial,Besançon,,,,47.3171762,6.2341475
11939568242,node,,artwork,Besançon,,,,47.4255607,6.2681971
11947400432,node,,memorial,Besançon,,,,47.3490233,6.1087036
11955317963,node,,memorial,Besançon,,,,47.3366765,6.0774644
11955318058,node,,artwork,Besançon,,,,47.337023,6.0764442
11960224451,node,,memorial,Besançon,,,,47.3399781,6.1610961
11960224460,node,La Vieille Auberge,restaurant,Besançon,,,,47.340132,6.1612314
11962686954,node,,memorial,Besançon,,,,47.2747992,5.9180683
11966470705,node,,restaurant,Besançon,,,,47.3312915,5.9699581
11966470710,node,Château de la Dame Blanche,hotel,Besançon,,,,47.3315181,5.9698367
11973759074,node,,artwork,Besançon,,,,47.2484621,6.0328814
12035468360,node,McDilan,restaurant,Besançon,,,,47.1842535,5.8173376
12035469676,node,Le Café Gourmand,restaurant,Besançon,,,,47.1841827,5.8162317
12035469758,node,Le P'tit s'invite,restaurant,Besançon,,,https://restaurant-leptitstvit.fr,47.1821015,5.8124801
12035469768,node,Prélude,restaurant,Besançon,,,,47.1816824,5.8100589
12052025436,node,,memorial,Besançon,,,,47.3122806,5.8680708
12052825384,node,,memorial,Besançon,,,,47.1929438,5.875775
12053842143,node,,viewpoint,Besançon,,,,47.204258,6.0095254
12068762596,node,La Tablée Gourmande,restaurant,Besançon,,,https://www.hoteldefrance-ornans.com/le-restaurant/,47.1057766,6.1480482
12068762719,node,,artwork,Besançon,,,,47.3186541,6.227691
12068762762,node,La Symbiose,restaurant,Besançon,,,https://www.restaurant-la-symbiose.fr/,47.3155755,6.2314226
12072067916,node,,memorial,Besançon,,,,47.2827955,6.1534484
12077223435,node,Sushi Koi,restaurant,Besançon,"16 Rue Rivotte, 25000, Besançon",25000,,47.2348918,6.0320786
12087682828,node,Petit Bouloie,restaurant,Besançon,"45 Avenue de l'Observatoire, 25000, Besançon",25000,https://www.crous-bfc.fr/restaurant/resto-u-cafet-petit-bouloie/,47.2464664,5.9878948
12101508237,node,,viewpoint,Besançon,,,,47.1073324,6.1524442
12127566854,node,Dragon,artwork,Besançon,,,,47.1405493,5.8516115
12132311360,node,Hommage aux troupes Canadiennes,memorial,Besançon,,,,46.955536,6.0670995
12144694391,node,Musée de la Vigne et du Vin,museum,Besançon,,,www.museedelavigneetduvin-lods.fr,47.0450168,6.2475669
12155053094,node,,viewpoint,Besançon,,,,47.0699655,6.2311909
12155087026,node,,viewpoint,Besançon,,,,47.0748648,6.2193543
12155567671,node,,memorial,Besançon,,,,47.1833759,5.7926796
12155567695,node,,memorial,Besançon,,,,47.1787501,5.8139833
12183514889,node,Plaque mémorielle,memorial,Besançon,,,,47.1085722,5.9139426
12201349692,node,L'Y Gargotte,restaurant,Besançon,,,,47.2383866,6.0290781
12209136258,node,,artwork,Besançon,,,,47.229874,6.0407328
12209155659,node,,artwork,Besançon,,,,47.2311855,6.0395253
12249151852,node,,memorial,Besançon,,,,47.2395304,6.0207678
12251357964,node,,park,Besançon,,,,47.1401443,5.8509102
12292265195,node,,viewpoint,Besançon,,,,47.0879799,6.0539134
12319479427,node,,memorial,Besançon,,,,47.2386924,6.0219176
12344808618,node,L'Auberge du Pont du Diabble,hotel,Besançon,,,https://aubergedupontdudiable.com/,46.9568039,6.0108371
12396544523,node,Quille de Bowling,artwork,Besançon,,,,47.2638939,6.0533116
12469476703,node,,memorial,Besançon,,,,47.2755349,6.1149804
12488579637,node,,viewpoint,Besançon,,,,47.4729813,6.4192619
12498611225,node,,viewpoint,Besançon,,,,47.4728533,6.4181816
12516700639,node,Loue à la Bouche,restaurant,Besançon,,,https://louealabouche.fr/,47.0988205,6.0774176
12588064794,node,,memorial,Besançon,,,,47.339305,6.4326809
12588185879,node,,memorial,Besançon,,,,47.3423957,6.4094182
12588412297,node,Monument aux morts,memorial,Besançon,,,,47.3239969,6.4243838
12596571152,node,,memorial,Besançon,,,,47.2845359,5.9688304
12613392270,node,Caborde,ruins,Besançon,,,,47.2074647,5.98603
12651721054,node,B&B Hotel,hotel,Besançon,3 Chemin des Trois Croix,,https://www.hotel-bb.com/fr/hotel/besancon-valentin,47.2804684,5.9868379
12679709501,node,La Table Des Ateliers,restaurant,Besançon,,,https://aux-ateliers.com/,47.2810322,5.9879329
12734193783,node,,artwork,Besançon,,,,47.2397041,6.0228189
12828543024,node,,viewpoint,Besançon,,,,47.307812,6.2262975
12829986482,node,,viewpoint,Besançon,,,,47.3028393,6.2324436
12830049735,node,,ruins,Besançon,,,,47.3107788,6.2443252
12830227586,node,,artwork,Besançon,,,,47.2893464,6.2455077
12830227619,node,,artwork,Besançon,,,,47.2714162,6.2415045
12830227643,node,,memorial,Besançon,,,,47.2713475,6.2411462
12844898149,node,Vertige,restaurant,Besançon,,,,47.2264725,5.8942449
12851224545,node,,memorial,Besançon,,,,47.3045172,6.1504727
12857989581,node,Monument commémoratif F.F.I,memorial,Besançon,,,,47.1955174,5.9680416
12858855578,node,,memorial,Besançon,,,,47.1035502,5.8823338
12875709283,node,Point de vue du Moine,viewpoint,Besançon,,,,47.029927,6.2689813
13002194491,node,Resto Allo Tunis,restaurant,Besançon,,,https://restoallotunis.fr/,47.2338713,6.0075936
13004471832,node,,memorial,Besançon,,,,47.4422699,6.3748162
13046785023,node,rocher du tourbillon,viewpoint,Besançon,,,,47.135139,6.1596125
13046785024,node,,viewpoint,Besançon,,,,47.1369594,6.1359427
13123432635,node,,artwork,Besançon,,,,47.2556202,5.9257936
13124767194,node,Restaurant scolaire,restaurant,Besançon,,,,47.201829,5.9636484
13159931648,node,,memorial,Besançon,,,,47.1718417,6.2169334
13208723113,node,Belvédère de Montmahoux,viewpoint,Besançon,,,,46.979843,6.0293764
13332417244,node,,memorial,Besançon,,,,47.1590623,5.9009464
13332484753,node,,memorial,Besançon,,,,47.4796672,6.391521
13338696142,node,La table des halles,restaurant,Besançon,,,,47.2404665,6.0236333
13374079584,node,,artwork,Besançon,,,,47.3532304,6.3619209
13408760830,node,Viciana Balkan,restaurant,Besançon,,,,47.2016825,5.9645502
13542512568,node,,memorial,Besançon,,,,47.0261081,6.0227296
13593876747,node,,memorial,Besançon,,,,47.3228268,5.9683705
13596611970,node,,memorial,Besançon,,,,47.2969398,6.4487217
13608886655,node,,memorial,Besançon,,,,47.1339035,5.8743358
13608893487,node,,memorial,Besançon,,,,47.2246971,5.8903556
13608898070,node,,memorial,Besançon,,,,47.1191682,5.8812361
13608905721,node,,memorial,Besançon,,,,47.1156544,5.8577572
13608930126,node,,memorial,Besançon,,,,47.2715177,5.982249
13615554538,node,,memorial,Besançon,,,,47.0989922,6.0753695
13615583080,node,,memorial,Besançon,,,,47.121394,6.2416376
13615585907,node,,memorial,Besançon,,,,47.0453291,6.2442078
13615601206,node,,memorial,Besançon,,,,47.019144,6.1136292
13615602570,node,,memorial,Besançon,,,,47.0373777,6.073176
13615605814,node,,memorial,Besançon,,,,47.0991969,6.0753865
13623696248,node,,memorial,Besançon,,,,47.0130087,5.8890519
13623717605,node,,memorial,Besançon,,,,47.0260947,5.9425976
13623733165,node,,memorial,Besançon,,,,47.2012779,5.9625856
13623733176,node,,memorial,Besançon,,,,47.3012886,5.9659549
13623765803,node,,memorial,Besançon,,,,47.324897,5.9045749
13623767734,node,,memorial,Besançon,,,,47.3330855,6.062301
13623779385,node,,memorial,Besançon,,,,47.3062855,6.0078622
13654841866,node,Le Set,restaurant,Besançon,,,,47.2425808,6.0040012
13673568276,node,,memorial,Besançon,,,,47.3558918,6.362285
13673572883,node,,memorial,Besançon,,,,47.1559472,6.1149006
13673575169,node,,memorial,Besançon,,,,47.3827734,6.3481254
13673576456,node,,memorial,Besançon,,,,47.4148247,6.3266731
13673589002,node,,memorial,Besançon,,,,47.3558686,6.3625511
13673591088,node,,memorial,Besançon,,,,47.2895158,6.3561363
13673593214,node,,memorial,Besançon,,,,47.3874826,6.174401
13706749228,node,Monument aux morts du cimetière israélite,memorial,Besançon,,,,47.2559317,6.0487265
13707544380,node,Monument commémoratif 1870-1871,memorial,Besançon,,,,47.2479463,6.0398993
13707561512,node,Monument commémoratif 1914-1918,memorial,Besançon,,,,47.2622644,6.0181665
13708109441,node,,memorial,Besançon,,,,47.3723241,6.4297852
13708128594,node,,memorial,Besançon,,,,47.3072728,6.4632442
13708163184,node,Plaque Bersot et Cottet-Dumoulin,memorial,Besançon,,,,47.2406917,6.0201843
13708693858,node,"Mémorial départemental Indochine, Corée et AFN",memorial,Besançon,,,,47.245455,6.0217874
13709036531,node,Tana Calda,restaurant,Besançon,6 Rue des Ruchers,,https://www.tanacalda.fr/copie-de-chatillon-le-duc,47.1870692,5.8300733
13722843437,node,,memorial,Besançon,,,,47.4951633,6.4070131
13722853189,node,,memorial,Besançon,,,,47.4922321,6.4231282
13722868701,node,,memorial,Besançon,,,,47.4808104,6.3441922
13791665101,node,Le petit tonneau,restaurant,Besançon,"16 Rue du Centre, 25320",25320,,47.1575485,5.901703
13797687927,node,,memorial,Besançon,,,,47.2302111,5.8254439
13929674074,node,,memorial,Besançon,,,,47.038862,6.2821979
13947569645,node,,artwork,Besançon,,,,47.2602872,5.8464714
13978877288,node,,artwork,Besançon,,,,47.245556,5.9854849
31619853,way,,park,Besançon,,,,47.2301015,5.985592
32202295,way,,park,Besançon,,,,47.234625,6.0300787
32321984,way,Saline royale d'Arc-et-Senans,attraction,Besançon,,,https://www.salineroyale.com,47.0335116,5.777362
32346865,way,Promenade Micaud,park,Besançon,,,,47.2403776,6.0315673
32347253,way,,park,Besançon,,,,47.2447656,6.0205899
32347254,way,Promenade des Glacis,park,Besançon,,,,47.2454877,6.0219798
32347565,way,Esplanade Joseph Barthelet,park,Besançon,,,,47.2443272,6.0180124
32400830,way,Le Clos Barbisier,park,Besançon,,,https://www.besancon-tourisme.com/fr/fiche-sit/f312010851_le-clos-barbisier-besancon/,47.2422909,6.0192709
32422704,way,Château Simon,ruins,Besançon,,,,47.3435812,6.3573889
32463425,way,Musée des Beaux-Arts et d'Archéologie,museum,Besançon,6 Rue Claude Goudimel,,http://www.mbaa.besancon.fr,47.2402144,6.0231696
32474211,way,,garden,Besançon,,,,47.2182222,6.0464621
32675460,way,,park,Besançon,,,,47.2436369,6.0184539
32783326,way,,garden,Besançon,,,,47.2428137,6.0150835
32839363,way,,ruins,Besançon,,,,47.3631654,6.3595888
32911314,way,,park,Besançon,,,,47.2389036,6.014584
33072475,way,,park,Besançon,,,,47.3476008,6.3550019
33126336,way,Square Edmond Labbé,park,Besançon,,,,47.2391761,6.0138408
33126699,way,,park,Besançon,,,,47.2392493,6.0155843
33128787,way,Square Coluche,park,Besançon,,,,47.2463314,6.0108301
33372166,way,Square Saint-Amour,park,Besançon,,,,47.2393271,6.0272388
33438024,way,La Grange Huguenet,park,Besançon,,,,47.2480472,6.0085088
33450987,way,,ruins,Besançon,,,,47.2148787,6.0305099
33744096,way,Charles Quint,hotel,Besançon,,,https://www.hotel-charlesquint.com/,47.2333863,6.0307541
33921375,way,Musée des Maisons comtoises,museum,Besançon,,,https://www.maisons-comtoises.org/,47.2373116,6.1845437
34021208,way,Square de la Charlotte,park,Besançon,,,,47.241223,6.0268495
34118340,way,,park,Besançon,,,,47.2315457,6.0208659
35448353,way,Maison natale des frères Lumière,attraction,Besançon,"1 Place Victor Hugo, 25000, Besançon",25000,,47.2350067,6.0291109
35448671,way,Esplanade Jean-Luc Lagarce,park,Besançon,,,,47.2426221,6.0309131
37655251,way,Château de Roche-sur-Loue,castle,Besançon,,,,47.0423611,5.7962354
38430010,way,,garden,Besançon,,,,47.2324451,6.0276763
38894793,way,Place Buffon,park,Besançon,,,,47.2548369,6.0201778
38934251,way,Parc Viotte,park,Besançon,,,,47.2529041,6.0203773
39366662,way,Mercure,hotel,Besançon,,,,47.2424602,6.0319014
39498902,way,,park,Besançon,,,,47.1034637,6.1404566
39500307,way,,park,Besançon,,,,47.1033806,6.1480635
40271182,way,Parc des Chaprais,park,Besançon,,,,47.248611,6.0325403
44377331,way,Château-fort de Montfaucon,ruins,Besançon,,,,47.2462156,6.0784578
53247160,way,Hôtel restaurant Vesontio,hotel,Besançon,,,https://hotel-vesontio.com/,47.2588744,6.0083721
53520866,way,Yuki,restaurant,Besançon,"4 Rue Richebourg, 25000, Besançon",25000,,47.2422066,6.0175896
53757083,way,Maison natale de Victor Hugo,museum,Besançon,,,,47.2346107,6.0291145
53798130,way,,park,Besançon,,,,47.2343402,6.0347289
53803172,way,Wangari Muita Maathai,park,Besançon,,,,47.2363851,6.0299656
53815583,way,Ibis,hotel,Besançon,,,https://all.accor.com/hotel/1364/index.fr.shtml,47.240521,6.0258408
53820560,way,Le Bouillon du Commerce,restaurant,Besançon,"31 Rue des Granges, 25000, Besançon",25000,,47.2387459,6.0254114
54185089,way,Ibis Budget,hotel,Besançon,"5 Avenue du Maréchal Foch, Besançon",,https://www.accorhotels.com/fr/hotel-3500-ibis-budget-besancon-centre-gare/index.shtml,47.2467787,6.0232661
65737922,way,Écomusée des Pipes Ropp,museum,Besançon,,,,47.3414981,6.3768651
65738329,way,La Capitainerie,restaurant,Besançon,"25 Quai du Canal, 25110, Baume-les-Dames",25110,,47.3411061,6.3587446
65739173,way,Hôtel le Bambi,hotel,Besançon,"19 Faubourg d'Anroz, 25110, Baume-les-Dames",25110,https://www.hotel-restaurant-lebambi.fr/,47.3508736,6.3683673
65742344,way,Abbaye Sainte-Odile,museum,Besançon,,,,47.3521662,6.3623606
65742737,way,Hôtel des Sires de Neuchâtel,museum,Besançon,,,,47.3527081,6.3609757
71845758,way,Hôtel-Café-Restaurant La Malate Au Fil de l'Eau,restaurant,Besançon,"48 Chemin de la Malate, 25000, Besançon",25000,,47.2318088,6.0599896
71905521,way,,restaurant,Besançon,,,,47.2464254,5.9880427
71906767,way,Château Galland,castle,Besançon,,,,47.2387942,5.9743353
71907306,way,Brit Hotel,hotel,Besançon,,,,47.2633939,6.0511764
71907529,way,Lumière,restaurant,Besançon,"42 Avenue de l'Observatoire, 25000, Besançon",25000,https://www.crous-bfc.fr/restaurant/resto-u-cafet-lumiere/,47.2490151,5.9868454
71907830,way,Fabrika Sciences,museum,Besançon,16 Route de Gray,,https://biome-besancon.umlp.fr/?page_id=613,47.2452578,5.9903673
72366369,way,hotelF1,hotel,Besançon,,,,47.2185329,5.9816099
72366680,way,Buffalo Grill,restaurant,Besançon,,,,47.217329,5.9500017
72366929,way,Siatel Bâtiment D,hotel,Besançon,,,,47.2156248,5.9420175
72366958,way,Siatel Bâtiment B,hotel,Besançon,,,,47.2163927,5.9419078
72367685,way,3 Brasseurs,restaurant,Besançon,"Rue René Char, 25000, Besançon",25000,,47.2180634,5.9493347
72367724,way,Campanile,restaurant,Besançon,,,,47.216279,5.9434662
72367886,way,Campanile,hotel,Besançon,,,,47.2165344,5.9432294
72367912,way,Siatel Bâtiment C,hotel,Besançon,,,,47.2159926,5.941577
72367955,way,Siatel Bâtiment A,hotel,Besançon,,,,47.216577,5.9422583
72368013,way,B&B Hôtel,hotel,Besançon,,,,47.2201294,5.9554583
72368076,way,Ibis Budget,hotel,Besançon,,,,47.2159925,5.9423747
72368298,way,Léon de Bruxelles,restaurant,Besançon,,,,47.2179947,5.9473233
72627777,way,Funiculaire de Beauregard-Bregille,attraction,Besançon,2B Rue du Funiculaire,,,47.2418242,6.0343346
72669691,way,Château de la Juive,castle,Besançon,"3 Chemin des Buis, 25220, Chalezeule",25220,https://chalezeule.fr/index.php/2017/10/30/le-chateau-de-la-juive/,47.2488269,6.0631122
72674490,way,,memorial,Besançon,,,,47.197114,6.1620215
72676032,way,Les 4 vents,restaurant,Besançon,"1 Rue du Noret, 25620, Mamirolle",25620,,47.1952727,6.1494227
72709192,way,,ruins,Besançon,,,,47.2159162,6.0857094
76610631,way,La Tuilerie,restaurant,Besançon,6,,https://www.restaurantlatuilerie.fr/,47.3784407,6.3781396
81814144,way,La Source Bleue,restaurant,Besançon,,,http://www.sourcebleue.fr,47.3246572,6.4369321
81814179,way,Auberge des Trois Ponts,restaurant,Besançon,,,,47.3242525,6.4384751
83535111,way,,memorial,Besançon,,,,47.1428303,6.0470693
83535114,way,Château de Charencey,ruins,Besançon,,,,47.1477058,5.9562956
87208638,way,Auberge les granges du liège,restaurant,Besançon,"Chemin du Liège, Les Monts-Ronds",,https://www.auberge-lesgrangesduliege.fr/,47.1773675,6.0679115
87230411,way,Restaurant-brasserie de Méroux,restaurant,Besançon,,,,47.2378728,6.18609
87237018,way,Musée rural,museum,Besançon,"16 Rue de l'Église, 25620, Foucherans",25620,http://www.foucherans25.fr/patrimoine/musee,47.158814,6.136991
87258696,way,Premiere Classe Besancon,hotel,Besançon,7,,https://www.premiereclasse.com/fr/hotels/premiere-classe-besancon-ecole-valentin,47.2707535,5.998317
87258847,way,Château d'École,castle,Besançon,,,,47.271093,5.9810875
87459641,way,Buffalo Grill,restaurant,Besançon,"Rue Météore, Miserey-Salines",,,47.282388,5.98951
87460175,way,Hôtel Aux Ateliers,hotel,Besançon,,,https://app.mews.com/distributor/59279eb9-169b-48dd-a4b6-b33f008b229b,47.2809862,5.9874821
87460751,way,Trattoria Toscana,restaurant,Besançon,,,,47.2825935,5.988955
87461191,way,Château de Miserey,castle,Besançon,,,,47.2864105,5.9701795
87616903,way,Hôtel de France,hotel,Besançon,,,https://www.hoteldefrance-ornans.com/,47.105915,6.1481815
87617807,way,Musée Courbet,museum,Besançon,"1 Place Robert Fernier, 25290, Ornans",25290,https://musee-courbet.doubs.fr/,47.105052,6.1477605
90075337,way,,castle,Besançon,,,,47.1736441,5.905435
90419628,way,Château de Cléron,castle,Besançon,,,,47.0878046,6.0574245
90420018,way,Auberge du Château,restaurant,Besançon,,,,47.086709,6.0586085
91007439,way,Château de Torpes,castle,Besançon,,,,47.170509,5.892943
91276815,way,Thierry Garny,restaurant,Besançon,2 Route de Besançon,,https://www.thierry-garny.fr/,47.2532362,5.962154
91329442,way,,memorial,Besançon,,,,47.0622178,5.8162816
91336379,way,Mon Tacos 25,restaurant,Besançon,,,,47.255542,5.935395
91767172,way,,monument,Besançon,,,,47.300437,5.9495205
93306682,way,Chez Gervais,hotel,Besançon,,,https://chezgervais.fr,47.1398295,5.9577456
93306830,way,Le Gremeci,restaurant,Besançon,,,http://www.le-gremeci.fr/,47.1404784,5.959602
93445816,way,Château de la Malcôte,castle,Besançon,,,,47.1137455,6.1125225
93451619,way,,park,Besançon,,,,47.1028785,5.8819741
94446917,way,La Belle Epoque,restaurant,Besançon,,,,47.19305,5.846587
94694150,way,,castle,Besançon,,,,47.213557,6.238404
94825849,way,,castle,Besançon,,,,47.2313169,6.2984422
95578698,way,Auberge du Château de Vaite,hotel,Besançon,,,,47.2882593,6.2466565
97396270,way,Château de Châtillon-sur-Lison,castle,Besançon,,,,47.0637682,5.9840724
97504537,way,La Fontaine,restaurant,Besançon,,,,47.0814725,6.1889285
97693415,way,Château de Jouffroy-d'Abbans,castle,Besançon,,,,47.1221925,5.8818556
101219020,way,,garden,Besançon,,,,47.3656116,6.3477962
101483348,way,,park,Besançon,,,,47.3263239,6.0150043
103178432,way,Maison Natale de Saint Joseph Marchand,museum,Besançon,,,,47.2758152,6.3839499
103197265,way,Le Relais de la Vallée,hotel,Besançon,,,http://relaisdelavallee.com/,47.369725,6.432753
106876022,way,,artwork,Besançon,,,,47.2397886,6.0225191
113608097,way,Auberge de Buffard,restaurant,Besançon,,,,47.039555,5.8233195
113620290,way,Le Champ des Lys,hotel,Besançon,,,https://lechampdeslys.com/,47.0387695,6.0691115
115088769,way,Creux Billard,attraction,Besançon,,,,46.963725,6.0125752
117514555,way,Jardins des Vaîtes,garden,Besançon,,,,47.256388,6.047665
127546645,way,,restaurant,Besançon,,,,47.3187283,6.2266786
127546684,way,Château de Roulans,castle,Besançon,,,,47.311184,6.2451065
128221650,way,,ruins,Besançon,,,,47.325855,6.3218615
128398004,way,Jardin René-Dumont,garden,Besançon,,,,47.2359923,6.018968
128981715,way,,attraction,Besançon,,,,47.2575053,5.987354
134905483,way,,ruins,Besançon,,,,47.4378258,6.441482
134905586,way,,ruins,Besançon,,,,47.437863,6.4414705
138253663,way,,castle,Besançon,,,,47.4784035,6.3554564
138254354,way,,castle,Besançon,,,,47.478828,6.356087
138423081,way,Donjon,castle,Besançon,"4 Rue du Château, 25360, Côtebrune",25360,https://monumentum.fr/donjon-pa00101633.html,47.2553573,6.315847
138423087,way,,castle,Besançon,"Rue du Château, 25360, Côtebrune",25360,,47.2555675,6.3155845
138659960,way,Auberge des Moulins,hotel,Besançon,,,https://www.auberge-des-moulins.fr/,47.323616,6.361184
138661772,way,,ruins,Besançon,,,,47.262166,6.3433425
142587973,way,Château,castle,Besançon,,,,47.2992351,5.8394258
149250498,way,Château de Bournel,hotel,Besançon,,,,47.4886515,6.416277
149850053,way,Comme chez soi,restaurant,Besançon,"13 Rue du Château, 25620, Trépot",25620,,47.165758,6.150335
150244477,way,,ruins,Besançon,,,,47.1122621,5.9413093
150274744,way,,castle,Besançon,,,,47.057351,5.8972305
152320634,way,Relai du Prieuré,restaurant,Besançon,,,,47.039891,6.2749735
155134788,way,,park,Besançon,,,,47.2210913,5.9756406
158712671,way,Château de Montmartin,castle,Besançon,,,,47.430149,6.338335
161718252,way,,park,Besançon,,,,47.2526428,5.7177118
161761477,way,,castle,Besançon,,,,47.2532355,5.7176078
161761587,way,,memorial,Besançon,,,,47.2531,5.714632
161806993,way,Château d'Étrabonne,castle,Besançon,,,,47.2341295,5.743083
166130095,way,Au Fil de Lods,hotel,Besançon,,,,47.0439399,6.248265
166130126,way,Château de Lods,castle,Besançon,,,,47.0438295,6.2508879
166748254,way,,castle,Besançon,,,,47.04452,5.878452
166808668,way,,beach,Besançon,,,,47.0817134,5.8646311
166958020,way,Château d'Arc,castle,Besançon,70 Grande Rue,,,47.030441,5.768711
166958912,way,Le Relais d'Arc & Senans,hotel,Besançon,9 Place de l'Église,,,47.0366825,5.7880665
167162435,way,,beach,Besançon,,,,47.0211465,5.761085
170780218,way,,garden,Besançon,,,,47.0319689,5.7771462
170780219,way,,garden,Besançon,,,,47.0323439,5.7761124
170780223,way,,garden,Besançon,,,,47.0334388,5.7794587
170780226,way,,garden,Besançon,,,,47.0325982,5.7792418
170780229,way,,garden,Besançon,,,,47.032832,5.7756553
170780231,way,,garden,Besançon,,,,47.0339808,5.7792413
179797908,way,,castle,Besançon,,,,47.174603,5.926688
180258025,way,,beach,Besançon,,,,47.0760333,5.9800762
182002882,way,,beach,Besançon,,,,47.1126029,6.1061676
182145989,way,,garden,Besançon,,,,47.0799497,5.9323109
182181011,way,,beach,Besançon,,,,47.1043133,5.9688898
182181013,way,,beach,Besançon,,,,47.1045371,5.9683187
182181014,way,,beach,Besançon,,,,47.1046221,5.9695182
182181015,way,,beach,Besançon,,,,47.1046035,5.9701929
182181018,way,,beach,Besançon,,,,47.104497,5.9698039
182181025,way,,beach,Besançon,,,,47.1045544,5.9686825
182181031,way,,beach,Besançon,,,,47.1047292,5.9702206
182391030,way,,garden,Besançon,,,,47.1425378,5.9885316
182391065,way,,garden,Besançon,,,,47.1454986,5.9905412
182590498,way,,garden,Besançon,,,,47.1277246,5.9343267
182780286,way,,garden,Besançon,,,,47.1047558,5.8869789
183311706,way,,beach,Besançon,,,,47.0375071,5.8572958
183311708,way,,beach,Besançon,,,,47.0142621,5.8519325
183311709,way,,beach,Besançon,,,,47.0287725,5.8520506
183311712,way,,beach,Besançon,,,,47.0406945,5.856816
183632635,way,,garden,Besançon,,,,47.0131273,5.8882188
184923179,way,Square de la Médiiathèque,park,Besançon,,,,47.1059039,6.1456301
208667203,way,Hôtel 73,hotel,Besançon,,,,47.3382535,6.28466
215314620,way,Le Chaland Péniche,restaurant,Besançon,"Avenue Édouard Droz, 25000, Besançon",25000,,47.2389493,6.0331781
222451011,way,,memorial,Besançon,,,,47.440842,6.312996
222738005,way,,castle,Besançon,,,,47.3876445,6.22712
222739244,way,Château du maréchal Moncey,castle,Besançon,"Rue Maréchal Moncey, 25870, Moncey",25870,,47.362911,6.119732
222743192,way,,memorial,Besançon,,,,47.4043475,6.2451015
222756880,way,Château d'Ollans,castle,Besançon,,,,47.418915,6.2425135
224202097,way,Château de Fertans,castle,Besançon,,,,47.0510245,6.063394
224215569,way,La Loge,restaurant,Besançon,,,,47.0112847,6.1117877
224219289,way,Ferme Courbet,gallery,Besançon,"25330, Flagey",25330,http://www.musee-courbet.fr/?page_id=216,47.0358615,6.123887
224229176,way,Château de Roset-Fluans,castle,Besançon,,,,47.164634,5.825248
224322708,way,,castle,Besançon,,,,47.267266,5.776582
224325768,way,Château de Recologne,castle,Besançon,,,,47.2750855,5.830012
224328918,way,Château de Moncley,castle,Besançon,,,,47.311358,5.8880785
224329845,way,,ruins,Besançon,,,,47.286306,5.8952731
224462405,way,Au Doubs Byannais,restaurant,Besançon,"19 Place de l'Église, 25320, Byans-sur-Doubs",25320,https://au-doubs-byannais-restaurant-byans-sur-doubs.eatbu.com/?lang=fr,47.1157675,5.857048
225211167,way,Château de Rennes-sur-Loue,castle,Besançon,,,,47.0139805,5.853423
231810396,way,Tour,ruins,Besançon,,,,47.2457439,6.0782745
231811207,way,Église,ruins,Besançon,,,,47.2469126,6.0787492
231811208,way,,ruins,Besançon,,,,47.2470656,6.0790603
231811209,way,Sacristie,ruins,Besançon,,,,47.2469661,6.0788468
231811212,way,,ruins,Besançon,,,,47.2464847,6.0785547
231811213,way,,ruins,Besançon,,,,47.246086,6.0783818
233938617,way,Le Pécheur de Chavots,artwork,Besançon,,,,47.106837,6.1451413
234273964,way,Temis Hotel,hotel,Besançon,"17 Avenue des Montboucons, 25000, Besançon",25000,https://www.temis-hotel.com/,47.2543491,5.9949302
234274534,way,,restaurant,Besançon,,,,47.2494346,5.9748136
234275949,way,Chez elle et lui,restaurant,Besançon,,,,47.2540542,5.9945314
234277738,way,Pavillon d’entrée du front Saint-Etienne,castle,Besançon,"Citadelle, 25000, Besançon",25000,,47.2314904,6.0319389
235479378,way,,park,Besançon,,,,47.2742252,5.9211059
237158848,way,Square Copin,park,Besançon,,,,47.2309291,6.0133274
240324169,way,,artwork,Besançon,,,,47.2351886,6.0263539
241052754,way,Ibis styles Besançon,hotel,Besançon,,,,47.2540056,6.0212495
266193638,way,Château de Thoraise,park,Besançon,,,,47.1733943,5.9055281
268061496,way,,park,Besançon,,,,47.2580699,5.9340687
268431836,way,Parc des Carrons,park,Besançon,,,,47.1049247,5.8816292
279399759,way,,memorial,Besançon,,,,47.1695788,5.8917524
294208764,way,,park,Besançon,,,,47.2742293,6.002123
294983648,way,Parc Notre-Dame,park,Besançon,,,,47.2308721,6.0288144
315891669,way,Siatel,restaurant,Besançon,,,,47.2164727,5.9422593
323575259,way,,park,Besançon,,,,47.0124747,5.8528265
326331369,way,Square Velotte,park,Besançon,,,,47.2180801,6.0076796
329285494,way,,garden,Besançon,,,,47.2226936,6.0623004
340444516,way,,ruins,Besançon,,,,47.2636691,5.9392063
343727863,way,Sentier karstique du Grand Bois (boucle Est),attraction,Besançon,,,,47.1628456,6.0660485
348397499,way,,park,Besançon,,,,47.2334118,5.9993936
381732633,way,Restaurant Universitaire des Hauts du Chazal,restaurant,Besançon,,,,47.2247393,5.9587844
386942209,way,Square Claude Salomon,park,Besançon,,,,47.2542369,6.0287776
397835149,way,,park,Besançon,,,,47.2625673,6.0249539
397934876,way,,park,Besançon,,,,47.2425173,6.0182124
398543206,way,,park,Besançon,,,,47.2461519,6.0045266
398955041,way,,park,Besançon,,,,47.1036644,6.1547662
407900598,way,,park,Besançon,,,,47.3000252,5.9717167
408910063,way,,park,Besançon,,,,47.2252145,6.1178799
408910226,way,Cure,park,Besançon,,,,47.2251843,6.1182916
408928789,way,,park,Besançon,,,,47.2259422,6.1174397
408952110,way,,park,Besançon,,,,47.2211559,6.1174648
414102694,way,,park,Besançon,,,,47.223829,5.8987226
421356402,way,Fort des Epesses,ruins,Besançon,,,,47.2515509,6.1112199
426068510,way,Parc des Essarts,park,Besançon,,,,47.1995348,6.1512477
426961903,way,Square de l'Orée du Bois,park,Besançon,,,,47.1780845,5.9102357
444763772,way,Potager,garden,Besançon,,,,47.4865406,6.4156737
444796495,way,,park,Besançon,,,,47.2345609,6.0775663
448135304,way,,park,Besançon,,,,47.2857484,5.8958312
449742599,way,,ruins,Besançon,,,,47.130431,6.1639504
450677731,way,,garden,Besançon,,,,47.2334394,6.0248105
487964947,way,,garden,Besançon,,,,47.2173933,6.1120366
499453032,way,,garden,Besançon,,,,47.2187482,6.1099821
501449317,way,Bistrot Paul,restaurant,Besançon,,,,47.2878725,5.993236
504567905,way,Jules & John,restaurant,Besançon,"Rue René Char, 25000, Besançon",25000,https://www.jules-et-john.fr/restaurants/besancon-chateaufarine-jules-john-22/,47.2169981,5.947788
510004610,way,Au Bureau,restaurant,Besançon,,,,47.2778752,5.9972304
514499916,way,,beach,Besançon,,,,47.3428774,6.3653376
540410431,way,,garden,Besançon,,,,47.3207414,6.3829681
556780917,way,Square Fontaine Ecu,park,Besançon,,,,47.2520976,6.0089608
580857863,way,,park,Besançon,,,,47.2006868,6.1542418
583975432,way,L'Étoile,restaurant,Besançon,"14 Rue de l'Étoile, 25660, Saône",25660,,47.2255529,6.1212337
583982569,way,Hôtel Restaurant Brasserie Le Comtois,hotel,Besançon,"4 Grande Rue, 25660, Saône",25660,,47.2242149,6.116811
584101350,way,O'Plato,restaurant,Besançon,"11 Rue de la Mairie, 25660, Saône",25660,,47.2265945,6.1161467
586033947,way,,park,Besançon,,,,47.236462,6.0326353
586034474,way,,park,Besançon,,,,47.2485095,6.057749
596023589,way,Parc du château,park,Besançon,,,,47.3634719,6.1190359
613404190,way,Château de Scey,castle,Besançon,,,,47.0956657,6.0830627
618804620,way,Fromagerie-Musée,museum,Besançon,"Place de la Mairie, 25620, Trépot",25620,,47.1676088,6.1483435
671596751,way,,park,Besançon,,,,47.2602989,6.0394431
671596788,way,Square Abbé Manche,park,Besançon,,,,47.2613657,6.0408228
671995074,way,,park,Besançon,,,,47.2400622,6.0165118
671995102,way,,park,Besançon,,,,47.2413485,6.0164186
672038130,way,Parc de la cathédrale,park,Besançon,,,,47.2338033,6.0312183
672856596,way,,park,Besançon,,,,47.2761244,5.9998233
678659841,way,,park,Besançon,,,,47.2434364,6.047237
678700046,way,Citadelle de Besançon,castle,Besançon,,,,47.2297303,6.0331911
678700091,way,Jardin zoologique de la Citadelle de Besançon,zoo,Besançon,,,https://www.citadelle.com/,47.2279565,6.0354213
678700114,way,,park,Besançon,,,,47.2326825,6.0318049
679019343,way,,garden,Besançon,,,,47.2287439,6.0343688
679045475,way,,garden,Besançon,,,,47.2496601,6.0426438
679045486,way,,garden,Besançon,,,,47.2499858,6.0425974
679045489,way,,garden,Besançon,,,,47.2497,6.0422609
679045496,way,,garden,Besançon,,,,47.2497046,6.0431004
679045503,way,,garden,Besançon,,,,47.2498094,6.0424696
679048819,way,Parc des Chaprais,park,Besançon,,,,47.2544413,6.0371654
679048828,way,,park,Besançon,,,,47.2538676,6.0378594
679050222,way,,park,Besançon,,,,47.2574326,6.0322142
681413424,way,,park,Besançon,,,,47.2472629,6.0042457
681591137,way,,park,Besançon,,,,47.2584272,5.9931183
681649107,way,,park,Besançon,,,,47.2201922,5.9830555
681656549,way,Square de l’Amitié,park,Besançon,,,,47.2336351,5.9848644
683389710,way,Parc de l'observatoire,park,Besançon,,,,47.2470102,5.9908419
683597312,way,,park,Besançon,,,,47.2173455,5.9745388
683684985,way,,garden,Besançon,,,,47.217652,5.9757592
683690638,way,,garden,Besançon,,,,47.2178277,5.973078
683690647,way,Square Salah Gaham,park,Besançon,,,,47.2181501,5.9734996
684554962,way,,park,Besançon,,,,47.2285997,5.992264
684554991,way,Square Marcel Cerdan,park,Besançon,,,,47.2266434,5.9930856
685455364,way,,garden,Besançon,,,,47.2324154,6.0254988
685470887,way,,park,Besançon,,,,47.2436606,6.023028
685470891,way,Square Bouchot,park,Besançon,,,,47.2436915,6.0220645
685606183,way,,park,Besançon,,,,47.2493777,6.0041835
685629203,way,,garden,Besançon,,,,47.2410986,6.0233492
685629214,way,,garden,Besançon,,,,47.2411878,6.0233639
685638488,way,Chamars,park,Besançon,,,,47.2332677,6.0183068
686114038,way,Place des Contes du Chat Perché,park,Besançon,,,,47.2647061,6.0311259
686805082,way,,park,Besançon,,,,47.2301912,5.9918366
687117232,way,,beach,Besançon,,,,47.13949,5.8497515
687737088,way,,park,Besançon,,,,47.3267129,6.0312175
688148840,way,,garden,Besançon,,,,47.2323267,6.026923
688151636,way,,park,Besançon,,,,47.2340693,6.0331865
688160404,way,,garden,Besançon,,,,47.2356211,6.0222524
688160410,way,,garden,Besançon,,,,47.2354746,6.0227451
688160413,way,,garden,Besançon,,,,47.2357581,6.0222681
688160427,way,,garden,Besançon,,,,47.2355252,6.0219786
692727634,way,Parc Marmier,park,Besançon,,,,47.2391496,6.004824
695635389,way,,park,Besançon,,,,47.2633074,6.0368363
695799018,way,,park,Besançon,,,,47.2654956,6.0337884
696954190,way,,park,Besançon,,,,47.2520551,6.016683
696954194,way,,park,Besançon,,,,47.2507342,6.0178498
697836409,way,,park,Besançon,,,,47.2594993,6.0434959
699849917,way,,park,Besançon,,,,47.1452585,6.0433601
710272743,way,Parc Broch d'Otelans,park,Besançon,,,,47.2871127,6.1336027
712678881,way,Parc de la Rhodiacéta,park,Besançon,,,,47.2279189,6.0423562
712681329,way,Parc de la Rodia,park,Besançon,,,,47.2322512,6.0377935
713096277,way,,park,Besançon,,,,47.266768,6.0312451
713098639,way,,park,Besançon,,,,47.2659453,6.0251744
713952835,way,Sentier karstique du Grand Bois (boucle Ouest),attraction,Besançon,,,,47.1626695,6.0612326
723354634,way,,garden,Besançon,,,,47.0343081,5.7791355
727405283,way,La maison Colette et Boutterin,attraction,Besançon,,,,47.2603979,5.9870456
729197668,way,,park,Besançon,,,,47.3206183,6.0049934
744609006,way,,park,Besançon,,,,47.2300211,5.9888853
752693872,way,Jardin de la famille Courbet,garden,Besançon,,,http://www.musee-courbet.fr/?page_id=224,47.0357297,6.1241758
762186697,way,,park,Besançon,,,,47.2513371,5.998596
770033114,way,,park,Besançon,,,,47.2405453,6.0300082
772453247,way,Parc du Duc de Méranie,park,Besançon,"Avenue André Cart, 25870, Châtillon-le-Duc",25870,,47.3048447,6.0064
776287809,way,,garden,Besançon,,,,47.2471589,6.0239043
777990301,way,,garden,Besançon,,,,47.4882015,6.4158663
778256081,way,,park,Besançon,,,,47.2867904,5.9710276
780900244,way,,garden,Besançon,,,,47.2247564,5.9771532
801276765,way,,garden,Besançon,,,,47.2448542,6.0536721
801285561,way,,park,Besançon,,,,47.248563,6.056205
818432120,way,,garden,Besançon,,,,47.0749143,6.2304802
821069958,way,Jardins des Vaîtes,garden,Besançon,,,,47.2540962,6.0446421
822320184,way,Carré potager des enfants de l'école,garden,Besançon,,,,47.2448576,6.1273441
822320185,way,Carré potager des enfants de l'école,garden,Besançon,,,,47.2448502,6.1273823
822320186,way,Carré potager des enfants de l'école,garden,Besançon,,,,47.2448767,6.1274073
822320187,way,Carré potager des enfants de l'école,garden,Besançon,,,,47.2448775,6.1274484
823083859,way,,garden,Besançon,,,,47.0561175,6.2637008
824484620,way,Parc de la place Granvelle,park,Besançon,,,,47.2351891,6.0259142
831692043,way,Parc derrière l'église,park,Besançon,,,,47.1511935,6.0693688
831693862,way,Parc de l'école,park,Besançon,,,,47.1484849,6.0664163
857128965,way,,garden,Besançon,,,,47.2284667,5.8535297
857128966,way,,garden,Besançon,,,,47.2283563,5.8540293
857128968,way,,garden,Besançon,,,,47.2289062,5.854888
857210220,way,,garden,Besançon,,,,47.2904068,6.3543658
858117031,way,Arboretum,park,Besançon,,,,47.1871706,5.9670876
859306420,way,,park,Besançon,,,,47.1724087,6.2099028
866579704,way,,garden,Besançon,,,,47.3649397,6.12064
879681837,way,,garden,Besançon,,,,47.2321441,6.0240224
880279072,way,Aire intergénérationnelle,park,Besançon,,,,47.3362387,5.9400927
888127544,way,,park,Besançon,,,,47.2385663,5.9747451
889381646,way,Château de Vaite,castle,Besançon,,,,47.29358,6.2370522
894587274,way,Jardin du Directeur,garden,Besançon,,,,47.2284013,6.0420969
894587276,way,Jardin Filtrant,garden,Besançon,,,,47.2277859,6.0424723
920942421,way,,park,Besançon,,,,46.9771446,5.9998122
921651545,way,Statue Adolphe Veil-Picard,memorial,Besançon,,,,47.2350801,6.0253758
925212957,way,Un Cercle Immense,garden,Besançon,,,,47.0343216,5.7770253
930649361,way,,park,Besançon,,,,47.227551,6.0240002
931803845,way,Jardin du Ravelin,garden,Besançon,,,,47.2436737,6.0230831
933952647,way,,garden,Besançon,,,,47.2109535,6.0004854
935703434,way,,ruins,Besançon,,,,47.2218823,6.0000644
940753352,way,,memorial,Besançon,,,,47.248175,6.0339506
943836916,way,,garden,Besançon,,,,47.2053119,6.0100501
946031630,way,Le Trépillot - Cafétéria,restaurant,Besançon,,,https://restaurant-letrepillot.com/,47.2399285,5.9887222
946031631,way,Le Trépillot - Le Club,restaurant,Besançon,,,https://restaurant-letrepillot.com/,47.2397359,5.9885362
946776392,way,,park,Besançon,,,,47.0901528,6.2703301
947666827,way,,ruins,Besançon,,,,47.2347131,6.0302057
958466771,way,Square Trey,park,Besançon,,,,47.25728,6.0222219
958506972,way,,park,Besançon,,,,47.2536938,6.0354628
959800910,way,,park,Besançon,,,,47.25796,6.0210283
962814875,way,,garden,Besançon,,,,47.2554078,6.0456236
971351428,way,,garden,Besançon,,,,47.2312474,6.0221815
971549828,way,,garden,Besançon,,,,47.2319854,6.0204007
973602065,way,Le Bistr'o Resto,restaurant,Besançon,,,,47.2156426,5.946985
973602093,way,Poko,restaurant,Besançon,,,,47.216036,5.9480733
977165680,way,Pum,restaurant,Besançon,"1 Rue Jean Petit, 25000, Besançon",25000,https://www.pumthaifoodchain.fr/besancon/,47.2404333,6.0239989
984691031,way,Carrousel Bailly-Cochet,attraction,Besançon,,,,47.2399049,6.0221819
990433043,way,,garden,Besançon,,,,47.1067776,5.9611168
997996164,way,SOS Pizza,restaurant,Besançon,,,,47.195077,6.1493512
1006452302,way,,park,Besançon,,,,46.9675515,6.0396498
1007665349,way,,park,Besançon,,,,47.0460149,6.1550439
1008041022,way,,park,Besançon,,,,47.018651,6.1120015
1008041029,way,,park,Besançon,,,,47.0184885,6.1130097
1018817674,way,La mère et l'enfant,artwork,Besançon,,,,47.2269192,5.9643666
