osm_id,osm_type,name,category,city,address,postcode,website,lat,lon
251833375,node,Chambre Neuf,restaurant,Chamonix-Mont-Blanc,,,,45.9228079,6.8731214
275389522,node,Delph's,restaurant,Chamonix-Mont-Blanc,"233 Avenue Michel Croz, 74400, Chamonix-Mont-Blanc",74400,,45.9231395,6.8728196
278556218,node,Hôtel Eden,hotel,Chamonix-Mont-Blanc,,,,45.9405719,6.888248
922936063,node,Le Morgane,hotel,Chamonix-Mont-Blanc,145 Avenue de l'Aiguille du Midi,,https://morgane-hotel-chamonix.com/,45.9199012,6.8685872
1051910798,node,Le Refuge des Aiglons,hotel,Chamonix-Mont-Blanc,"270 Avenue de Courmayeur, 74400",74400,https://aiglons.com/,45.9168132,6.8676623
1134430114,node,La Bagna,restaurant,Chamonix-Mont-Blanc,,,,45.9408709,6.8922926
1134430124,node,Le Labrador,hotel,Chamonix-Mont-Blanc,"101 Route du Golf, 74400, Chamonix-Mont-Blanc",74400,,45.9431297,6.8881606
1134444478,node,La Cabane,restaurant,Chamonix-Mont-Blanc,"23 Route du Golf, 74400, Chamonix-Mont-Blanc",74400,https://www.restaurant-cabane-chamonix.com/,45.9424619,6.8884008
1387824404,node,Albert 1er,restaurant,Chamonix-Mont-Blanc,,,https://www.hameaualbert.fr/,45.9244768,6.8748017
1387824408,node,Maison Carrier,restaurant,Chamonix-Mont-Blanc,,,https://www.hameaualbert.fr/,45.9252022,6.8744882
1596769230,node,Le Chaudron,restaurant,Chamonix-Mont-Blanc,79 Rue des Moulins,,https://le-chaudron-chamonix.com/,45.9243898,6.8703446
1596769236,node,Munchie,restaurant,Chamonix-Mont-Blanc,"87 Rue des Moulins, 74400, Chamonix-Mont-Blanc",74400,https://www.munchie.fr/,45.9244532,6.8704076
1596774790,node,Bistrot des Sports,restaurant,Chamonix-Mont-Blanc,,,,45.9248463,6.8698556
1596776922,node,Cap Horm,restaurant,Chamonix-Mont-Blanc,"74 Rue des Moulins, 74400, Chamonix-Mont-Blanc",74400,https://www.caphorn-chamonix.com/fr/,45.924294,6.8704778
1596783597,node,,restaurant,Chamonix-Mont-Blanc,,,,45.9238083,6.8729002
1871317335,node,Alpage de Balme,restaurant,Chamonix-Mont-Blanc,,,https://www.chamonix.com/infos-et-services/restauration/raclette-a-chamonix/restaurant-les-alpages-de-balme,46.0215049,6.9495256
2115613875,node,La Ferme des 3 Ours,restaurant,Chamonix-Mont-Blanc,,,,46.0296205,6.9285898
2194750159,node,La Sauvageonne,restaurant,Chamonix-Mont-Blanc,,,http://www.restaurant-lasauvageonne.com/,45.9308295,6.7663992
2432124707,node,Hôtel du Clocher,hotel,Chamonix-Mont-Blanc,110 Passage de l'Androsace,,,45.924793,6.8683612
2616426690,node,Le Bartavel,restaurant,Chamonix-Mont-Blanc,26 Cour du Bartavel,,,45.923072,6.8689459
2616426691,node,Neapolis,restaurant,Chamonix-Mont-Blanc,,,,45.9256365,6.8709972
2617946229,node,Hôtel de la Couronne,hotel,Chamonix-Mont-Blanc,,,,45.9840082,6.9267182
2617946231,node,Les Voisines,restaurant,Chamonix-Mont-Blanc,"368 Rue Charlet Straton, 74400",74400,,45.9846573,6.9272388
2617946232,node,Le Dahu,hotel,Chamonix-Mont-Blanc,,,,45.984255,6.9268215
2617946235,node,Grenier,restaurant,Chamonix-Mont-Blanc,"372 Rue Charlet Straton, 74400",74400,,45.9847034,6.9272561
2617946237,node,Le Stone,restaurant,Chamonix-Mont-Blanc,390 Rue Charlet Straton,,,45.9847557,6.9272824
2617946238,node,Les Chéserys,restaurant,Chamonix-Mont-Blanc,285 Rue Charlet Straton,,,45.9838235,6.926566
2617946241,node,The Office,restaurant,Chamonix-Mont-Blanc,274 Rue Charlet Straton,,,45.9838445,6.9269381
2669860465,node,Oustalet,hotel,Chamonix-Mont-Blanc,"330 Rue du Lyret, 74400, Chamonix-Mont-Blanc",74400,http://www.hotel-oustalet.com,45.9196464,6.8703202
2938586726,node,La Tablée,restaurant,Chamonix-Mont-Blanc,"75 Avenue de l'Aiguille du Midi, 74400, Chamonix-Mont-Blanc",74400,http://latablee.fr/,45.9202886,6.8677519
2938986278,node,La Ferme,restaurant,Chamonix-Mont-Blanc,"67 Avenue de l'Aiguille du Midi, 74400, Chamonix-Mont-Blanc",74400,,45.9203191,6.8677021
3017430036,node,Hôtel La Verticale,hotel,Chamonix-Mont-Blanc,"25 Passage de l'Androsace, 74440, Chamonix-Mont-Blanc",74440,https://hotellaverticale.com/,45.9244079,6.8692538
3259795792,node,Le Monchu,restaurant,Chamonix-Mont-Blanc,"1 Rue du Lyret, 74400, Chamonix-Mont-Blanc",74400,https://www.lemonchu-chamonix.fr/,45.9225762,6.8701494
3602516991,node,La Calèche,restaurant,Chamonix-Mont-Blanc,"18 Rue du Docteur Paccard, 74400, Chamonix-Mont-Blanc",74400,https://www.restaurant-caleche.com/,45.9228005,6.869065
3693702668,node,Le Buet,hotel,Chamonix-Mont-Blanc,,,https://www.hotelbuet.com,46.0195086,6.919342
3716897874,node,Satsuki,restaurant,Chamonix-Mont-Blanc,"288 Rue Joseph Vallot, 74440, Chamonix-Mont-Blanc",74440,http://www.satsuki.eu/fr/chamonix,45.9258164,6.8700883
3730415843,node,La Télécabine,restaurant,Chamonix-Mont-Blanc,27 Rue de la Tour,,http://www.restaurant-latelecabine.com,45.9231705,6.8709111
3787817155,node,Les Ecuries de Charamillon,restaurant,Chamonix-Mont-Blanc,,,,46.0156593,6.9586721
4235476991,node,Chez Yang,restaurant,Chamonix-Mont-Blanc,17 Rue du Docteur Paccard,,,45.9227825,6.8692651
4327283190,node,Le Panier des 4 Saisons,restaurant,Chamonix-Mont-Blanc,"292 Rue du Docteur Paccard, 74400",74400,,45.9211098,6.8672588
4411855689,node,Rendezvous,restaurant,Chamonix-Mont-Blanc,Route des Praz,,,45.9399584,6.8831689
4419075499,node,Restaurant Ghandi,restaurant,Chamonix-Mont-Blanc,"653 Avenue des Alpages, 74400, Les Houches",74400,https://www.restaurantgandhi.fr/,45.8956675,6.8055661
4590357589,node,Hameau de Bec Rouge,hotel,Chamonix-Mont-Blanc,,,,45.998233,6.9369083
4693032292,node,Restaurant Le Panoramic,restaurant,Chamonix-Mont-Blanc,,,https://le-panoramic-restaurant-chamonix-mont-blanc-le-brevent.eatbu.com/,45.9333128,6.8377761
4718794399,node,Casa Valerio,restaurant,Chamonix-Mont-Blanc,88 Rue du Lyret,,https://www.casavalerio.net/,45.9219441,6.8694977
4833250089,node,La Poële,restaurant,Chamonix-Mont-Blanc,"79 Avenue de l'Aiguille du Midi, 74400, Chamonix-Mont-Blanc",74400,,45.9202337,6.8678381
4873685515,node,La Chavanne,restaurant,Chamonix-Mont-Blanc,,,https://www.facebook.com/nouvelle-chavanne-697475203764023/,45.8897416,6.7975074
4873810963,node,Bar de la faune,restaurant,Chamonix-Mont-Blanc,,,,45.9238167,6.7706347
4936435472,node,Le Bistrot,restaurant,Chamonix-Mont-Blanc,,,,45.9196348,6.8687498
4936435491,node,L'Alt,restaurant,Chamonix-Mont-Blanc,,,,45.9194859,6.8689956
4936435493,node,Grand Hotel des Alpes,hotel,Chamonix-Mont-Blanc,,,,45.9222582,6.8689405
4936435494,node,La Potinière,restaurant,Chamonix-Mont-Blanc,,,,45.9231867,6.8691804
4936435498,node,Atmosphère,restaurant,Chamonix-Mont-Blanc,,,,45.9227805,6.8696163
4957210888,node,Le Rencard,restaurant,Chamonix-Mont-Blanc,"20 Galerie Grand Roc, 74400, Argentière",74400,,45.9810296,6.9252202
5301292322,node,La Braise,restaurant,Chamonix-Mont-Blanc,"3 Allée des Bréventines, 74310, Les Houches",74310,https://labraisechamonix.com/,45.8973099,6.8197927
5590167516,node,Le 3842,restaurant,Chamonix-Mont-Blanc,,,,45.8792147,6.8870757
5607700012,node,Pizzeria des Moulins,restaurant,Chamonix-Mont-Blanc,"107 Rue des Moulins, 74400, Chamonix-Mont-Blanc",74400,,45.924598,6.8704851
5622457984,node,La Croix Blanche,hotel,Chamonix-Mont-Blanc,,,,45.9241695,6.8696591
5622457987,node,JOIA,restaurant,Chamonix-Mont-Blanc,,,,45.923243,6.8699743
5630352889,node,Le Joséphine,restaurant,Chamonix-Mont-Blanc,"76 Avenue Michel Croz, 74400, Chamonix-Mont-Blanc",74400,,45.9233843,6.8707095
5667783189,node,Bizes,restaurant,Chamonix-Mont-Blanc,"Rue du Lyret, 74400, Chamonix-Mont-Blanc",74400,,45.9221607,6.8695591
5693775717,node,Le Vista,restaurant,Chamonix-Mont-Blanc,,,,45.9252408,6.8708373
5718535100,node,Le Fer à Cheval,restaurant,Chamonix-Mont-Blanc,,,,45.9240712,6.8727768
5976399578,node,Le Bistrot du Dahu,restaurant,Chamonix-Mont-Blanc,,,,45.984208,6.9267261
6224811909,node,Doña Catrina,restaurant,Chamonix-Mont-Blanc,"263 Avenue Cachat Le Géant, 74400, Chamonix-Mont-Blanc",74400,https://www.donacatrina.fr,45.9237594,6.8760775
6308342339,node,Tanpopo,restaurant,Chamonix-Mont-Blanc,,,,45.9229654,6.8726554
6338547785,node,La P’tite Verte,restaurant,Chamonix-Mont-Blanc,,,,45.9823032,6.9259061
6549769886,node,La Cremerie du Moulin,restaurant,Chamonix-Mont-Blanc,,,,45.9390788,6.8880189
7108781510,node,Le Yeti,restaurant,Chamonix-Mont-Blanc,,,,45.9809074,6.9253272
7114675997,node,Aux Dix Vins,restaurant,Chamonix-Mont-Blanc,,,,45.9776382,6.9217159
7470893654,node,Le National,restaurant,Chamonix-Mont-Blanc,"3 Rue du Docteur Paccard, 74400, Chamonix-Mont-Blanc",74400,,45.9227961,6.8693567
7470997848,node,Bistrot Bonatti,restaurant,Chamonix-Mont-Blanc,"80 Avenue Ravanel le Rouge, 74400, Chamonix-Mont-Blanc",74400,,45.9201313,6.8663296
7471031239,node,Annapurna II,restaurant,Chamonix-Mont-Blanc,"Avenue Ravanel le Rouge, 74400, Chamonix-Mont-Blanc",74400,https://www.annapurna-chamonix.com/,45.9193991,6.8657575
7471130969,node,Little Boxes,restaurant,Chamonix-Mont-Blanc,"269 Avenue de Courmayeur, 74400, Chamonix-Mont-Blanc",74400,,45.9172802,6.8676999
7471268693,node,Rakuichi,restaurant,Chamonix-Mont-Blanc,"271 Rue Joseph Vallot, 74440, Chamonix-Mont-Blanc",74440,,45.9259185,6.8697963
7539002126,node,La Yaute Cafe,restaurant,Chamonix-Mont-Blanc,,,https://www.layaute-chamonix.com/,45.974415,6.9208437
7614939984,node,Alpina Eclectic Hotel,hotel,Chamonix-Mont-Blanc,"79 Avenue du Mont-Blanc, 74400, Chamonix-Mont-Blanc",74400,https://www.alpinachamonix.com/,45.9253741,6.8707399
7779154087,node,L’Arrêt Bougnette,restaurant,Chamonix-Mont-Blanc,,,,46.0324031,6.9326058
7791178186,node,Le Restaurant du Refuge,restaurant,Chamonix-Mont-Blanc,,,,45.9333034,6.9171164
7881985307,node,Dormio - L'Ours Bleu,restaurant,Chamonix-Mont-Blanc,,,,46.0337877,6.933782
8069103906,node,Hotel-Restaurant Les randonneurs,restaurant,Chamonix-Mont-Blanc,,,,45.976327,6.9205136
8100944794,node,La Coquelle,restaurant,Chamonix-Mont-Blanc,,,,45.9183319,6.8690288
8173510905,node,L'Adret de la flégère,restaurant,Chamonix-Mont-Blanc,,,,45.9603739,6.8861971
8198723320,node,Su's Cuisine,restaurant,Chamonix-Mont-Blanc,"165 Chemin des Bartules, 74400",74400,https://suscuisine.com/,45.9725997,6.920797
9525402296,node,Kitsch Inn,restaurant,Chamonix-Mont-Blanc,"77 Place de la Fruitière, 74310, Les Houches",74310,https://www.kitschinn.fr/,45.8893567,6.7885076
9525402297,node,La kitchenette,restaurant,Chamonix-Mont-Blanc,"66 Place de la Fruitière, 74310, Les Houches",74310,,45.8898584,6.7892188
9525402303,node,La ferme du Mont Blanc,restaurant,Chamonix-Mont-Blanc,"11 Rue de l'Essert, 74310, Les Houches",74310,,45.8891731,6.7963028
9534179926,node,La Moraine,restaurant,Chamonix-Mont-Blanc,"5 Avenue Ravanel le Rouge, 74400, Chamonix-Mont-Blanc",74400,https://lamoraine-restaurant-chamonix.com/,45.9204684,6.8669973
9679421887,node,Le P'tiot Monchu,restaurant,Chamonix-Mont-Blanc,"311 Av. Cachat le Géant, 74400, Chamonix-Mont-Blanc",74400,https://app.overfull.fr/booking-v2/?key_id=33wxisrjmku,45.9233182,6.8762986
9679425821,node,Brasserie des 2 Gares,restaurant,Chamonix-Mont-Blanc,,,,45.9232436,6.8758081
9935441917,node,L’ail des ours,restaurant,Chamonix-Mont-Blanc,"2118 Route du Col, 74660",74660,,46.0187746,6.919596
10012268025,node,Le Comptoir des Alpes,restaurant,Chamonix-Mont-Blanc,151 Avenue de l'Aiguille du Midi,,https://comptoir-des-alpes.com,45.9196954,6.8686424
10012268029,node,Akashon,restaurant,Chamonix-Mont-Blanc,50,,https://restaurant-akashon.com/,45.9177819,6.8696576
10013615578,node,Le Faucigny,hotel,Chamonix-Mont-Blanc,118 Place de l'Église,,https://www.hameaufaucigny-chamonix.com/en/hotel-faucigny/,45.9244561,6.869022
10013615579,node,Hôtel Le Chamonix,hotel,Chamonix-Mont-Blanc,11 Rue de l'Hôtel de Ville,,https://www.hotel-le-chamonix.com/,45.9238129,6.868971
10013615580,node,Park Hôtel Suisse,hotel,Chamonix-Mont-Blanc,75 Allée du Majestic,,https://www.chamonix-park-hotel.com/,45.9229215,6.8686156
10013615582,node,Hôtel Lyret,hotel,Chamonix-Mont-Blanc,96 Rue du Lyret,,,45.9217703,6.8694538
10599692993,node,Bighorn,restaurant,Chamonix-Mont-Blanc,"77 Place Edmond Desailloud, 74440, Chamonix-Mont-Blanc",74440,https://www.bighornbistro.com,45.9191299,6.8679338
10641946398,node,Rose du pont,restaurant,Chamonix-Mont-Blanc,"43 Place Balmat, 74400, Chamonix-Mont-Blanc",74400,https://www.rose-du-pont.com,45.92317,6.8700984
10895125005,node,Village vacances Pierre Semard,hotel,Chamonix-Mont-Blanc,,,,45.9942676,6.9298016
11076667606,node,Auberge du Manoir,hotel,Chamonix-Mont-Blanc,"8 Route du Bouchet, 74400",74400,https://www.chalethotelchamonix.fr/nous-ecrire,45.9244761,6.8739985
12120736975,node,Yumidori,restaurant,Chamonix-Mont-Blanc,,,,45.9203533,6.866473
12135449510,node,Mamma Giulia,restaurant,Chamonix-Mont-Blanc,,,,45.8892016,6.7915859
12146403473,node,Le Refuge des Loups,restaurant,Chamonix-Mont-Blanc,,,,45.8900428,6.7888384
12146403474,node,La Tour de Pizz,restaurant,Chamonix-Mont-Blanc,,,,45.8900085,6.7888346
12258395401,node,Chalet Hôtel & Spa Jeu de Paume,hotel,Chamonix-Mont-Blanc,,,https://jeudepaumechamonix.com/,45.9543345,6.9059451
12509885211,node,Le bivouac,restaurant,Chamonix-Mont-Blanc,,,https://le-bivouac.edan.io/,45.9209756,6.867137
12803761148,node,Les Ecrins de Soulane,hotel,Chamonix-Mont-Blanc,"73 Avenue Ravanel le Rouge, 74440, Chamonix-Mont-Blanc",74440,,45.9202619,6.8667485
12809069613,node,La Cab,restaurant,Chamonix-Mont-Blanc,"3 Route des Moussoux, 74400, Chamonix-Mont-Blanc",74400,,45.9236414,6.8633139
12811673586,node,Chez Constant,restaurant,Chamonix-Mont-Blanc,,,https://www.restaurant-chez-constant-chamonix.com/,45.9204529,6.8666152
13074120761,node,La Grande Tablée,restaurant,Chamonix-Mont-Blanc,,,https://www.chamonix.com/infos-et-services/restauration/raclette-a-chamonix/la-grande-tablee,45.8902959,6.797822
13075825517,node,Le Saint-Antoine,hotel,Chamonix-Mont-Blanc,,,https://www.hotelsaintantoine.com/,45.895989,6.805748
13192529960,node,La Bergerie de Plan Praz,restaurant,Chamonix-Mont-Blanc,,,https://www.maisondesdrus.com/fr/etablissement/la-bergerie-de-planpraz-ete,45.9362837,6.8537815
13227668521,node,Buvette de la Cascade de Bérard,restaurant,Chamonix-Mont-Blanc,,,https://www.chamonix.com/infos-et-services/restauration/raclette-a-chamonix/buvette-de-la-cascade-de-berard,46.0200538,6.9115201
13236864515,node,Plan Joran,restaurant,Chamonix-Mont-Blanc,,,https://www.maisondesdrus.com/fr/etablissement/plan-joran-food-court-hiver,45.9665349,6.9345584
13545411001,node,,restaurant,Chamonix-Mont-Blanc,"148 Rue du Docteur Paccard, 74400",74400,https://www.breizhcafe.com/chamonix,45.9219128,6.8680273
13938562402,node,Yak,restaurant,Chamonix-Mont-Blanc,"424 Rue Joseph Vallot, 74400",74400,,45.9269616,6.8702908
