osm_id,osm_type,name,category,city,address,postcode,website,lat,lon
59973367,node,Le Corum,attraction,Montpellier,,,,43.6130054,3.8821409
68978355,node,Musée Albert Dubout,museum,Montpellier,,,,43.5342466,3.9343423
71595624,node,A L'Instinct,restaurant,Montpellier,"5 Avenue de Vendargues, 34830, Jacou",34830,https://a-linstinct.odoo.com/,43.6594048,3.9126009
83286505,node,Statue équestre de Louis XIV,artwork,Montpellier,,,,43.6112535,3.870765
105440558,node,Le Ranch,restaurant,Montpellier,,,,43.6294453,3.8701224
105440570,node,Côté Jardin,restaurant,Montpellier,,,https://cotejardin.fr/,43.6300571,3.8706242
147054273,node,Atelier Galerie d'art Jean-Luc Turlure,gallery,Montpellier,"42 Avenue Saint Lazare - Résidence Le Mail 3, 34000, Montpellier",34000,https://www.turlure.com,43.6209792,3.8876303
221797664,node,Les Acacias,hotel,Montpellier,,,,43.618664,3.8706848
246608626,node,Le Grand M,artwork,Montpellier,,,,43.5900478,3.8563552
248086220,node,Hôtel l'Acapulco,hotel,Montpellier,445 Rue Auguste Broussonnet,,,43.6167849,3.8690452
248093198,node,Hospitalet St Charles,hotel,Montpellier,241 Rue Auguste Broussonnet,,,43.6160527,3.8711729
251344346,node,Au Festin du Roi,restaurant,Montpellier,18 Rue du Carré du Roi,,,43.6131115,3.8691846
265363031,node,Galerie municipale Saint-Ravy,gallery,Montpellier,"Place Saint-Ravy, 34000, Montpellier",34000,https://www.montpellier.fr/1893-espace-saint-ravy.htm,43.6091823,3.8769117
267843295,node,Ibis,hotel,Montpellier,,,,43.6098967,3.8845903
280717486,node,La Victoire de Samothrace,artwork,Montpellier,,,,43.60764,3.8957055
280720337,node,Points of View,artwork,Montpellier,,,,43.6089917,3.8947124
282988474,node,,artwork,Montpellier,,,,43.6075917,3.896435
287598125,node,Dionysos,artwork,Montpellier,,,,43.60788,3.8932538
294036937,node,Aphrodite,artwork,Montpellier,,,,43.6080413,3.8907536
295432848,node,Apollon,artwork,Montpellier,,,,43.6084668,3.886397
295432851,node,Discobole,artwork,Montpellier,,,,43.6081144,3.8863437
295433227,node,Jean Jaurès,artwork,Montpellier,,,,43.6099341,3.8777589
299705935,node,Poke Food,restaurant,Montpellier,72 Rue de l'Aiguillerie,,,43.6129173,3.8792581
306651453,node,,restaurant,Montpellier,,,,43.5721485,3.9517671
317556807,node,Au Père Tranquille,restaurant,Montpellier,,,https://www.facebook.com/61587368288027/,43.6221997,3.8975702
317557164,node,Brasserie Midi Café,restaurant,Montpellier,,,,43.6224148,3.8988397
323130276,node,3 Brasseurs,restaurant,Montpellier,"1 Place de France, 34000, Montpellier",34000,https://www.3brasseurs.com/,43.6036824,3.9162494
323141644,node,Il Ristorante,restaurant,Montpellier,"Allée Ulysse, 34000, Montpellier",34000,https://www.ilristorante.fr,43.6034116,3.9162099
323143810,node,Bistro Régent,restaurant,Montpellier,"Allée Ulysse, 34000, Montpellier",34000,https://www.bistro-regent.fr,43.6035917,3.9179428
323143811,node,Au Bureau,restaurant,Montpellier,"1 Allée Ulysse;Place de France, 34000, Montpellier",34000,https://aubureau-montpellier.fr,43.6033649,3.9160416
323143813,node,Casa Inesa,restaurant,Montpellier,"66 Place de France, 34000, Montpellier",34000,https://www.casainesa.com,43.603226,3.9157256
363446917,node,L'Olivia,restaurant,Montpellier,,,,43.6649762,3.8630556
364112057,node,La Table d'Emilie,restaurant,Montpellier,"8 Place Carnot, 34340, Marseillan",34340,https://www.la-table-demilie-marseillan.com,43.3558271,3.5281767
409977861,node,Panoramique du Mont Saint-Clair,viewpoint,Montpellier,,,,43.4022216,3.6855498
409978010,node,Pierres Blanches,viewpoint,Montpellier,,,,43.4036296,3.6687262
430285036,node,La Tavola,restaurant,Montpellier,34340,34340,,43.3538758,3.5323159
430285037,node,Tarverne du Port,restaurant,Montpellier,,,,43.3537826,3.5324943
430285039,node,La Pacheline,restaurant,Montpellier,,,,43.3537611,3.5328886
430285040,node,Brasserie Galinette,restaurant,Montpellier,"20 Quai Antonin Gros, 34340, Marseillan",34340,https://www.brasseriegalinette.com/,43.3536578,3.5331649
462688949,node,La Réserve Rimbaud,restaurant,Montpellier,"820 Avenue de Saint-Maur, 34000, Montpellier",34000,http://reserve-rimbaud.com/,43.6169645,3.8929317
492741623,node,Hôtel les Coquilles,hotel,Montpellier,,,,43.5258437,3.9283266
500199632,node,Vacheval en fers à cheval,artwork,Montpellier,,,,43.6460223,3.8105776
500219030,node,Source de l'Avy,viewpoint,Montpellier,,,,43.6467568,3.7922347
500246346,node,Tour de l'Horloge,monument,Montpellier,,,,43.6481796,3.7968142
500334629,node,Le Château,monument,Montpellier,,,,43.6494473,3.7908349
553101146,node,Le Jardinet,restaurant,Montpellier,,,,43.6040947,3.8823948
553101443,node,L'Escapade,restaurant,Montpellier,,,,43.6047569,3.8825449
559906435,node,Monument érigé en 1871,monument,Montpellier,,,,43.6976283,3.8628056
559934533,node,Le Bistrot Vinaigrette,restaurant,Montpellier,"182 Rue de la Ducque, 34730, Prades-le-Lez",34730,https://www.lebistrotvinaigrette.fr/,43.6971767,3.8654543
566425181,node,Statue Louis Ravaz,monument,Montpellier,,,,43.6183551,3.8561181
566630321,node,L'Etage,restaurant,Montpellier,,,,43.6187842,3.8562421
579739333,node,Chez Vincent,restaurant,Montpellier,,,,43.6165504,3.880033
579814447,node,Sun Osaka,restaurant,Montpellier,71 Avenue Samuel Champlain,,,43.6072804,3.8893447
583260046,node,Le Chat Perché,restaurant,Montpellier,10 Rue du Collège Duvergier,,,43.6134681,3.8791827
598186607,node,Carré Sainte-Anne,attraction,Montpellier,,,,43.6101827,3.8744629
598918887,node,Le Ban des Gourmands,restaurant,Montpellier,5 Place Carnot,,,43.6033694,3.8826831
598921236,node,Parfums d'Asie,restaurant,Montpellier,3 Place de Strasbourg,,,43.6032107,3.8802644
598921514,node,Saveurs d'Afrique,restaurant,Montpellier,,,,43.6045303,3.8825457
598931253,node,La St Louisienne,restaurant,Montpellier,5 Place Carnot,,https://www.facebook.com/lasaintlouisiennemtp/,43.6033966,3.8826027
598936804,node,La Tulipe,restaurant,Montpellier,15 Rue Henri René,,,43.6042512,3.8826349
598975111,node,Parma Pizza,restaurant,Montpellier,19 Rue Henri René,,,43.6039274,3.8826072
598980552,node,Atelier 29,restaurant,Montpellier,29 Rue de la Cavalerie,,https://latelier29.business.site/,43.6170871,3.881105
598998076,node,Chez Pinot,restaurant,Montpellier,,,,43.60887,3.8748754
600736626,node,Café Margaux,restaurant,Montpellier,,,,43.6080559,3.8803341
601145487,node,,restaurant,Montpellier,,,,43.6079232,3.8756034
601145619,node,Le Petit Mickey,restaurant,Montpellier,,,,43.6080067,3.875641
601725037,node,La Cigale,restaurant,Montpellier,,,,43.6113177,3.866483
601728597,node,Cena,restaurant,Montpellier,,,,43.610721,3.8784484
601728801,node,Don Camillo,restaurant,Montpellier,4 Rue de la Petite Loge,,,43.6102932,3.8779405
602012283,node,Rosemarie,restaurant,Montpellier,"3 Rue des Soeurs Noires, 34000, Montpellier",34000,https://www.facebook.com/RosemaryMontpellier,43.6091804,3.8757946
604394277,node,Le Strasbourg,hotel,Montpellier,39 Boulevard de Strasbourg,,http://www.le-strasbourg.com,43.6033694,3.8841691
604581563,node,Hôtel du Palais,hotel,Montpellier,,,https://www.hoteldupalais-montpellier.fr/,43.6116243,3.8739014
605003988,node,Grand Hôtel du Midi,hotel,Montpellier,,,,43.6076841,3.8791479
605004023,node,Brasserie du Théâtre,restaurant,Montpellier,,,https://www.brasseriedutheatre.fr/,43.6074935,3.8789229
605006260,node,Boca,restaurant,Montpellier,,,https://b-o-c-a.com,43.6115184,3.8803473
606155216,node,Black Beef,restaurant,Montpellier,,,https://blackbeef.fr/,43.5919464,3.8742603
606957373,node,Manège de l'esplanade,attraction,Montpellier,,,,43.6101297,3.8806006
607956265,node,Chez Boris,restaurant,Montpellier,,,,43.6100039,3.8803059
607974828,node,l'Indya,restaurant,Montpellier,7 Rue Alfred Bruyas,,,43.6072966,3.8810858
607975082,node,L'Escale,restaurant,Montpellier,9 Rue Alfred Bruyas,,,43.6073627,3.8811314
608101376,node,Le Bol d'Or,restaurant,Montpellier,8 Rue du Clos René,,,43.6066988,3.8801757
608148271,node,Le Verdi,restaurant,Montpellier,10 Rue Aristide Ollivier,,,43.6067621,3.8815482
608165076,node,L'Olivier,restaurant,Montpellier,12 Rue Aristide Ollivier,,,43.6067041,3.8816984
608174291,node,Hôtel de Paris,hotel,Montpellier,,,,43.6067593,3.8819385
608218699,node,L'Assiette au Boeuf,restaurant,Montpellier,4 Rue de Verdun,,,43.6078575,3.8800945
608241787,node,Al Manara,restaurant,Montpellier,4 Rue du Clos René,,,43.6068468,3.880417
608254167,node,Sushi Boat,restaurant,Montpellier,,,,43.6071886,3.880584
608262480,node,L'Entrecôte,restaurant,Montpellier,3 Rue de Verdun,,,43.6078743,3.880292
608275467,node,O saveurs d'Asie,restaurant,Montpellier,4 Rue Boussairolles,,,43.6083935,3.8805451
608297200,node,La Pagode,restaurant,Montpellier,17 Rue Boussairolles,,,43.6076749,3.8815268
608303104,node,Kuma-Ï sushi,restaurant,Montpellier,"16 Rue Boussairolles, 34000, Montpellier",34000,https://kumaisushi.fr/,43.607647,3.8813329
608314484,node,Le Regency,restaurant,Montpellier,4 Rue Cité Benoît,,,43.6065153,3.8835087
608344975,node,Le Métropole Hôtel Oceania,hotel,Montpellier,"3 Rue du Clos René, 34000, Montpellier",34000,,43.6065434,3.8805083
608359781,node,Le Mistral,hotel,Montpellier,25 Rue Boussairolles,,,43.6068628,3.88232
608364475,node,Hôtel de la Comédie,hotel,Montpellier,1 Rue Baudin,,,43.6086772,3.8812103
608365174,node,Hôtel d'Aragon,hotel,Montpellier,10 Rue Baudin,,,43.6083385,3.8818848
608367957,node,Edouard VII,hotel,Montpellier,10 Rue Aristide Ollivier,,,43.6067971,3.8814301
608374667,node,Colisée-Verdun,hotel,Montpellier,22 Rue de Verdun,,,43.6060537,3.8818744
609076764,node,Sicilia,restaurant,Montpellier,20 Rue du Pila Saint-Gély,,https://www.pizzeriasicilia.fr/,43.6136339,3.8802046
609077227,node,Tôt ou Tard,restaurant,Montpellier,7 Place de la Chapelle Neuve,,https://www.letotoutard.fr/,43.6134163,3.878915
609239742,node,Naan Tikka,restaurant,Montpellier,,,,43.6149599,3.8771947
610462161,node,L’Original,restaurant,Montpellier,"16 Rue Henri René, 34000, Montpellier",34000,https://www.loriginal-restaurant-montpellier.fr/,43.6042639,3.8823659
611634696,node,Brasserie Le Dôme,restaurant,Montpellier,,,,43.6051328,3.874381
613225285,node,Les Bains de Montpellier,restaurant,Montpellier,,,,43.6072404,3.8780255
613351517,node,AJM,restaurant,Montpellier,,,,43.6051228,3.884886
614101693,node,L'Essentiel,restaurant,Montpellier,12 Rue du Pont de Lattes,,,43.6047204,3.8830063
614102103,node,La petite Aphrodite,restaurant,Montpellier,,,,43.6049063,3.8830333
614102169,node,House of Indian,restaurant,Montpellier,,,,43.6045815,3.8831349
615020200,node,The Street Food,restaurant,Montpellier,34 Place Jean Bène,,,43.6042458,3.8959475
615025388,node,Morceau de Lune,restaurant,Montpellier,,,,43.6135129,3.880046
615026581,node,The Black Cat,restaurant,Montpellier,"20 Rue de Candolle, 34000",34000,,43.6128563,3.875853
616106079,node,Royal Hôtel,hotel,Montpellier,,,,43.6067609,3.8797465
616106080,node,Hôtel Europa,hotel,Montpellier,,,,43.6068036,3.8799987
616933496,node,L'Encas - Salon de thé et restaurant,restaurant,Montpellier,"21 Rue de Maguelone, 34000, Montpellier",34000,https://lencasmontpellier.fr/,43.6062419,3.8802209
617007934,node,Pizza Papa,restaurant,Montpellier,13 Place de la Comédie,,https://www.pizzapapa.fr/,43.6085565,3.8802685
617007937,node,Crêperie de la Comédie,restaurant,Montpellier,12 Place de la Comédie,,,43.6086026,3.8803581
617025545,node,French Kiss Restaurant Montpellier,restaurant,Montpellier,"4 Rue Jules Ferry, 34000, Montpellier",34000,https://www.frenchkiss.fr/nos-adresses/montpellier,43.6056837,3.8813404
617028087,node,La Tomate,restaurant,Montpellier,,,,43.6080627,3.8748405
617526191,node,,restaurant,Montpellier,,,,43.6091957,3.8900886
620882675,node,Le Petit Jardin,restaurant,Montpellier,"20 Rue Jean-Jacques Rousseau, 34000, Montpellier",34000,https://www.petit-jardin.com/,43.612225,3.8732926
620882676,node,Le Guilhem,hotel,Montpellier,,,,43.6121225,3.8734369
620882677,node,Umami la cinquième saveur,restaurant,Montpellier,"15 Rue Jean-Jacques Rousseau, 34000, Montpellier",34000,https://www.umami-cinquiemesaveur.com/,43.6119661,3.8735697
620882678,node,La Coquille,restaurant,Montpellier,,,,43.6114203,3.8737439
620882679,node,Napoléon Dynamite,restaurant,Montpellier,,,,43.6117433,3.8742437
620882681,node,La Grange,restaurant,Montpellier,,,,43.6124237,3.8729695
620884301,node,Le Carré Chic,restaurant,Montpellier,,,,43.611452,3.8779382
620884303,node,Miao,restaurant,Montpellier,2 Rue Delpech,,,43.611553,3.8779358
620884308,node,Empanadas Club,restaurant,Montpellier,,,,43.6117628,3.8762349
620884558,node,Bombay,restaurant,Montpellier,6 Rue du Pila Saint-Gély,,,43.6131586,3.8796855
621193468,node,Le Puja,restaurant,Montpellier,"3 Rue Ferdinand Fabre, 34090",34090,https://www.restaurantpuja.com/,43.6151253,3.8772967
621195696,node,Tiger Noodles Louis Blanc,restaurant,Montpellier,"4 Boulevard Louis Blanc, 34000, Montpellier",34000,,43.6145917,3.8792747
621197206,node,Le Baron Rouge,restaurant,Montpellier,,,,43.6105382,3.8804343
621197851,node,La ferme de Marguerite,restaurant,Montpellier,,,,43.6039314,3.8877737
622316104,node,Via Pila,restaurant,Montpellier,,,http://www.viapila.com,43.6130644,3.879601
622317000,node,Aux 5 Sens,restaurant,Montpellier,,,,43.616072,3.8799372
622317259,node,Krishna,restaurant,Montpellier,,,,43.6159551,3.8817683
622644806,node,"Chez Valou, Les Souris Dansent",restaurant,Montpellier,"6, 34000, Montpellier",34000,https://www.chez-valou-les-souris-dansent.fr/,43.6095304,3.8771706
628130456,node,Brasserie Lepic,restaurant,Montpellier,,,,43.6012145,3.8634868
628130457,node,Les Myrtes,hotel,Montpellier,,,,43.6006844,3.8666621
635866757,node,Les Beatnik Modernes,restaurant,Montpellier,"22 Rue de l'Université, 34000, Montpellier",34000,,43.612783,3.8768911
635868921,node,L'Oignon Givré,restaurant,Montpellier,"46 Rue de l'Université, 34000, Montpellier",34000,,43.6140306,3.8773178
635868922,node,Kim-Yen,restaurant,Montpellier,"48 Rue de l'Université, 34000, Montpellier",34000,,43.6140728,3.8773324
635879580,node,Bambino Rocco,restaurant,Montpellier,,,,43.6106575,3.8779006
635883714,node,Cucina Nostra,restaurant,Montpellier,,,https://www.instagram.com/cucina_nostra_/,43.6132617,3.8791587
635883719,node,Ma Maison,restaurant,Montpellier,,,,43.6112165,3.8784675
635883720,node,Nawa,restaurant,Montpellier,74 Rue de l'Aiguillerie,,,43.6129757,3.8793702
635883721,node,Delecto,restaurant,Montpellier,"3 Rue des Écoles Laïques, 34000, Montpellier",34000,https://delecto-montpellier.fr/,43.6134712,3.8790069
635883724,node,Les Casseroles en folies,restaurant,Montpellier,,,https://www.facebook.com/LesCasserolesEnFolie/,43.6133514,3.8788172
635903321,node,Kim Hi,restaurant,Montpellier,"5 Rue Proudhon, 34090, Montpellier",34090,,43.6152459,3.8810761
645723690,node,Café Marceau,restaurant,Montpellier,"Cours Gambetta, Montpellier",,,43.6057958,3.8738515
645736539,node,La table du Maroc,restaurant,Montpellier,,,,43.6077937,3.867251
645736568,node,Berlinpinpin,restaurant,Montpellier,,,,43.6071877,3.8710463
645736569,node,Le Barbotin,restaurant,Montpellier,,,,43.6082357,3.8681491
660179400,node,Le Clemenceau,restaurant,Montpellier,,,,43.6045968,3.8737722
660189650,node,Siam Thai Bistro,restaurant,Montpellier,,,,43.6041885,3.8735551
660200997,node,Studio 411,gallery,Montpellier,"19 Avenue Georges Clemenceau, 34000, Montpellier",34000,https://www.studio411.fr/,43.6038366,3.8731017
660247121,node,Pizza Hut,restaurant,Montpellier,,,,43.6012735,3.8685789
660247252,node,Le Fabuleux Brasserie,restaurant,Montpellier,,,,43.6028608,3.8709812
660267566,node,Akatsuki,restaurant,Montpellier,,,,43.6001884,3.8670455
660297370,node,Le Lion,restaurant,Montpellier,,,,43.5990185,3.8661435
664032809,node,Romagna kitchen,restaurant,Montpellier,,,http://romagnakitchen.com,43.6083408,3.8715757
664032820,node,Olla Oasis Urbaine,restaurant,Montpellier,"Boulevard Ledru-Rollin, 34000",34000,https://www.olla-oasisurbaine.com/,43.608584,3.8728722
664040555,node,Les Caves du Courreau,restaurant,Montpellier,,,,43.6084378,3.8704523
664040559,node,Le Canard Laqué,restaurant,Montpellier,,,,43.6084742,3.8702293
664040565,node,Anis et Canisses,restaurant,Montpellier,47 Avenue de Toulouse,,,43.5983737,3.8654178
664040576,node,Les Frères Poulards,restaurant,Montpellier,,,,43.6082671,3.8710726
664040758,node,Au Pays du Levant,restaurant,Montpellier,,,,43.6084811,3.8701816
664073193,node,Le Repalatin,restaurant,Montpellier,,,,43.607077,3.8661139
664073247,node,L'Equateur,restaurant,Montpellier,,,,43.6077988,3.8674963
670134406,node,,castle,Montpellier,,,,43.6783054,4.0925928
674039112,node,La Broche d'Or,restaurant,Montpellier,Avenue de Toulouse,,,43.5940669,3.8604039
674042163,node,MAKIROLL,restaurant,Montpellier,,,,43.6098588,3.8756198
674049723,node,Willamette,restaurant,Montpellier,6 Rue Marioge,,,43.6105844,3.8656807
674054943,node,La Pyramide,restaurant,Montpellier,,,,43.607682,3.8700877
674080496,node,Le Bourdon,restaurant,Montpellier,"35 Rue Saint-Guilhem, 34000",34000,https://restaurant-le-bourdon-montpellier.jimdosite.com,43.6088941,3.8739522
697324858,node,Le Madagascar,restaurant,Montpellier,,,,43.6311964,3.8220104
697326536,node,Traiteur,restaurant,Montpellier,,,,43.6273908,3.8173163
697336015,node,,restaurant,Montpellier,Montpellier,,,43.6245764,3.816853
697338657,node,L'Espadon,restaurant,Montpellier,,,,43.6246286,3.8172922
697354243,node,Menus d'Or,restaurant,Montpellier,,,,43.6210354,3.8171143
711896100,node,Le 19ème,restaurant,Montpellier,"4, 34000, Montpellier",34000,,43.6131466,3.879169
711910210,node,Le Manneken,restaurant,Montpellier,62 Rue de l'Aiguillerie,,,43.6125874,3.879183
711917088,node,El Chivito,restaurant,Montpellier,54 Rue de l'Aiguillerie,,,43.6124247,3.8791806
711917095,node,L'Arganier,restaurant,Montpellier,50 Rue de l'Aiguillerie,,,43.6123278,3.8791802
711917099,node,Le raffiné,restaurant,Montpellier,,,,43.6122299,3.8792704
711994591,node,Le Tire Bouchon,restaurant,Montpellier,,,,43.6101765,3.8777447
711994631,node,Brasserie Régis,restaurant,Montpellier,,,,43.6101027,3.878104
712004009,node,L'Aveyronnais,restaurant,Montpellier,,,https://www.restaurant-laveyronnais.fr/,43.609836,3.8768505
712004014,node,À l'Origine,restaurant,Montpellier,6 Rue de l'Herberie,,,43.6099188,3.87674
712004056,node,Arezzo,restaurant,Montpellier,,,,43.6097644,3.8769357
712099900,node,Quartier Libre,restaurant,Montpellier,,,,43.6106534,3.8755117
712159656,node,La Morue,restaurant,Montpellier,,,,43.6113503,3.8753969
724168983,node,L'Entretemps,restaurant,Montpellier,,,,43.6114653,3.8754204
724168984,node,Vegorilla,restaurant,Montpellier,6 Rue du Puits des Esquilles,,,43.6115013,3.8754035
724171868,node,Les Petits Siamois,restaurant,Montpellier,10 Rue du Pila Saint-Gély,,,43.6133408,3.8798373
724171872,node,Thaï'n House,restaurant,Montpellier,5 Rue des Écoles Laïques,,,43.6136705,3.8789827
724171874,node,Le Grillardin,restaurant,Montpellier,"3 Place de la Chapelle Neuve, 34000, Montpellier",34000,https://www.restaurantlegrillardin.com/,43.6132019,3.8788389
724171876,node,Duo Restaurant,restaurant,Montpellier,2 Place de la Chapelle Neuve,,,43.6131396,3.8789354
724171882,node,Alif tandori,restaurant,Montpellier,,,,43.6137975,3.8790015
724173324,node,Le Bistrok,restaurant,Montpellier,47 Rue de l'Aiguillerie,,,43.6121195,3.8790897
724181322,node,Balthazar,restaurant,Montpellier,,,,43.6114343,3.8761613
724185253,node,Chez Peng Peng,restaurant,Montpellier,"13 Rue de l'Université, 34000, Montpellier",34000,,43.6122691,3.876541
724186512,node,Ma Première Cantine,restaurant,Montpellier,"17 allée James Joule, 26000, Montpellier",26000,alain-millat.com,43.6100008,3.878191
724186529,node,Pinocchio,restaurant,Montpellier,,,https://pinocchio-restaurant.fr/montpellier,43.6098031,3.8780144
724186716,node,L'authentik,restaurant,Montpellier,,,,43.6126892,3.8764655
724186724,node,Li's Raviolis Chinois,restaurant,Montpellier,"23 Rue de l'Université, 34000, Montpellier",34000,,43.6127604,3.8767352
724187834,node,Le méli mélo,restaurant,Montpellier,,,,43.6143321,3.8772512
724205101,node,Maison Maguerite,restaurant,Montpellier,2 Impasse Perier,,,43.6106041,3.876087
724205185,node,Casa du Giorgio,restaurant,Montpellier,,,,43.60966,3.8776775
724207426,node,Ma Cuisine,restaurant,Montpellier,,,,43.6102165,3.8765542
724209675,node,Lou Graillou,restaurant,Montpellier,,,,43.6100479,3.8768083
724215477,node,Chez Toto,restaurant,Montpellier,,,,43.6113126,3.8755498
724215479,node,Aga,gallery,Montpellier,,,,43.6112949,3.8759548
724224714,node,La Buvette,restaurant,Montpellier,"8 Rue de l'Université, 34000, Montpellier",34000,,43.6122539,3.8766327
724224800,node,Les Vignes,restaurant,Montpellier,2 Rue Bonnier d'Alco,,http://www.lesvignesrestaurant.com/,43.6117729,3.8770498
724232881,node,Gino,restaurant,Montpellier,,,,43.6101376,3.8766809
810590570,node,Hôtel du Midi,hotel,Montpellier,,,,43.5359972,3.9555355
810590576,node,Hôtel Restaurant le Grand Large,hotel,Montpellier,,,,43.5385042,3.9613702
810593411,node,Hôtel de la Plage,hotel,Montpellier,,,,43.5333077,3.9486792
888989359,node,,artwork,Montpellier,,,https://space-invaders.com/,43.6084779,3.8745718
888996142,node,,artwork,Montpellier,,,https://space-invaders.com/,43.6092604,3.8768841
889419238,node,,artwork,Montpellier,,,https://space-invaders.com/,43.611815,3.8781221
889433541,node,,artwork,Montpellier,,,https://space-invaders.com/,43.6115589,3.8778363
890301322,node,Les Alizés,hotel,Montpellier,"14 Rue Jules Ferry, Montpellier",,https://hotellesalizes.com/,43.6045934,3.879779
893300365,node,Les deux cyprès jumeaux du Pioch Palat,attraction,Montpellier,,,https://lestetardsarboricoles.fr/wordpress/2017/08/14/les-jumeaux-de-lautoroute-a9-st-aunes-herault,43.6472894,3.9755635
898718530,node,Hôtel Le Richmont,hotel,Montpellier,"48 Allée André Filliol, 34340",34340,,43.3181827,3.5556127
899034019,node,100 sushis,restaurant,Montpellier,"49 Avenue du Professeur Grasset, 34090, Montpellier",34090,,43.626225,3.8662832
910608626,node,,restaurant,Montpellier,,,,43.5521708,4.0074527
918944132,node,La Roque de Saint-Sériès,viewpoint,Montpellier,,,,43.7378212,4.1236643
945086373,node,O'Sushi gourmand,restaurant,Montpellier,,,,43.5330138,3.8613454
945108787,node,,memorial,Montpellier,,,,43.5331715,3.861165
945120572,node,La Chapelle,restaurant,Montpellier,,,https://restaurantlachapelle.fr,43.5297709,3.8641492
945197128,node,Chez Balsan,restaurant,Montpellier,,,,43.5327071,3.8591276
969971432,node,,memorial,Montpellier,,,,43.6636525,4.1795576
1018061162,node,Il Fornetto,restaurant,Montpellier,,,https://pizzeriailfornetto.fr/,43.6072898,3.8892597
1164716448,node,Le Cygory,restaurant,Montpellier,"134 Montée des Picadous, 34980, Montferrier-sur-Lez",34980,,43.6688768,3.8623754
1165324328,node,Musée Languedocien,museum,Montpellier,,,https://www.montpellier-tourisme.fr/offre/fiche/musee-languedocien/PCULAR034V50HLKA,43.6095397,3.8791384
1182521804,node,Musée du Train,museum,Montpellier,,,https://www.ot-palavaslesflots.com/immersion-palavasienne/patrimoine-culture/musee-du-train-et-de-la-voiture-miniature/,43.5329771,3.9323636
1217404974,node,Pourquoi pas ?,restaurant,Montpellier,,,,43.6080634,3.8765389
1230670580,node,Hommage à Confucius,artwork,Montpellier,,,,43.6309171,3.8611014
1230792807,node,La constellation humaine,artwork,Montpellier,,,,43.6202513,3.8181811
1252168860,node,,memorial,Montpellier,,,,43.6098719,3.8822885
1252168901,node,,memorial,Montpellier,,,,43.6102493,3.8828746
1261342142,node,Café de la mairie,restaurant,Montpellier,,,,43.6079065,3.8758019
1261342227,node,Le Toast-Tea,restaurant,Montpellier,,,,43.6089912,3.8763277
1280367484,node,,artwork,Montpellier,,,,43.547569,3.979689
1284535293,node,La Bonne Bouille,restaurant,Montpellier,,,,43.5731922,3.9002743
1284535299,node,,restaurant,Montpellier,,,,43.5718566,3.8998838
1284535307,node,Bistrot d'Ariane,restaurant,Montpellier,,,,43.5721579,3.9004216
1284535317,node,Les 3 Marches,restaurant,Montpellier,,,,43.5732711,3.9004846
1291805392,node,ACD Face à la mer,restaurant,Montpellier,,,,43.3874009,3.6482549
1292890961,node,Couleurs d'ici,restaurant,Montpellier,,,https://www.couleursdici-restaurant.com/,43.5840274,3.8053542
1304006380,node,Cap India Sète,restaurant,Montpellier,"4 Promenade Jean-Baptiste Marty, 34200, Sète",34200,https://www.cap-india-sete.fr/,43.3978086,3.6960716
1312805409,node,Restaumarché,restaurant,Montpellier,,,,43.6135722,3.810421
1333675531,node,Hôtel Pullman Montpellier Antigone,hotel,Montpellier,"1 Rue des Pertuisanes, 34000",34000,http://www.pullmanhotels.com/gb/hotel-1294-pullman-montpellier-antigone/,43.6077907,3.8855283
1342191083,node,Font Putanelle,ruins,Montpellier,,,,43.6176977,3.8698701
1346709171,node,Effet Mer,restaurant,Montpellier,,,,43.5578628,4.0562278
1346745396,node,Packman,restaurant,Montpellier,"11 Avenue Plein Soleil, 34280, La Grande-Motte",34280,,43.5610986,4.0632414
1346745397,node,D'élicia,restaurant,Montpellier,"4 Avenue Plein Soleil, 34280, La Grande-Motte",34280,,43.5608852,4.0634354
1354577227,node,Heng-Lay,restaurant,Montpellier,51 Rue du Faubourg Boutonnet,,,43.6197606,3.8731958
1376239032,node,Le Bayon,restaurant,Montpellier,,,,43.6206601,3.8730151
1392902768,node,Fresque sur le Baillargues d’antan,artwork,Montpellier,,,https://www.baillargues.fr/fresques/,43.660565,4.01428
1392928753,node,Baillargues sous la Révolution,artwork,Montpellier,,,https://www.baillargues.fr/fresques/,43.661002,4.013679
1435190913,node,Musée Noilly Prat,museum,Montpellier,"1 Rue Noilly, 34340, Marseillan",34340,https://www.noillyprat.com,43.3531546,3.5322415
1435190946,node,Le Rive Droit,restaurant,Montpellier,,,,43.3535602,3.5316397
1461387507,node,Ibis Budget Montpellier Centre Millenaire,hotel,Montpellier,25 Rue des Frères Lumière,,,43.6104859,3.9058522
1490799024,node,,artwork,Montpellier,,,,43.398325,3.696735
1490810288,node,,artwork,Montpellier,,,,43.3996218,3.6962142
1490812678,node,,artwork,Montpellier,,,,43.399802,3.696244
1490825089,node,,artwork,Montpellier,,,,43.4014349,3.693922
1490827793,node,,artwork,Montpellier,,,,43.401742,3.693693
1490830551,node,,artwork,Montpellier,,,,43.402075,3.695459
1490832625,node,Le métis,artwork,Montpellier,,,https://www.trompe-l-oeil.info/Murspeints/details.php?image_id=20051,43.402428,3.696288
1490833388,node,,artwork,Montpellier,,,,43.402528,3.694313
1506456021,node,La Terrasse de Candolle,restaurant,Montpellier,"4 Rue du Four Saint-Éloi, 34000",34000,,43.6132165,3.875665
1507465792,node,Observatoire ornithologique,viewpoint,Montpellier,,,,43.5435102,3.9057819
1560238757,node,Angelo,restaurant,Montpellier,2 Place du Nombre d'Or,,,43.6079264,3.8881423
1560698630,node,Le Sens Six,restaurant,Montpellier,,,https://www.lesenssix.fr/,43.6106018,3.8499142
1575679332,node,TramSHOP,restaurant,Montpellier,,,,43.6348507,3.8484972
1585984219,node,La Chistera,restaurant,Montpellier,,,,43.606978,3.8791662
1585984231,node,Bistrot Gilles,restaurant,Montpellier,2 Place Saint-Côme,,https://fr-fr.facebook.com/bistrotgilles/,43.608086,3.876771
1585984236,node,Rocco et sa mère,restaurant,Montpellier,,,,43.6083079,3.8758293
1585984247,node,Montpel',restaurant,Montpellier,,,,43.6080773,3.8764255
1600007371,node,Relais d'Ambrussum,restaurant,Montpellier,,,,43.7200147,4.138714
1601102593,node,Chaud bento,restaurant,Montpellier,,,,43.6159585,3.8791497
1604762508,node,Aux goûts thés de Clara,restaurant,Montpellier,,,,43.6595281,3.9054995
1604774379,node,L'assiette de Jacou,restaurant,Montpellier,"18 Rue Louis Breguet, 34830, Jacou",34830,,43.6593848,3.9038678
1604859881,node,Le Croquant,restaurant,Montpellier,,,,43.6593693,3.9123758
1604859942,node,La Belle Mère,restaurant,Montpellier,,,,43.6594605,3.9121049
1624007003,node,L'écailler des Beaux Arts,restaurant,Montpellier,43 Rue de la Cavalerie,,https://facebook.com/lecailler.beaux.arts/,43.6175913,3.8815797
1635019915,node,Germain Snacking®,restaurant,Montpellier,,,,43.5736244,3.9512467
1635021369,node,Sushi Bar®,restaurant,Montpellier,,,,43.57371,3.9513432
1635026709,node,Mezzo Di Pasta®,restaurant,Montpellier,,,,43.5737508,3.951523
1635026711,node,Häagen-Dazs®,restaurant,Montpellier,,,,43.5735175,3.9511448
1640350345,node,L'Entr'deux,restaurant,Montpellier,"1444 Route de Mende, 34090",34090,https://restaurant-lentrdeux.fr,43.635059,3.8685552
1662734720,node,Le Paddock,restaurant,Montpellier,,,,43.577544,3.8286594
1666067181,node,La Mamma St Roch,restaurant,Montpellier,"1 Rue En-Gondeau, 34000, Montpellier",34000,https://www.la-mamma-st-roch-restaurant-montpellier.com/,43.6077669,3.8759735
1673410364,node,Les Jardins de l'Orchidee,restaurant,Montpellier,,,,43.6037162,3.9190986
1673435259,node,Odiki Sushi,restaurant,Montpellier,"Allée Ulysse, 34000, Montpellier",34000,http://osushium.com/,43.6033609,3.917788
1673435274,node,Ma Première Cantine,restaurant,Montpellier,,,https://mapremierecantine.fr/restaurants-montpellier/index.html,43.6036806,3.9207582
1673503459,node,Le Bistro de Denis,restaurant,Montpellier,,,,43.6057649,3.9062532
1674969686,node,L'Imprévu,restaurant,Montpellier,28 - 30 Avenue de Palavas,,,43.6019836,3.8845695
1679433811,node,Le Méridien,restaurant,Montpellier,"126 Rue Elie Wiesel, 34000",34000,,43.5988628,3.9007978
1684865460,node,Le Réfectoire,restaurant,Montpellier,25 Rue Hippolyte,,,43.6111955,3.8634159
1702675887,node,Star Kebab,restaurant,Montpellier,370 Rue Vendémiaire,,,43.602035,3.8987981
1702685964,node,Autour du Bassin,restaurant,Montpellier,,,https://autourdubassin.com/,43.6004353,3.8987415
1702685977,node,Le Comté,restaurant,Montpellier,,,,43.6005803,3.8989361
1702692966,node,Oléo Pazzo,restaurant,Montpellier,,,,43.5998071,3.8961843
1702731036,node,Bangkok Factory,restaurant,Montpellier,271 Rue Vendémiaire,,,43.6028237,3.8989022
1702787543,node,Jap'asian,restaurant,Montpellier,,,,43.6004037,3.9006045
1702787549,node,Le Comptoir,restaurant,Montpellier,,,,43.6001831,3.8993885
1702787575,node,Le Site,restaurant,Montpellier,,,,43.6002346,3.8996648
1702787582,node,Le Trinque Fougasse,restaurant,Montpellier,,,https://www.trinquefougasse.com/?espace=sud,43.6002872,3.8999484
1702963786,node,,restaurant,Montpellier,13 Rue Frédéric Bazille,,,43.6026632,3.880463
1702963803,node,San Sushi,restaurant,Montpellier,30 Rue Frédéric Bazille,,,43.6017324,3.8823336
1702963829,node,Restaurant Oriental,restaurant,Montpellier,27 Rue Frédéric Bazille,,,43.6022828,3.8811047
1704447876,node,Café Cesar,restaurant,Montpellier,17 Place du Nombre d'Or,,,43.6088289,3.8877207
1704447889,node,Le Punjab,restaurant,Montpellier,16 Place du Nombre d'Or,,,43.6086112,3.8873729
1704447913,node,Edogawa,restaurant,Montpellier,"14 Place du Nombre d'Or, Montpellier",,,43.6084566,3.8871002
1704449641,node,Une histoire de Goût,restaurant,Montpellier,39 Place du Millénaire,,,43.6082636,3.8900275
1704449657,node,Il Gallo Piccolo,restaurant,Montpellier,47 Place du Millénaire,,,43.6082519,3.8901717
1704449678,node,Naka,restaurant,Montpellier,"17 Place du Millénaire, 34000, Montpellier",34000,,43.6083205,3.8892158
1704449690,node,Tam's Coffee,restaurant,Montpellier,51 Place du Millénaire,,,43.6082344,3.8904342
1704449704,node,La Table d'Alexandre,restaurant,Montpellier,41 Place du Millénaire,,,43.6082583,3.8901001
1704449708,node,Ramen Life,restaurant,Montpellier,1 Place du Millénaire,,,43.6082581,3.8887545
1704449711,node,Le Taj Mahal,restaurant,Montpellier,7 Place du Millénaire,,,43.6082666,3.8889323
1704449712,node,Zeugma,restaurant,Montpellier,27 Place du Millénaire,,,43.6082923,3.8896499
1704449739,node,L'Escargotière,restaurant,Montpellier,33 Place du Millénaire,,,43.6082783,3.8898578
1704449743,node,Tiger Noodles,restaurant,Montpellier,11 Place du Millénaire,,,43.6083173,3.8890639
1704461298,node,Vert Tomate,restaurant,Montpellier,23 Place du Nombre d'Or,,https://www.facebook.com/RestaurantMonsieurJules,43.6082912,3.8885187
1704461307,node,Les Bistronomes,restaurant,Montpellier,22 Place du Nombre d'Or,,https://les-bistronomes.fr/,43.60841,3.8881765
1708375683,node,Chez la Tchepe,restaurant,Montpellier,"14 Avenue Louis Tudesq, 34140, Bouzigues",34140,https://www.chezlatchepe.fr,43.447361,3.6575742
1711206781,node,Spizza - Fac de Lettres Montpellier,restaurant,Montpellier,"1444 Route de Mende, 34090, Montpellier",34090,https://www.s.pizza/,43.6353331,3.8687709
1711395886,node,Le Cèdre blanc,restaurant,Montpellier,,,,43.6078606,3.8891996
1711395901,node,Gyraya,restaurant,Montpellier,22 Place du Millénaire,,,43.6078356,3.8894809
1714309569,node,Sensation de Sichuan,restaurant,Montpellier,22 Place Jean Bène,,,43.6040909,3.8957229
1716859781,node,,restaurant,Montpellier,,,,43.6090634,3.8761399
1718509100,node,La Palme d'Orient,restaurant,Montpellier,218 Rue Vendémiaire,,,43.6033777,3.8986117
1718564142,node,Chez Lez Amis,restaurant,Montpellier,"5 Place de la Révolution Française, 34000, Montpellier",34000,https://chez-lez-amis.eatbu.com/?lang=fr,43.6043804,3.8979108
1718564183,node,Brasserie Pompette,restaurant,Montpellier,"117 Place de la Révolution Française, 34000, Montpellier",34000,https://www.brasserie-pompette.com/,43.6044115,3.8977807
1718575679,node,Happy Cantine,restaurant,Montpellier,161 Avenue de Boirargues,,,43.6044891,3.9001222
1718627292,node,Fulltacos,restaurant,Montpellier,,,,43.6014799,3.8983832
1718627297,node,Pizzacosy,restaurant,Montpellier,,,,43.6018469,3.8997325
1719505392,node,Al Andalus,restaurant,Montpellier,"8 Rue Vanneau, 34000, Montpellier",34000,,43.6080983,3.8806789
1719508117,node,Le Bouchon Catalan,restaurant,Montpellier,"21 Rue de la Méditerranée, 34000, Montpellier",34000,https://lebouchoncatalan.wixsite.com,43.6052771,3.8842589
1720532345,node,Burger et Ratatouille,restaurant,Montpellier,"1 Rue Rosset, 34000, Montpellier",34000,https://www.burgeretratatouille.com,43.6110446,3.8777123
1720532348,node,Bistrot des musées,restaurant,Montpellier,,,,43.6102796,3.8792116
1720711427,node,La Taquería,restaurant,Montpellier,11 Rue du Pila Saint-Gély,,,43.6133958,3.8797344
1721122889,node,Tropic Addict,restaurant,Montpellier,,,,43.6071377,3.8806135
1721138019,node,La Bistrote,restaurant,Montpellier,,,,43.6099544,3.8748712
1723077540,node,Hôtel Abbeliss,hotel,Montpellier,,,,43.606223,3.8844815
1727135157,node,Mon Auberge,hotel,Montpellier,"Pont de Lunel, 34400, Lunel",34400,https://www.monauberge.com,43.6930418,4.1634037
1728535838,node,Rhinocéros en bois,artwork,Montpellier,,,,43.6435763,3.877894
1728535839,node,Rhinocéros en bois,artwork,Montpellier,,,,43.643604,3.877928
1732434628,node,Cafet' St Charles,restaurant,Montpellier,,,https://www.crous-montpellier.fr/restaurant/cafet-st-charles/,43.6162124,3.8736618
1733302605,node,Banh Mi Shop,restaurant,Montpellier,24 Rue du Pont de Lattes,,,43.6042565,3.8834778
1736288193,node,Statue de La Liberté,artwork,Montpellier,,,,43.6757174,4.1318763
1736298003,node,Le Palais des Roses,restaurant,Montpellier,"323 Boulevard Saint-Fructueux, 34400, Lunel",34400,https://palaisdesroses34.com/,43.6719682,4.1366045
1738360211,node,Ripailles,restaurant,Montpellier,6 Rue des Écoles Laïques,,,43.6133937,3.8791358
1739563916,node,Le Dom Bosco,restaurant,Montpellier,"88 Avenue du Pont Juvénal, 34000, Montpellier",34000,,43.6053121,3.8916009
1739563947,node,O Beach,restaurant,Montpellier,72 Avenue du Pont Juvénal,,https://www.ristorante-obeach.com/,43.6053045,3.8901492
1739592790,node,Brasserie 96,restaurant,Montpellier,Rue Cavelier de la Salle,,,43.606358,3.8901641
1739826427,node,Pozz'a Pizza,restaurant,Montpellier,,,https://www.pozzapizza.fr/,43.6064371,3.8911612
1739826464,node,Namazu,restaurant,Montpellier,,,,43.6065899,3.8910965
1739838545,node,Aux Arches d'Antigone,restaurant,Montpellier,,,,43.6071891,3.8962459
1739838547,node,Bistrot Romain,restaurant,Montpellier,Esplanade de l'Europe,,,43.6083042,3.8962852
1739838548,node,Bouddha Wok,restaurant,Montpellier,,,,43.6079817,3.8962838
1739838549,node,Hippopotamus,restaurant,Montpellier,,,,43.6082829,3.8965358
1739838550,node,L'Arlequin,restaurant,Montpellier,,,,43.6077625,3.8962416
1739838551,node,Pizza Papa,restaurant,Montpellier,"Esplanade de l'Europe, 34000, Montpellier",34000,https://www.pizzapapa.fr/,43.6069024,3.8963493
1739838552,node,Volfoni,restaurant,Montpellier,,,,43.6079628,3.8964801
1739838553,node,Le Sud,restaurant,Montpellier,,,,43.607732,3.8964576
1739838554,node,Léon,restaurant,Montpellier,108 Avenue du Pirée,,,43.6073353,3.8964016
1739846796,node,Kyriad,hotel,Montpellier,,,,43.6100628,3.8913661
1747991299,node,Statue de Marius Saïn,artwork,Montpellier,,,,43.6040627,3.8959777
1769457750,node,Heliotel,hotel,Montpellier,,,http://www.heliotel.com,43.6516255,3.8672199
1795660405,node,Asa,restaurant,Montpellier,,,,43.6118597,3.8661423
1795750160,node,OD'LYS,restaurant,Montpellier,,,,43.6129726,3.8595475
1795770148,node,Le Cinq,restaurant,Montpellier,,,,43.6112385,3.8672518
1795823663,node,,restaurant,Montpellier,17 Rue Gustave,,,43.6105924,3.8624818
1795858441,node,Momo et sa Mère,restaurant,Montpellier,,,,43.6139949,3.8579245
1796021197,node,Pizza Bruno,restaurant,Montpellier,,,,43.6149343,3.8568727
1805020948,node,Les 4 étoiles,hotel,Montpellier,,,,43.6104547,3.8637754
1826263857,node,Le Patio,restaurant,Montpellier,,,,43.7239028,4.0387838
1832999122,node,Chez Maxime,restaurant,Montpellier,"1 Avenue des Cormorans, 34110, Frontignan",34110,https://chezmaximefrontignan.com/,43.4341424,3.778461
1833093607,node,Le MG,restaurant,Montpellier,"Zone technique du Port, 34110, Frontignan",34110,https://restaurant-mg.fr/,43.4349772,3.7731559
1833730329,node,Le Barracuda,restaurant,Montpellier,"Avenue Vauban Port ouest, Frontignan",,,43.4334418,3.7757353
1846854147,node,Pizza Valentino,restaurant,Montpellier,,,,43.6083976,3.8737386
1846855374,node,Le Pastis,restaurant,Montpellier,"3 Rue Terral, 34000, Montpellier",34000,https://pastis-restaurant.com/,43.609963,3.8738071
1846856168,node,Menjia,restaurant,Montpellier,"26 Rue Terral, 34000",34000,,43.6095179,3.8728781
1848110522,node,,restaurant,Montpellier,,,,43.5578149,4.0539412
1848110557,node,La Paillotte,restaurant,Montpellier,,,,43.55729,4.0447895
1848110594,node,La Voile Bleue,restaurant,Montpellier,,,,43.5568352,4.0391089
1862055066,node,"Restaurant ""La Mini Vague""",restaurant,Montpellier,"34110, Frontignan",34110,,43.4337943,3.7769411
1864450476,node,Lady Sushi,restaurant,Montpellier,"1 Rue Fon de l'Hospital, 34430, Saint-Jean-de-Védas",34430,https://www.lady-sushi.fr/,43.577684,3.8280425
1864450498,node,L'inattendu,restaurant,Montpellier,,,,43.5767149,3.828636
1864450532,node,Le Temps Suspendu,restaurant,Montpellier,,,,43.5784806,3.8353543
1871936782,node,Camélé Oh,restaurant,Montpellier,"Avenue du Vidourle, 34400, Lunel",34400,https://www.cameleoh.fr,43.6841985,4.1525205
1871936792,node,La Fringale,restaurant,Montpellier,"781 Avenue du Vidourle, 34400, Lunel",34400,http://lafringale-lunel.com,43.6842172,4.15271
1872872748,node,La Louve,restaurant,Montpellier,,,,43.6232191,3.8633329
1883009797,node,Mizzica,restaurant,Montpellier,"1116 Chemin des Bœufs, 34400, Lunel",34400,,43.6872776,4.1272108
1907391536,node,Le Corleone,restaurant,Montpellier,"9 Avenue du Général de Gaulle, 34400, Lunel",34400,,43.6758294,4.139021
1909814913,node,La Belle Souad,restaurant,Montpellier,"18 Avenue Aglaé Adanson, 34080, Montpellier",34080,https://labellesouad.fr/,43.6344771,3.8327717
1917396290,node,Stèle Exodus 47,memorial,Montpellier,,,,43.3954288,3.6982715
1917396291,node,Mémorial Héraultais Algérie Tunisie Maroc 1952 - 1962,memorial,Montpellier,,,,43.3924074,3.6906314
1917396436,node,,viewpoint,Montpellier,,,,43.3941988,3.692858
1917396437,node,Sinaïa 1939 : L'exil républicain espagnol de Sète à Veracruz,memorial,Montpellier,,,,43.3964712,3.7014419
1930223532,node,A Tribord,restaurant,Montpellier,,,,43.5728699,3.8984561
1933505389,node,Le Lazaret,hotel,Montpellier,,,https://www.lazaretsete.com/,43.3941322,3.6739621
1961305219,node,Pizza Bella,restaurant,Montpellier,"3 Rue Général de Gaulle, 34340, Marseillan",34340,,43.356126,3.5276753
1964228636,node,Musée international des Arts modestes,museum,Montpellier,27 Quai du Maréchal de Lattre de Tassigny,,https://miam.org/,43.4060674,3.6961935
1968608968,node,L'Atelier Gourmand,restaurant,Montpellier,,,,43.6065409,3.8847879
1982921863,node,Bistrot City,restaurant,Montpellier,,,,43.590994,3.8562694
1990702580,node,L'Essentiel,restaurant,Montpellier,"292 Promenade du Lido, 34200, Sète",34200,https://www.lessentielsete.com/,43.3903153,3.6523719
1990702581,node,Le Cube Sétois,restaurant,Montpellier,294,,,43.3902686,3.6521982
1990702582,node,Bikini Plage,restaurant,Montpellier,290,,,43.3903406,3.6525697
2031569604,node,Hommage aux fusillés du 24 août 1944,memorial,Montpellier,,,,43.6691885,3.8623834
2054107337,node,,artwork,Montpellier,,,,43.631117,3.8421696
2054149003,node,Le Ranch Pizzeria,restaurant,Montpellier,,,,43.6294234,3.8704273
2055861865,node,Château de Montlaur,castle,Montpellier,"34160, Montaud",34160,,43.7540455,3.9708148
2056202951,node,Il Forno,restaurant,Montpellier,"Louis Buis, 34160, Sussargues",34160,,43.7125222,4.0046582
2065486107,node,Resto-self Village du Père Soulas,restaurant,Montpellier,,,,43.6300423,3.844467
2065508011,node,La Cigalière,restaurant,Montpellier,"2220 Avenue du Père Soulas, Montpellier",,,43.6285509,3.8460493
2078140296,node,Le Saint-Eloi,restaurant,Montpellier,,,,43.623972,3.8672704
2078140297,node,Le Saint-Eloi,hotel,Montpellier,"27 Avenue du Professeur Grasset, 34000, Montpellier",34000,,43.6240348,3.8672467
2078180957,node,,restaurant,Montpellier,,,,43.595585,3.8880815
2078180960,node,Chez Oopie,restaurant,Montpellier,,,,43.5967555,3.8871907
2089795244,node,,memorial,Montpellier,,,,43.5009218,3.6076885
2123914632,node,Pizzeria,restaurant,Montpellier,Place d'Italie,,,43.6426454,3.8186858
2123997677,node,Poke Wave,restaurant,Montpellier,"1b Rue de Verdun, 34000, Montpellier",34000,,43.6080951,3.8801321
2153027935,node,Curry Masala,restaurant,Montpellier,15 Rue du Pila Saint-Gély,,,43.6135206,3.8798712
2156280044,node,Délicatessen Apéro Dînette,restaurant,Montpellier,"4 Place Géneral Guillaut, 34340, Marseillan",34340,,43.3556752,3.5289177
2159366507,node,Le Déclic,restaurant,Montpellier,20 Allée Antonin Chauliac,,,43.6136898,3.8303026
2159534751,node,Le P'tit Thaï,restaurant,Montpellier,22 Route de Lodève,,,43.614656,3.829066
2189947016,node,La Maison portugaise,restaurant,Montpellier,"35 Rue Blanche de Castille, 34250",34250,,43.5271923,3.9293293
2228674715,node,Les Caves Jean Jaurès,restaurant,Montpellier,,,,43.6099485,3.8786462
2228674724,node,La Part des Anges,restaurant,Montpellier,"10 Rue Collot, 34000, Montpellier",34000,https://www.lapartdesangesmontpellier.com/,43.6098941,3.8786006
2231694110,node,Le Phare,restaurant,Montpellier,,,http://www.restaurantlephare.fr/,43.5285233,3.9320568
2238799246,node,Observatoire ornithologique,viewpoint,Montpellier,,,,43.5518079,3.9035748
2238827065,node,Observatoire ornithologique,viewpoint,Montpellier,,,,43.5577215,3.9061203
2244412926,node,Musée Paul Valéry,museum,Montpellier,,,,43.3953827,3.6906637
2244886196,node,House Pizza,restaurant,Montpellier,"Rue du Professeur Joseph Anglada, 34090",34090,,43.6312873,3.8543744
2252921971,node,Bane Lao,restaurant,Montpellier,,,,43.6061624,3.8754298
2252921977,node,l'observatoire libanais,restaurant,Montpellier,"40 Rue des Étuves, 34000, Montpellier",34000,,43.6066339,3.8763833
2279977145,node,Titou Pizza,restaurant,Montpellier,,,,43.6133276,3.9052651
2286486516,node,Fours à chaux,ruins,Montpellier,,,,43.6262785,3.7772801
2292333435,node,Grillad'Oc,restaurant,Montpellier,,,,43.6073528,3.880644
2296232731,node,,memorial,Montpellier,,,,43.7703885,4.02019
2296368206,node,Chez Dassé René,restaurant,Montpellier,"Avenue de Montpellier, 34140, Mèze",34140,https://www.tielles-dasse-rene.com,43.4299949,3.6100152
2305313100,node,Locomotive n° 81,attraction,Montpellier,,,,43.5894657,3.8908743
2336211352,node,Ô Délices des Saveurs,restaurant,Montpellier,,,,43.6053751,3.8831091
2336211359,node,Le Maquis,restaurant,Montpellier,,,,43.6053014,3.8835697
2344228819,node,âM20,restaurant,Montpellier,"209 Rue du Lavoir, 34400, Lunel",34400,https://www.am20-restaurant.fr,43.6760697,4.128565
2363219116,node,,restaurant,Montpellier,"612 Rue de la Croix de Lavit, Montpellier",,,43.6394916,3.8388663
2365533747,node,L'épicurien,restaurant,Montpellier,,,,43.6059787,3.8757489
2369762271,node,,viewpoint,Montpellier,,,,43.7142154,4.1494083
2387947975,node,Bouillon Maurel,restaurant,Montpellier,,,,43.608521,3.874794
2392611838,node,La Jalade,restaurant,Montpellier,,,http://www.restaurant-lajalade-34.com,43.6287781,3.862345
2403444012,node,Taco Loco,restaurant,Montpellier,,,,43.6306042,3.8710515
2428120442,node,L'Artichaut,restaurant,Montpellier,,,https://www.artichaut-restaurant.com/,43.610371,3.8755596
2428120443,node,Les Enfants Rouges,restaurant,Montpellier,11,,,43.6102283,3.875931
2447114989,node,ibis Montpellier Centre Comédie,hotel,Montpellier,,,,43.6090316,3.882694
2451700157,node,,artwork,Montpellier,,,,43.6282705,3.8652444
2455508453,node,Brasserie Le Vauban,restaurant,Montpellier,40 Avenue Victor Hugo,,,43.4108861,3.6974049
2455515177,node,Bienvenue,hotel,Montpellier,,,,43.410662,3.6975182
2455588076,node,Le Victor Hugo,restaurant,Montpellier,30 Avenue Victor Hugo,,,43.4093976,3.6979986
2455588108,node,Isola Bella,restaurant,Montpellier,32 b Avenue Victor Hugo,,,43.4099588,3.6977826
2455589246,node,La Boîte à Pizza,restaurant,Montpellier,1 Impasse du Troisième Triolet,,,43.4103874,3.6769446
2455589270,node,Fratello'sss Pizza,restaurant,Montpellier,,,,43.4108429,3.6783144
2455589299,node,Le Twin's,restaurant,Montpellier,,,,43.4113945,3.6797359
2455645181,node,Punjab,restaurant,Montpellier,17 Rue Paul Valéry,,,43.4015228,3.6949367
2455645229,node,Snack & Cie,restaurant,Montpellier,"23 Rue Paul Valéry, 34200, Sète",34200,,43.4014969,3.6946481
2455647988,node,Le Portofino,restaurant,Montpellier,,,,43.4094482,3.6981856
2455649800,node,Tielles et Pizzas Paradiso,restaurant,Montpellier,,,,43.4038125,3.6966871
2455654698,node,Sur le pouce,restaurant,Montpellier,,,,43.4017558,3.6955527
2455654717,node,Homard et dindon,restaurant,Montpellier,,,,43.4018207,3.6955482
2455672125,node,Café de Paris,restaurant,Montpellier,2 Rue Frédéric Mistral,,,43.4025199,3.6969386
2455672128,node,Hôtel de Paris,hotel,Montpellier,,,,43.4024848,3.6967805
2455700872,node,Chez David,restaurant,Montpellier,,,,43.411677,3.68812
2455723353,node,Au Poisson Bleu,restaurant,Montpellier,3 Quai Léopold Suquet,,,43.4029381,3.6977494
2455723415,node,7 Galerie,gallery,Montpellier,,,,43.4051129,3.6972822
2455723434,node,Pasta Politi,restaurant,Montpellier,,,,43.4024317,3.6978561
2456618881,node,Jop Chouchou,restaurant,Montpellier,,,,43.4043633,3.6984276
2456618888,node,L'Auberge,restaurant,Montpellier,"15 Rue Pierre Semard, 34200, Sète",34200,http://www.lauberge.eu/,43.403837,3.6996418
2456618898,node,La Pomme de Pin,restaurant,Montpellier,"21 Rue Pierre Semard, 34200, Sète",34200,https://belnato.wixsite.com/la-pomme-de-pin,43.4041496,3.699629
2456618904,node,La Sardaigne,restaurant,Montpellier,,,,43.4034323,3.6996488
2456632892,node,Mac Naan,restaurant,Montpellier,,,,43.4047395,3.7003193
2456632912,node,Restaurant du Port,restaurant,Montpellier,5 Place Delille,,,43.4046082,3.7005778
2456633194,node,Le Pain Gourmand,restaurant,Montpellier,,,,43.4088713,3.697724
2456640090,node,Le Grillon,restaurant,Montpellier,3 Rue du 11 Novembre 1918,,,43.4040778,3.6941971
2456646342,node,San Paolo,restaurant,Montpellier,,,,43.407096,3.6977334
2456659172,node,La palette de bœuf,restaurant,Montpellier,,,,43.4077289,3.6981668
2456659389,node,Art à 7,gallery,Montpellier,,,,43.4050057,3.6942687
2456668879,node,La Palmeraie,restaurant,Montpellier,,,,43.3999828,3.6997569
2456670288,node,Les amis de Georges,restaurant,Montpellier,38 bis Rue Maurice Clavel,,,43.4052678,3.6981799
2456670306,node,Grill Lou Biou,restaurant,Montpellier,,,,43.402999,3.6994961
2456670319,node,The Marcel,restaurant,Montpellier,"7 Quai Léopold Suquet, 34200, Sète",34200,,43.4026612,3.698405
2456772357,node,Perle d'Asie,restaurant,Montpellier,"4 Rue de la Savonnerie, 34200, Sète",34200,,43.4017252,3.698125
2458706356,node,,viewpoint,Montpellier,,,,43.4827949,3.7324661
2462963445,node,Les Hockeyeurs,restaurant,Montpellier,,,,43.6142503,3.8865457
2463017440,node,Aldo Pizzas,restaurant,Montpellier,,,,43.6224874,3.898856
2463874401,node,Brasserie 3BBB,restaurant,Montpellier,,,,43.6246984,3.8994264
2463915404,node,Tacos King,restaurant,Montpellier,,,,43.6209312,3.8973421
2469975627,node,Hôtel Les Dunes,hotel,Montpellier,"4 Chemin des Pêcheurs, 34340",34340,,43.3252549,3.5628773
2479893240,node,Miam,restaurant,Montpellier,,,,43.6483007,3.8630443
2481218717,node,Folia,restaurant,Montpellier,,,https://www.flaugergues.com/restaurant-flaugergues.html,43.6102748,3.9187392
2482318280,node,Les Sables d'Or,hotel,Montpellier,"339 Place Édouard Herriot, 34200, Sète",34200,https://www.hotel-sablesdor.com,43.3941271,3.6772042
2482400033,node,Venezia,hotel,Montpellier,"20 Corniche de Neuburg, 34200, Sète",34200,https://www.hotel-sete.com/,43.3931742,3.6753356
2482410227,node,Saveur d'Asie,restaurant,Montpellier,"19 Rue Montmorency, 34200, Sète",34200,,43.4064912,3.6933109
2482488698,node,La Ressource,restaurant,Montpellier,"1527 Promenade Maréchal Leclerc, Sète",,,43.3941033,3.6777685
2482538462,node,L'Orque Bleue,hotel,Montpellier,"9 Quai de l'Aspirant Herber, 34200, Sète",34200,,43.4008884,3.6978957
2482538463,node,Le Boucanier,restaurant,Montpellier,"4 Quai Aspirant Herber, 34200, Sète",34200,,43.4013684,3.6978764
2485168081,node,,restaurant,Montpellier,"118 Rue Jean Vilar, Sète",,,43.3943444,3.6786713
2502840459,node,Magic Pizza,restaurant,Montpellier,,,,43.6486673,3.8314457
2514315827,node,Class'croute,restaurant,Montpellier,,,,43.611108,3.9128356
2519998445,node,Mémorial Brassens,memorial,Montpellier,,,,43.3920255,3.6640861
2520186728,node,Hotel de la Plage,hotel,Montpellier,"64 A Route de la Corniche de Neuburg, 34200, Sète",34200,https://hoteldelaplagesete.com,43.3940609,3.6657022
2520186731,node,L'inévitable,restaurant,Montpellier,,,,43.3940314,3.6653949
2520687913,node,Mémorial aux martyrs de la Résistance,artwork,Montpellier,,,http://les-morel-a-l-huissier.info/AASETE/set04a.htm,43.392947,3.6843328
2521319917,node,Port Marine,hotel,Montpellier,,,,43.39528,3.6942908
2521384152,node,La Marine,restaurant,Montpellier,"30 Quai Général Durand, 34200, Sète",34200,https://www.restaurant-lamarine.fr/,43.3999616,3.6964773
2521384153,node,La Palangrotte,restaurant,Montpellier,,,,43.3995215,3.6963012
2521384154,node,Le Bistrot du Port,restaurant,Montpellier,"31 Quai Général Durand, 34200, Sète",34200,https://le-bistrot-du-port-sete.eatbu.com,43.3997978,3.6964552
2521444565,node,La Suite By les 2 Ramiers,restaurant,Montpellier,"1 Rue Paul Valéry, 34200, Sète",34200,,43.401624,3.6969013
2521561728,node,,artwork,Montpellier,,,,43.3951284,3.6948752
2521592359,node,La Véradier,restaurant,Montpellier,"1 Promenade Jean-Baptiste Marty, 34200, Sète",34200,,43.3980134,3.6961414
2521889879,node,Pimpant,restaurant,Montpellier,82 Grand Rue Mario Roustan,,,43.3989277,3.6960667
2521897826,node,Monte Christo,restaurant,Montpellier,"31 Quai Général Durand, 34200, Sète",34200,https://lemontechristo.com/,43.3995803,3.6963339
2522687151,node,L'Escale,restaurant,Montpellier,,,,43.4005478,3.6965933
2522687152,node,Le Cabestan,restaurant,Montpellier,,,,43.4003508,3.6965356
2522687158,node,,artwork,Montpellier,,,,43.3996623,3.6968141
2522693687,node,La Calanque,restaurant,Montpellier,"17 Quai du Général Durand, 34200, Sète",34200,https://restaurantlacalanquesete.com/,43.4009296,3.6966999
2522695403,node,Chez Jojo,restaurant,Montpellier,35 Grand Rue Mario Roustan,,,43.4010895,3.6967445
2522695404,node,Le Grand Bleu,restaurant,Montpellier,15 Quai Général Durand,,,43.4012506,3.6967902
2523378806,node,L'Olivier,restaurant,Montpellier,"1 Quai de l'Aspirant Herber, 34200, Sète",34200,,43.40171,3.6978987
2523382562,node,Le Bistrot du Pêcheur,restaurant,Montpellier,"23 Grand Rue Mario Roustan, 34200, Sète",34200,,43.4015087,3.6968706
2523479266,node,Centre Regional d'Art Contemporain,artwork,Montpellier,,,,43.3989634,3.6981208
2529659858,node,,memorial,Montpellier,,,,43.4041154,3.6969677
2529681698,node,Au Feu de Bois,restaurant,Montpellier,"8 bis Rue Frédéric Mistral, 34200, Sète",34200,https://www.restaurant-grill-aufeudebois-sete.com,43.4024265,3.6961783
2554015698,node,Monument Planchon,artwork,Montpellier,,,,43.6058312,3.8799206
2554039477,node,,artwork,Montpellier,,,https://space-invaders.com/,43.610971,3.8770089
2663189106,node,Le Shelter,restaurant,Montpellier,"11 Rue Saint-Firmin, 34000, Montpellier",34000,,43.6105219,3.8753575
2707459696,node,,memorial,Montpellier,,,,43.6471903,3.8004701
2734357593,node,Borne milliaire de Saint-Aunès,monument,Montpellier,,,,43.6365403,3.9658718
2734379252,node,,viewpoint,Montpellier,,,,43.6203018,3.7630691
2742299579,node,Eat Sushi,restaurant,Montpellier,,,,43.6068452,3.8760115
2742299585,node,SHAMS PIZZA KEBAB,restaurant,Montpellier,,,,43.6058471,3.8754995
2742299587,node,La Trattoria,restaurant,Montpellier,,,,43.6063903,3.8759639
2790416576,node,La Maison de Camille,restaurant,Montpellier,,,,43.353529,3.5336342
2790416627,node,Brasserie du Soleil,restaurant,Montpellier,,,,43.3539347,3.5320912
2790416648,node,L'Autentico,restaurant,Montpellier,,,,43.3546694,3.5294106
2792340486,node,Point de vue,viewpoint,Montpellier,,,,43.4609494,3.6849083
2792893685,node,Planet kebab,restaurant,Montpellier,,,,43.6037013,3.8985718
2793007457,node,Berthe,restaurant,Montpellier,,,https://berthe-restaurant.fr/,43.6003409,3.9013467
2808022646,node,Sur le Pouce,restaurant,Montpellier,,,,43.6123076,3.870136
2813222343,node,,artwork,Montpellier,,,,43.4896638,3.6708997
2838379369,node,Presqu'île du Ponant,hotel,Montpellier,,,,43.5635024,4.1033174
2844303680,node,Le Haut de la Fontanaride,viewpoint,Montpellier,,,,43.6905949,3.9419032
2874637361,node,Art Mango,restaurant,Montpellier,,,,43.606737,3.8773667
2896656337,node,,ruins,Montpellier,,,,43.4617775,3.7419179
2919581001,node,Colonne Saint-Éloi,artwork,Montpellier,,,,43.626655,3.8664418
2923605432,node,Vierge,artwork,Montpellier,,,,43.6972284,3.8627422
2924614902,node,,memorial,Montpellier,,,,43.5493176,3.7079521
2926382480,node,Pizza Fabio,restaurant,Montpellier,"32 Avenue Pierre Racine, 34280, La Grande-Motte",34280,https://pizzafabiolgm.com/,43.5590774,4.0851946
2929291563,node,,artwork,Montpellier,,,,43.6602775,3.96528
2946118577,node,Bar Le Passage,restaurant,Montpellier,"26 Rue du Passage, 34200, Sète",34200,https://www.tourisme-sete.com/le-passage-sete.html,43.4129995,3.6921718
2948065135,node,Jean Jaurès,memorial,Montpellier,,,,43.6104492,3.8816162
2948065136,node,Le Petit Dauphin,restaurant,Montpellier,,,,43.6068467,3.8816996
2948065171,node,,memorial,Montpellier,,,,43.6111637,3.8818834
2948065175,node,,memorial,Montpellier,,,,43.611853,3.88195
2948065179,node,,memorial,Montpellier,,,,43.6121386,3.8820314
2949663350,node,Bistrot Urbain,restaurant,Montpellier,,,https://www.bistrourbain.com/,43.6085338,3.8737587
2949663351,node,A Favela,restaurant,Montpellier,,,,43.6084816,3.8736451
2950814135,node,Hôtel Nova,hotel,Montpellier,,,,43.6070238,3.8778195
2950814136,node,Hôtel des Arts,hotel,Montpellier,,,,43.6064089,3.8778351
2950822133,node,Empanadas Club,restaurant,Montpellier,,,,43.6079538,3.8773387
2951507233,node,Ceba,restaurant,Montpellier,,,,43.6124411,3.8790813
2955520001,node,Hakko,restaurant,Montpellier,"20 Rue Jacques Coeur, 34000",34000,,43.6100079,3.8792516
2957470196,node,Pirates Paradise,restaurant,Montpellier,"Allée Ulysse, 34000, Montpellier",34000,https://montpellier.pirates-paradise.fr/,43.6035058,3.9170927
2996805763,node,Borne Milliaire (Via Domitia),monument,Montpellier,,,,43.6441835,3.9131694
3033545969,node,Le Pêcheur,artwork,Montpellier,,,,43.5256689,3.9353765
3033545970,node,Neptune,artwork,Montpellier,,,,43.5283186,3.928776
3033578429,node,,viewpoint,Montpellier,,,,43.5524902,3.967119
3039554802,node,Sushi Time,restaurant,Montpellier,"9 Rue Boussairolles, 34000, Montpellier",34000,,43.6080079,3.8811318
3039554804,node,Hôtel Kalliste,hotel,Montpellier,"14 Rue Boussairolles, 34000, Montpellier",34000,http://www.hotelkalliste.com,43.6077265,3.8812457
3039554805,node,Il Pizzaiolo,restaurant,Montpellier,"14 Rue Boussairolles, 34000, Montpellier",34000,https://www.il-pizzaiolo.fr/pizzas-montpellier/,43.6077788,3.881182
3076630535,node,Vent Debout,artwork,Montpellier,,,,43.5563514,4.0863019
3076630537,node,,artwork,Montpellier,,,,43.5560685,4.0926734
3076630736,node,Séréna,artwork,Montpellier,,,,43.5597527,4.0830308
3127515306,node,Roony's,restaurant,Montpellier,"49 Rue de l'Aiguillerie, 34000, Montpellier",34000,,43.6121702,3.8790936
3141681429,node,Brasserie des Finances,restaurant,Montpellier,,,,43.6037791,3.8678848
3142082300,node,,artwork,Montpellier,,,,43.4241208,3.6102748
3145365368,node,,memorial,Montpellier,,,,43.6033281,3.8674692
3146485706,node,,viewpoint,Montpellier,,,,43.5357145,3.812076
3157824144,node,Chez la Tunisienne,restaurant,Montpellier,,,,43.6047164,3.8696498
3157825230,node,La Table des Poètes,restaurant,Montpellier,"2 Rue Desmazes, 34000, Montpellier",34000,https://la-table-des-poetes.com/,43.6048347,3.8694815
3157825232,node,La Rose de Damas,restaurant,Montpellier,,,,43.6044544,3.8688713
3157995978,node,BBQ Grill,restaurant,Montpellier,,,,43.49238,3.7037097
3158005737,node,,memorial,Montpellier,,,,43.4998363,3.712547
3158011392,node,Monument de la République Française 24-02-1893,artwork,Montpellier,,,,43.5000827,3.7112148
3158033864,node,La Coccinelle,restaurant,Montpellier,,,,43.5003165,3.7108568
3172823673,node,La Cantoch',restaurant,Montpellier,,,,43.6245587,3.8381075
3172823674,node,Ma Pause Dej',restaurant,Montpellier,,,,43.624224,3.838009
3173773007,node,La Prose,restaurant,Montpellier,"Avenue Georges Frêche, 34470, Pérols",34470,https://www.la-prose-dejeuner-restaurant-perols.com,43.5744966,3.9406818
3174812608,node,Pizzeria Fino,restaurant,Montpellier,"Avenue Georges Frêche, 34470, Pérols",34470,https://pizzeriafino.fr/,43.5739097,3.9451492
3193696562,node,Heliotel,restaurant,Montpellier,,,http://www.heliotel.com,43.6515934,3.8671011
3227238677,node,,artwork,Montpellier,"30 Boulevard Berthelot, 34000, Montpellier",34000,,43.5997153,3.8753066
3231508105,node,La Maison,restaurant,Montpellier,,,,43.5762301,3.9099077
3236990523,node,Pressoir de rasin,artwork,Montpellier,"Allée des Meulières, 34170, Castelnau-le-Lez",34170,,43.6485984,3.9229494
3320754550,node,Les Alizés,hotel,Montpellier,,,,43.5277685,3.9323904
3344184716,node,,viewpoint,Montpellier,,,,43.6243527,3.7984694
3383017259,node,L'Atelier Gourmand Restaurant d'Application Purple Campus Montpellier,restaurant,Montpellier,"2300 Avenue des Moulins, 34185, Montpellier",34185,,43.6215245,3.8322851
3392942376,node,,restaurant,Montpellier,"18 Rue d'Alger, 34000, Montpellier",34000,,43.6045347,3.8776407
3393055145,node,Pampa y Luna,restaurant,Montpellier,"13 Place Roger Salengro, Montpellier",,,43.6069187,3.8668946
3393055150,node,Le Sphinx,restaurant,Montpellier,"3 Place Roger Salengro, Montpellier",,,43.6073832,3.8672945
3398730354,node,Royal Orchid,restaurant,Montpellier,,,,43.6045218,3.8796717
3410470063,node,Le Bilig's,restaurant,Montpellier,"16 Quai Paul Cunq, 34250, Palavas-les-Flots",34250,,43.52818,3.9304077
3439437402,node,Le Grill,restaurant,Montpellier,"588 Avenue du Général de Gaulle, 34400, Lunel",34400,,43.6796219,4.1440613
3452220613,node,Moulin,ruins,Montpellier,,,,43.6908847,4.0125438
3465129723,node,Le Petit Lézard,restaurant,Montpellier,,,,43.5300456,3.935445
3474908293,node,B&b Hôtel Montpellier (2),hotel,Montpellier,"Place de la Méditerranée, 34430, Saint-Jean-de-Védas",34430,https://www.hotel-bb.com,43.5666759,3.8360691
3474962693,node,B&b Hôtel Montpellier (1),hotel,Montpellier,"21 Rue Robert Schuman, 34430, Saint-Jean-de-Védas",34430,https://www.hotel-bb.com,43.5669584,3.8368817
3481343893,node,B&b Hôtel,hotel,Montpellier,"1211 Rue de la Vieille Poste, 34000, Montpellier",34000,https://www.hotel-bb.com/fr/-/hotelByName.htm?id=4561,43.617,3.911
3484083769,node,Au Grands Enfants,restaurant,Montpellier,,,,43.5998603,3.9026821
3484086539,node,MIA,restaurant,Montpellier,,,,43.6007605,3.9023535
3484086540,node,La Kitchenette,restaurant,Montpellier,"40 Allée Alberto Giacometti, 34000, Montpellier",34000,,43.6011606,3.9022274
3487421750,node,Brasserie Laissac,restaurant,Montpellier,"Boulevard de l'observatoire, Montpellier",,,43.6062879,3.8763043
3519020170,node,Bois de Rieu Coullon,park,Montpellier,,,,43.725781,3.8717571
3552109011,node,,memorial,Montpellier,,,,43.7326462,4.1408984
3592283576,node,Le Jasmin,restaurant,Montpellier,"1 Bis Rue Durand, 34000, Montpellier",34000,,43.6057561,3.877088
3605334509,node,Lamparo,restaurant,Montpellier,,,,43.5425568,3.9741871
3625540906,node,Belvédère de Coste Rousse,viewpoint,Montpellier,,,,43.6922809,3.8663273
3625554002,node,Le Melody,restaurant,Montpellier,,,,43.6128194,3.8746243
3625629569,node,Maison Soubeiran,restaurant,Montpellier,"129 Cours Gabriel Péri, 34400, Lunel",34400,https://lebistrotdecaro.fr,43.6750318,4.1327773
3629381253,node,El Pincho Loco,restaurant,Montpellier,,,,43.61446,3.8799465
3629381255,node,Playfood,restaurant,Montpellier,"16 Boulevard Louis Blanc, 34000, Montpellier",34000,https://www.playfood.fr/,43.6142003,3.8802841
3633000702,node,Green Lab - Université,restaurant,Montpellier,"2 Rue de l'Université, 34000, Montpellier",34000,https://www.greenlab-mtp.fr/home,43.6118934,3.8764193
3633000705,node,El pueblo,restaurant,Montpellier,"4 Rue de Candolle, Montpellier",,https://m.facebook.com/elpueblomontpellier,43.6129777,3.8748899
3633000707,node,Le p'ti Taureau,restaurant,Montpellier,"7 Rue de l'Université, 34000, Montpellier",34000,,43.6121139,3.8764309
3635353886,node,Chez Le Libanais,restaurant,Montpellier,,,,43.6137459,3.8772147
3635353887,node,Dadicook,restaurant,Montpellier,,,,43.6128721,3.8769146
3635511299,node,Billy Boy's,restaurant,Montpellier,"197 Place de l'Epi, 34280, La Grande-Motte",34280,,43.556843,4.0886037
3635517812,node,Le Gourmand,restaurant,Montpellier,,,,43.5567858,4.0878746
3635533593,node,,attraction,Montpellier,,,,43.5564009,4.0870373
3635583497,node,Le Décalé,restaurant,Montpellier,"147 Allée de l'Épi, 34280, La Grande-Motte",34280,,43.5569539,4.0880279
3635627093,node,L'Eden Lounge,restaurant,Montpellier,"197 Place de l'Epi, 34280, La Grande-Motte",34280,https://www.leden-restaurant-la-grande-motte.fr/,43.5567935,4.0883974
3635630212,node,La Petite Plage,restaurant,Montpellier,"27 Place Paul Valéry, 34280, La Grande-Motte",34280,https://www.la-petite-plage-restaurant-la-grande-motte.fr/,43.5567144,4.0895566
3635630504,node,Nassau,restaurant,Montpellier,"220 Place des Tritons, 34280, La Grande-Motte",34280,https://www.nassaulagrandemotte.fr/,43.5566458,4.0898118
3635630505,node,Le Narval,restaurant,Montpellier,"268 Place des Tritons, 34280, La Grande-Motte",34280,,43.5565493,4.0900851
3635701393,node,Le Chary,restaurant,Montpellier,"85 Place Diana, 34280, La Grande-Motte",34280,,43.5565433,4.0912324
3635809405,node,Le 7,restaurant,Montpellier,,,,43.5605,4.0998224
3635853911,node,Le Repaire,restaurant,Montpellier,"Place Diana, 34280, La Grande-Motte",34280,,43.5565194,4.0921812
3635863670,node,L'Étoile de Mer,restaurant,Montpellier,,,,43.556683,4.0892736
3635863671,node,L’étang d’Or,restaurant,Montpellier,"3 Allée de l'Épi, 34280, La Grande-Motte",34280,https://restaurant-letang-dor.business.site,43.556946,4.0887273
3636833593,node,Le Tandem,restaurant,Montpellier,"220 Place des Tritons, 34280, La Grande-Motte",34280,https://restaurantletandem.com,43.5566073,4.0900264
3639157874,node,La Broche d'Or,restaurant,Montpellier,"2 Allée des Goélands, 34280, La Grande-Motte",34280,https://labrochedor.fr,43.5638833,4.0933678
3639873211,node,L'Épicerie,restaurant,Montpellier,"2 Allée des Goélands, 34280, La Grande-Motte",34280,,43.5635798,4.0933483
3641248445,node,Le Jardin du Vietnam,restaurant,Montpellier,"490 Avenue de Melgueil, 34280, La Grande-Motte",34280,http://www.lejardinduvietnam.fr,43.5595559,4.0885392
3641249105,node,Melting Potes,restaurant,Montpellier,"482 Avenue de Melgueil, 34280, La Grande-Motte",34280,https://www.la-grande-motte.info/le-melting-potes,43.5596371,4.0884798
3642316709,node,Lady Sushi,restaurant,Montpellier,"252 Rue Frédéric Mistral, 34280, La Grande-Motte",34280,https://lady-sushi.fr,43.5581545,4.0874865
3642574996,node,Savana Beach,restaurant,Montpellier,"Place Diana, 34280, La Grande-Motte",34280,https://www.savana-restaurant.com,43.5565285,4.0916157
3643413100,node,Spicy Coffee,restaurant,Montpellier,,,,43.5989695,3.8959717
3643413101,node,Maxxim,restaurant,Montpellier,45 Place Georges Frêche,,,43.5992531,3.8966543
3647790114,node,Les Grisettes,restaurant,Montpellier,,,,43.5839785,3.8594664
3647840948,node,La Santa Luccia,restaurant,Montpellier,,,,43.5841039,3.8594518
3654614991,node,Azzuro,restaurant,Montpellier,"477 Quai Charles de Gaulle, 34280, La Grande-Motte",34280,https://pizzeria-grande-motte.fr,43.5565102,4.0851437
3654632230,node,Entre Terre et Mer,restaurant,Montpellier,,,,43.5564788,4.0856306
3654642891,node,La Cosa Nostra,restaurant,Montpellier,"217 Quai Charles de Gaulle, 34280, La Grande-Motte",34280,,43.5573992,4.0856919
3654642893,node,Le Sun 7,restaurant,Montpellier,"Quai Charles de Gaulle, 34280, La Grande-Motte",34280,,43.5568945,4.0856864
3654656028,node,L'Aventure,restaurant,Montpellier,"185 Quai Charles de Gaulle, 34280, La Grande-Motte",34280,http://laventure-bar.fr,43.5576402,4.0854935
3654674627,node,Clipper's,restaurant,Montpellier,"107 Quai Charles de Gaulle, 34280, La Grande-Motte",34280,,43.5582307,4.0850288
3654674629,node,L'Ombrine,restaurant,Montpellier,"93 Quai Charles de Gaulle, 34280, La Grande-Motte",34280,,43.5583499,4.0849426
3654674630,node,La Crêperie du Quai,restaurant,Montpellier,"135 Quai Charles de Gaulle, 34280, La Grande-Motte",34280,,43.5580212,4.0851931
3654683096,node,La Calèche,restaurant,Montpellier,,,,43.5588247,4.0850491
3654737006,node,La Bourrique,restaurant,Montpellier,,,,43.55734,4.0858834
3654782802,node,A la Mer à la Mer,restaurant,Montpellier,,,,43.5566902,4.0860613
3654796394,node,Umami,restaurant,Montpellier,"1 Esplanade Maurice Justin, 34280, La Grande-Motte",34280,https://www.umamilagrandemotte.com,43.5565289,4.0857849
3654806937,node,Le QG,restaurant,Montpellier,"477 Quai Charles de Gaulle, 34280, La Grande-Motte",34280,,43.5563722,4.0852658
3654812568,node,Manège,attraction,Montpellier,,,,43.5564777,4.0886853
3654832864,node,Napoli Pizza,restaurant,Montpellier,"Passage Paul Valéry, 34280, La Grande-Motte",34280,https://napoli-pizza-traiteur.fr,43.557857,4.089491
3654858446,node,Saveurs & Sens,restaurant,Montpellier,,,,43.5572909,4.0887393
3654866792,node,Formula Pizza,restaurant,Montpellier,"51 Place Paul Valéry, 34280, La Grande-Motte",34280,,43.5570249,4.089322
3654876814,node,Carlsbarg,restaurant,Montpellier,,,,43.5573642,4.0895603
3655321201,node,Pizzeria Pierrot & Katia,restaurant,Montpellier,"222 Avenue de l'Europe, 34280, La Grande-Motte",34280,https://lacarte.menu/restaurants/la-grande-motte/pizzeria-pierrot-et-katia,43.5577527,4.0899604
3655362557,node,O Quai des Bières,restaurant,Montpellier,"219 Avenue de l'Europe, 34280, La Grande-Motte",34280,,43.5580658,4.0905673
3655380134,node,Saveurs Salines,restaurant,Montpellier,,,,43.5579307,4.0913488
3655430610,node,La Table Chez Samira,restaurant,Montpellier,,,,43.5581216,4.091221
3655513347,node,L’Asia,restaurant,Montpellier,"97 Avenue de l'Europe, 34280, La Grande-Motte",34280,https://l-asia.edan.io/,43.558903,4.0898615
3655542072,node,Le Prose,restaurant,Montpellier,"277 Allée du Vaccarès, 34280, La Grande-Motte",34280,,43.5595386,4.0925444
3655637476,node,,memorial,Montpellier,,,,43.5606618,4.0919704
3655651602,node,La Guinguette du Ponant,restaurant,Montpellier,,,https://laguinguetteduponant.com/#laguinguette,43.5677972,4.0999586
3655652972,node,Portugrill,restaurant,Montpellier,"118 Allée des Jardins, 34280, La Grande-Motte",34280,https://restaurant-la-paella.business.site,43.5599088,4.0907316
3655685339,node,Eau Grand Bleu,restaurant,Montpellier,,,,43.5667893,4.1000772
3655685341,node,La Tour de Pizza,restaurant,Montpellier,,,,43.5666927,4.1000601
3655696230,node,Le Ponant,restaurant,Montpellier,,,,43.5660774,4.1002569
3655696232,node,Pizzeria du Golf,restaurant,Montpellier,"264 Allée du Ponant, 34280, La Grande-Motte",34280,,43.5659994,4.1002976
3655706722,node,Chez Aurore,restaurant,Montpellier,"867 Allée des Goélands, 34280, La Grande-Motte",34280,,43.5682071,4.1004145
3655706723,node,Ponant sur berges,restaurant,Montpellier,,,,43.5681491,4.1002522
3655794174,node,L'Orient,restaurant,Montpellier,,,,43.5659694,4.1002595
3658806997,node,Château de Restinclières,viewpoint,Montpellier,,,,43.7158738,3.8591593
3664507122,node,Nexxt,restaurant,Montpellier,,,,43.52762,3.9314746
3664524822,node,Bleu Cerise,restaurant,Montpellier,,,,43.5278707,3.9298034
3664529229,node,Ö bon vivre,restaurant,Montpellier,25 Quai Paul Cunq,,https://www.o-bon-vivre-restaurant-palavas-les-flots.fr/,43.5285106,3.9297785
3664529236,node,Table 8,restaurant,Montpellier,,,,43.527496,3.9303896
3664529237,node,Léo,restaurant,Montpellier,,,,43.5280978,3.9305583
3664529240,node,L'Escargot de Mer,restaurant,Montpellier,,,,43.5279897,3.9307466
3664529241,node,Léo,restaurant,Montpellier,13 Quai Paul Cunq,,,43.5280306,3.9306982
3664534375,node,Le Carthage,restaurant,Montpellier,,,,43.5279238,3.9308679
3666565728,node,Chez nous de Gérard Cabiron,restaurant,Montpellier,,,,43.6069417,3.9129263
3672309899,node,Baguette d'Or,restaurant,Montpellier,,,,43.6393588,3.93376
3672395041,node,Alba Pizze,restaurant,Montpellier,,,,43.636005,3.9253735
3672469572,node,La Grande Muraille,restaurant,Montpellier,"108 Boulevard de Strasbourg, 34400, Lunel",34400,,43.6768778,4.1370807
3672469577,node,Chez Marie,restaurant,Montpellier,"68 Boulevard de Strasbourg, 34400, Lunel",34400,,43.6770785,4.1366402
3673121400,node,La Bella Tavola,restaurant,Montpellier,"607 Avenue de la République, 34400, Lunel-Viel",34400,,43.67905,4.0905347
3673121402,node,Bistro Vino,restaurant,Montpellier,"50 Chemin des Fournels, 34400, Lunel-Viel",34400,,43.6807444,4.0998374
3673165248,node,Chez Vincent,restaurant,Montpellier,,,,43.6595356,4.017059
3673284005,node,Wikolyn,restaurant,Montpellier,"140 Rue Charles Gide, 34670, Baillargues",34670,https://wikolyn.fr,43.6548533,3.9980015
3675303956,node,La Fringale,restaurant,Montpellier,"187 Rue Sadi Carnot, 34400, Lunel",34400,http://lafringale-lunel.com,43.6770158,4.1350929
3688932903,node,Muscadet,artwork,Montpellier,,,,43.6165175,4.0116146
3699732491,node,Kyriad Montpellier Sud - Lattes,hotel,Montpellier,Lattes,,,43.5787252,3.8800789
3700861415,node,Place du Belvédère,viewpoint,Montpellier,,,,43.6678928,3.8603769
3707207748,node,,park,Montpellier,251,,,43.6163293,4.0198002
3708217952,node,Florence,restaurant,Montpellier,"12B Rue Jules Ferry, 34170, Castelnau-le-Lez",34170,,43.6331232,3.898864
3708907351,node,Statue Jacques d'Aragon,artwork,Montpellier,,,,43.5699831,3.9041766
3714094412,node,Terrasse du château,viewpoint,Montpellier,,,,43.666913,3.8613376
3714971641,node,Bab,restaurant,Montpellier,,,,43.5605622,3.8934044
3714971642,node,Le Zèbre bleu,restaurant,Montpellier,,,,43.5737168,3.895987
3714972006,node,,restaurant,Montpellier,,,,43.554036,3.8943758
3715904887,node,Points of View,artwork,Montpellier,,,,43.6090116,3.8946013
3715904888,node,Points of View,artwork,Montpellier,,,,43.6089339,3.8946323
3728876610,node,Vierge,artwork,Montpellier,,,,43.6573488,3.9112471
3739290272,node,Hôtel des Étuves,hotel,Montpellier,"24 Rue des Étuves, 34000, Montpellier",34000,http://hoteldesetuves.fr,43.6071851,3.877196
3739290274,node,L'Autre Sud,restaurant,Montpellier,"26 Rue des Étuves, 34000, Montpellier",34000,,43.6071597,3.8771552
3744222118,node,Le Petoulet du Levant,attraction,Montpellier,,,,43.5338256,3.9316694
3744224279,node,,artwork,Montpellier,,,,43.533614,3.9325004
3745354926,node,Les Flots Bleu,hotel,Montpellier,,,,43.5282033,3.9290462
3745355006,node,,memorial,Montpellier,,,,43.528821,3.9294226
3745355028,node,Stèle commémorative de la Résistance,memorial,Montpellier,,,,43.5291593,3.9298563
3749429349,node,Kamii,restaurant,Montpellier,34830,34830,https://kamii-japanese-restaurant.business.site/,43.6574953,3.8862766
3750180698,node,,artwork,Montpellier,,,,43.618214,3.9845782
3750287159,node,La Scène,restaurant,Montpellier,"193 Avenue Jean Moulin, 34130, Mauguio",34130,https://restaurant-lascene.fr,43.6183122,4.0143658
3750321584,node,Le Patio,restaurant,Montpellier,,,,43.6601757,3.9005406
3750340849,node,,memorial,Montpellier,,,,43.6154129,4.0062195
3750344010,node,Bip-Bipizza,restaurant,Montpellier,,,,43.6157233,4.0074949
3750371972,node,Le Mistral,restaurant,Montpellier,"283 Boulevard de la Liberté, 34130, Mauguio",34130,,43.6131138,4.0104235
3758937084,node,Bistro Régent,restaurant,Montpellier,"2630 Avenue Georges Frêche, 34470, Pérols",34470,https://www.bistro-regent.fr/perols,43.5784303,3.9360878
3760745170,node,Restaurant universitaire de Richter,restaurant,Montpellier,"80 Rue Brumaire, 34000, Montpellier",34000,,43.6029836,3.8991822
3761696121,node,D’Ici et Là,restaurant,Montpellier,"3 Rue Victor Hugo, 34130, Candillargues",34130,,43.6202125,4.0686165
3761706952,node,,monument,Montpellier,,,,43.6142219,4.0675605
3761706954,node,Stèle à la mémoire de Mathieu Sierra,monument,Montpellier,,,,43.6124517,4.0665251
3787683030,node,Bellagio,restaurant,Montpellier,,,,43.6179984,3.8102729
3787683032,node,Heaven sushi,restaurant,Montpellier,,,,43.6180246,3.8102062
3787691408,node,Le Richelieu,restaurant,Montpellier,,,,43.6139575,3.8140117
3787710539,node,C'era una volta,restaurant,Montpellier,,,,43.6137544,3.8043238
3796930434,node,L'entr'acte,restaurant,Montpellier,,,,43.3172781,3.547965
3807624520,node,La Praïa,restaurant,Montpellier,,,,43.3939561,3.6689413
3813996137,node,Le lavandin,restaurant,Montpellier,,,,43.6154636,3.8075377
3813996138,node,Palermo pizza,restaurant,Montpellier,,,,43.6153842,3.807538
3821654760,node,Coq,artwork,Montpellier,,,,43.6369691,4.059341
3826846526,node,Le Milos,hotel,Montpellier,"134 Chemin de la Pierre Bleue, 34160, Castries",34160,,43.6848922,3.9929245
3843784443,node,Minerve Cafétéria du Personnel de l'UM - Campus Triolet,restaurant,Montpellier,,,,43.6347966,3.8608502
3850532178,node,Pizza du Golf,restaurant,Montpellier,,,,43.6268737,3.799044
3851763761,node,La Garrigue,restaurant,Montpellier,,,,43.6271757,3.8041788
3856928342,node,Cuisine S,restaurant,Montpellier,,,,43.6065068,3.882266
3861818273,node,Lucky Days,restaurant,Montpellier,,,,43.6074095,3.876775
3862466749,node,La Méditerranéenne,restaurant,Montpellier,"3 Quai Maximin Licciardi, 34200, Sète",34200,,43.3990494,3.6966336
3864720663,node,O'Snack Le Vendargeois,restaurant,Montpellier,,,,43.6571996,3.9684127
3869205241,node,,memorial,Montpellier,,,,43.6807224,3.9855527
3891870516,node,Les Délices de Claudine,restaurant,Montpellier,,,,43.6107582,3.8655804
3891884657,node,Hôtel des Arceaux 3 étoiles,hotel,Montpellier,,,,43.6115047,3.8638889
3891884852,node,Appart' Hôtel des Arceaux,hotel,Montpellier,"25 Rue Subleyras, 34000, Montpellier",34000,,43.610823,3.8652216
3898613698,node,Place de la paix,monument,Montpellier,,,,43.6166039,4.0115032
3899388511,node,Le 150,restaurant,Montpellier,,,,43.6160891,4.0092208
3899388516,node,Pizzaccro,restaurant,Montpellier,,,,43.6163607,4.0098552
3899388519,node,Le Cheval Blanc,hotel,Montpellier,,,,43.6163671,4.0099862
3899388521,node,Chez Manel,restaurant,Montpellier,,,,43.6162883,4.0101517
3899388531,node,Le Petit Camarguais,restaurant,Montpellier,"165 Boulevard de la République, 34130, Mauguio",34130,,43.6176181,4.0101348
3911517039,node,Alysée,artwork,Montpellier,,,,43.6313074,3.8914188
3913579646,node,,memorial,Montpellier,,,,43.5673003,3.9032873
3914371592,node,Charles de Gaulle,artwork,Montpellier,"Route de la Pompignane, 34170, Castelnau-le-Lez",34170,,43.6285773,3.8984547
3915510961,node,Taureau Pascalet,artwork,Montpellier,,,,43.6682374,4.1274784
3915525844,node,Jardin Marbeuf,restaurant,Montpellier,,,,43.6355905,3.9243033
3915525854,node,Le coup de fourchette,restaurant,Montpellier,,,,43.6377085,3.9269726
3918144578,node,Les Pieds Dans l'Ô,restaurant,Montpellier,"69 Chemin du Payrollet, 34340, Marseillan",34340,,43.3095026,3.5466662
3928932157,node,Mas Du Ministre,restaurant,Montpellier,"Chemin du ministre, 34130, Mauguio",34130,http://www.le-mas-du-ministre.fr,43.614024,3.9465645
3932052070,node,Hôtel Majestic,hotel,Montpellier,,,,43.6074377,3.8770403
3932075053,node,Hôtel Cosmos,hotel,Montpellier,,,,43.6064503,3.8731658
3936334523,node,Le Mas des Filles,restaurant,Montpellier,"34920, Le Crès",34920,https://www.masdesfilles.com/,43.6673724,3.9262678
3986133540,node,Amazone Coffee,restaurant,Montpellier,,,,43.6067446,3.8754459
3986289078,node,Escal'régale,restaurant,Montpellier,36 Avenue du Professeur Grasset,,https://www.facebook.com/lescaleregale/,43.6248977,3.8671986
3986433944,node,Tudisco Pizza,restaurant,Montpellier,,,https://www.pagesjaunes.fr/pros/08893580?at_medium=affiliate&at_campaign=QWANT&at_creation=&at_variant=NAVIGATION&at_format=FD,43.6172195,3.8678605
3994912690,node,,memorial,Montpellier,,,,43.7117059,4.0051066
4009577096,node,,memorial,Montpellier,,,,43.556376,3.7202281
4012218425,node,Le Blé Noir,restaurant,Montpellier,"179 Route de Mende, 34730, PRADES LE LEZ",34730,,43.6989771,3.8622757
4014383188,node,,memorial,Montpellier,,,,43.7289145,4.0207446
4014795669,node,Prad'Thaï & Food's,restaurant,Montpellier,,,,43.6974003,3.8628197
4021550379,node,Papa Chico,restaurant,Montpellier,,,,43.5497386,3.7783598
4021592925,node,Bistrot de l'Eglise,restaurant,Montpellier,,,,43.5518995,3.776586
4021624983,node,,memorial,Montpellier,,,,43.5507412,3.7784505
4021832306,node,Le Petit Bouzigues,restaurant,Montpellier,"45 Avenue Louis Tudesq, 34140, Bouzigues",34140,,43.4485547,3.6551895
4021851676,node,Hôtel Pinède,hotel,Montpellier,,,,43.5493316,3.7795516
4021851681,node,Hôtel Relais de Fabrègues,hotel,Montpellier,,,,43.5479496,3.7783873
4021851683,node,Les Fils à Papa,restaurant,Montpellier,,,,43.5477702,3.7776545
4021925135,node,La Forge Gourmande,restaurant,Montpellier,,,https://laforgegourmande-beaulieu.fr/,43.7296014,4.021438
4023857750,node,Cèdre Sculpté par Michel Chevray,artwork,Montpellier,,,,43.7339176,3.981244
4023857752,node,M Pizza,restaurant,Montpellier,"2 Rue du Parc, 34160, Saint-Drézéry",34160,https://www.mpizza-stdrezery.fr,43.7335571,3.9814478
4023863308,node,Trinacria Brasserie,restaurant,Montpellier,"1 Allée de la Liberté, 34160, Saint-Drézéry",34160,https://latrinacriapizza.eatbu.com,43.7330887,3.9804661
4023911644,node,Amerique,hotel,Montpellier,"7 Avenue Frédéric Fabrège, 34250, Palavas les Flots",34250,https://www.hotelamerique.com/,43.5282919,3.9257092
4034502350,node,La Guinguette à Restinclières,restaurant,Montpellier,,,,43.7174386,4.0321539
4035558628,node,Aéroport Hôtel,hotel,Montpellier,"Avenue Jacqueline Auriol, 34130, Mauguio",34130,https://aeroporthotel.com/,43.5801599,3.9534631
4038362698,node,Sculture,artwork,Montpellier,,,,43.6065188,3.7835992
4038563442,node,Rev D'OC,restaurant,Montpellier,,,,43.6104099,3.781852
4038587838,node,Le ST Georges,restaurant,Montpellier,,,,43.610262,3.7839935
4047772301,node,Saint-Georges Terrassant le Dragon,artwork,Montpellier,,,,43.6105911,3.7834625
4047796152,node,Les Artisants,restaurant,Montpellier,,,,43.6286593,3.771861
4047803647,node,,memorial,Montpellier,,,,43.7522012,3.9550789
4054116132,node,,memorial,Montpellier,,,,43.7339097,3.9802132
4064883197,node,,memorial,Montpellier,,,,43.5847428,3.8036825
4064883202,node,Statue de Marianne,artwork,Montpellier,,,,43.5845487,3.8046416
4066861455,node,Point d'observation,viewpoint,Montpellier,,,,43.6434291,3.8859739
4086196089,node,La Rotonde - Monuments Aux Morts,memorial,Montpellier,,,,43.657122,3.9727177
4086219328,node,Porte Fétiche,artwork,Montpellier,,,,43.6164102,3.9302434
4087023397,node,Coldrip Food & Coffee,restaurant,Montpellier,,,,43.6110497,3.8790023
4102427072,node,L'Escargot,artwork,Montpellier,,,,43.6630832,4.0300463
4104277967,node,Le Saint-Brice,restaurant,Montpellier,"538 Avenue de Nîmes, 34670, Saint-Brès",34670,http://www.restaurantlesaintbrice.com,43.6657224,4.0381789
4105182921,node,Moutarde & Wasabi,restaurant,Montpellier,"2 Rue Lamartine, 34000, Montpellier",34000,,43.6053821,3.8845216
4105188752,node,Dynasty Grill,restaurant,Montpellier,,,,43.5740349,3.9465587
4107291013,node,Café de France - Restaurant Lisanna,restaurant,Montpellier,"28 Plan des Cafés, 34160",34160,,43.6972165,4.0360026
4107291024,node,,memorial,Montpellier,,,,43.6974035,4.0347571
4118348128,node,Le Bourgeon,restaurant,Montpellier,"Rue Jules Latreilhe, 34000, Montpellier",34000,https://www.facebook.com/pages/Le-Bourgeon/825376530809194,43.6080241,3.8764059
4119157099,node,Musée du Château des Evèques,museum,Montpellier,,,,43.5838278,3.8034361
4121146069,node,Ved'AS Pizza,restaurant,Montpellier,,,,43.5799737,3.7526967
4121227081,node,,memorial,Montpellier,,,,43.5817385,3.7615921
4121307340,node,Cristal d'Asie,restaurant,Montpellier,,,,43.5822211,3.7632916
4121307342,node,Le Parc,restaurant,Montpellier,,,,43.5819852,3.7632297
4121311869,node,Pizza Mario,restaurant,Montpellier,,,,43.5825746,3.7630835
4122989470,node,Pizza Planet,restaurant,Montpellier,,,,43.5828679,3.7594099
4123003686,node,Le Michelino,restaurant,Montpellier,,,,43.5795459,3.766549
4128140704,node,Le Montys,restaurant,Montpellier,,,,43.6074882,3.8758602
4128140705,node,L'Amuse Bouches,restaurant,Montpellier,,,,43.6074097,3.8759474
4133295798,node,Planète Kosmos,restaurant,Montpellier,,,,43.6226971,3.8638249
4133295801,node,2Hands,restaurant,Montpellier,,,,43.6228523,3.863707
4141797378,node,Le Mistral,restaurant,Montpellier,,,,43.3937222,3.6776414
4141797379,node,Chez mino,restaurant,Montpellier,3 Rue de Provence,,,43.3939678,3.6776414
4152810596,node,La Pizzeria du Cartel,restaurant,Montpellier,,,,43.6773613,3.9845357
4152818093,node,L'Art du Feu,restaurant,Montpellier,,,,43.6769299,3.9846796
4152858682,node,La Cascade,restaurant,Montpellier,,,,43.6778086,3.9840321
4152858890,node,Le Salon,restaurant,Montpellier,,,,43.6768765,3.9835058
4153653940,node,La Petite Cuisine,restaurant,Montpellier,,,,43.6701539,3.9746795
4160669389,node,Drôles de tables,restaurant,Montpellier,,,,43.6767629,4.0780761
4163357692,node,"Victimes des conflits Algérie, Maroc, Tunisie",memorial,Montpellier,,,,43.5319904,3.860772
4163357695,node,L'oustalet,restaurant,Montpellier,,,,43.532125,3.8627912
4163357700,node,Le Petit Troc,restaurant,Montpellier,36 Place de l'Église,,,43.5314839,3.8635484
4174557548,node,Basilique gallo-romaine de Balaruc-les-Bains,ruins,Montpellier,,,,43.4405468,3.6785374
4181256217,node,Restaurant des Compagnons de Maguelones,restaurant,Montpellier,,,,43.5118636,3.8846136
4183129906,node,El Duende,restaurant,Montpellier,"2 Rue Docteur Servel, 34470, Pérols",34470,,43.5636131,3.9537177
4183129959,node,Pères peinards,restaurant,Montpellier,,,,43.561923,3.9539732
4183129961,node,Sabaïde,restaurant,Montpellier,,,,43.5632786,3.9525454
4187024715,node,Au pied du Baobab,restaurant,Montpellier,"4 Place Henri IV, 34080, Montpellier",34080,,43.6137009,3.8290542
4188933799,node,Brasserie du Forum,restaurant,Montpellier,43,,,43.5598963,3.8757105
4191432873,node,,memorial,Montpellier,,,,43.6571373,3.8878486
4193153626,node,,memorial,Montpellier,,,,43.573551,3.7747831
4196876511,node,Monument Aux Morts,memorial,Montpellier,,,,43.6509515,3.9409523
4196897040,node,Pizza Roma,restaurant,Montpellier,,,,43.6569378,3.9424032
4197045790,node,Come Prima,restaurant,Montpellier,,,,43.6611582,3.9366095
4197183892,node,Monument Aux morts des Anciens Combattants en Afrique du Nord,memorial,Montpellier,,,,43.6424163,3.9353554
4197183898,node,Le Forest,restaurant,Montpellier,,,,43.6403201,3.934237
4197183911,node,Monument Aux Morts des Anciens d'Indochine,memorial,Montpellier,,,,43.6463944,3.9379605
4202240048,node,Cournons,restaurant,Montpellier,,,,43.551257,3.7147549
4207110763,node,L'Estaminet,restaurant,Montpellier,,,,43.6379826,3.9322558
4207162102,node,Mamamia,restaurant,Montpellier,34920,34920,,43.6602604,3.930783
4210510128,node,Sensation,restaurant,Montpellier,,,https://www.restaurantsensation.fr/,43.5726929,3.8982243
4219880844,node,Musée de la Résistance et de la Déportation,museum,Montpellier,"1 Place de la Liberté, 34170, Castelnau-le-Lez",34170,,43.6330592,3.8958432
4220859651,node,Le restaurant de la Maison des Vins du Languedoc,restaurant,Montpellier,"34970, Lattes",34970,https://www.maisondesvinsdulanguedoc.com/le-restaurant,43.5825969,3.8905231
4222219585,node,L'Artimon,restaurant,Montpellier,,,https://www.lartimon.com/,43.5263081,3.93203
4248121158,node,Cantine IRD,restaurant,Montpellier,,,,43.6453675,3.8681866
4248142502,node,Le Mekong II,restaurant,Montpellier,"1 Route de Montpellier, 34790, Grabels",34790,https://www.lemekong2-34.fr/,43.6460562,3.8030624
4248418697,node,La Salle à Manger,restaurant,Montpellier,"44 Rue Antoine-Jérôme Balard, 34790, Grabels",34790,,43.6506037,3.831619
4254505561,node,FastHôtel,hotel,Montpellier,"26 Avenue de la Biste, 34670, Baillargues",34670,https://www.fasthotel.com/languedoc-roussillon/hotel-montpellier-baillargues,43.6562856,3.9997447
4254505567,node,Ô Phénicien,restaurant,Montpellier,34670,34670,,43.6564364,3.9990139
4254505570,node,Vina Wok,restaurant,Montpellier,,,,43.656586,3.9995675
4254505571,node,La paillote à crepes,restaurant,Montpellier,"69 Avenue de la Biste, 34670, Baillargues",34670,https://www.lapailloteacrepes.com/,43.6569184,3.9995242
4255833589,node,RM,restaurant,Montpellier,,,,43.6529714,3.9999642
4255989183,node,Sushi Corner,restaurant,Montpellier,"1 Rue du Coustouliès, 34670, Baillargues",34670,https://sushicorner.fr/,43.6570625,4.0080517
4256032554,node,Son Môn,restaurant,Montpellier,,,,43.6620467,4.0255895
4256056526,node,Monument aux Morts,memorial,Montpellier,,,,43.6606194,4.0129033
4256056530,node,Pizzeria del Sogno,restaurant,Montpellier,"1 Rue du Jeu de Ballon, 34670, Baillargues",34670,,43.6603626,4.0135794
4262590263,node,Arena Pizza,restaurant,Montpellier,,,,43.5301253,3.9301087
4262590264,node,Au Poisson Bleu,restaurant,Montpellier,,,,43.528684,3.9307114
4262590276,node,Casa Brasil,restaurant,Montpellier,,,,43.5264688,3.9317822
4262590281,node,Chez Nina,restaurant,Montpellier,,,,43.528006,3.9314027
4262590287,node,Côté Pizza,restaurant,Montpellier,,,,43.5272786,3.9309358
4262592489,node,El Fuego,restaurant,Montpellier,,,,43.5287078,3.9301583
4262592500,node,Hôtel Aryette,hotel,Montpellier,,,,43.5271104,3.9300971
4262592501,node,Hôtel Le France,hotel,Montpellier,,,,43.5275457,3.9302849
4262592504,node,Kiosque Saveur,restaurant,Montpellier,,,,43.5255207,3.9278749
4262592506,node,L'Aromate,restaurant,Montpellier,,,,43.5281768,3.9292613
4262592507,node,L'Echappée Belge,restaurant,Montpellier,,,,43.5286177,3.9300775
4262592509,node,L'Evasion Cap Sud,restaurant,Montpellier,,,,43.5260454,3.9319394
4262592510,node,L'Hippocampe,restaurant,Montpellier,,,,43.5266329,3.9309034
4262592511,node,L'Albatros,restaurant,Montpellier,,,,43.5213397,3.9170518
4262592513,node,La Banane,restaurant,Montpellier,,,,43.5303022,3.9401618
4262592516,node,La Cigalière,hotel,Montpellier,,,,43.5276658,3.9282787
4262592520,node,La Passerelle,restaurant,Montpellier,,,,43.5279263,3.9305584
4262592522,node,La Plage des Lézards,restaurant,Montpellier,,,https://plagedeslezards.fr,43.5201098,3.914491
4262592525,node,Le 9,restaurant,Montpellier,,,,43.5275628,3.9302505
4262592526,node,Le 974,restaurant,Montpellier,,,,43.5265048,3.9320412
4262592527,node,Le Bianca,restaurant,Montpellier,,,,43.5262134,3.9297364
4262592529,node,Le Brasilia,hotel,Montpellier,,,,43.528109,3.9327244
4262592539,node,Le New Port,restaurant,Montpellier,,,,43.5265285,3.9316749
4262592541,node,Le Piccolino,restaurant,Montpellier,,,,43.5266966,3.9310785
4262592545,node,Le Riva,restaurant,Montpellier,,,,43.5264418,3.9314841
4262592547,node,Le Saint-Jean,restaurant,Montpellier,,,,43.5266018,3.9308163
4262592548,node,Le Thalassa,restaurant,Montpellier,,,,43.5275122,3.9323738
4262592550,node,Le Wok d'Asie,restaurant,Montpellier,,,,43.5286024,3.9299933
4262592551,node,Le Wok d'Asie,restaurant,Montpellier,,,,43.528632,3.9300163
4262592554,node,Les Marines,restaurant,Montpellier,,,,43.5263654,3.9318707
4262592558,node,L’Espoir,memorial,Montpellier,,,,43.5259846,3.9344068
4262592564,node,Me Gusta,restaurant,Montpellier,,,,43.5419779,3.9684419
4262592575,node,New Wave,restaurant,Montpellier,,,,43.5255538,3.9279525
4262593190,node,Pizza Chez Marc,restaurant,Montpellier,,,,43.5274592,3.9279119
4262593191,node,Pizza Gino,restaurant,Montpellier,,,,43.525977,3.927639
4262593199,node,Portofino,restaurant,Montpellier,,,,43.5271584,3.9311378
4262593210,node,Va Bene,restaurant,Montpellier,,,,43.5276367,3.9322801
4262593215,node,Pizza Margot,restaurant,Montpellier,"633 Avenue de l'Evêché de Maguelone, 34250, Palavas-les-Flots",34250,https://www.pizzamargot.com,43.5233996,3.9210728
4262593217,node,l'Assiette De La Mer,restaurant,Montpellier,,,,43.5266494,3.9320747
4262593279,node,,restaurant,Montpellier,,,,43.5273371,3.9279066
4269919379,node,Bella Napoli,restaurant,Montpellier,,,http://facebook.com/bellanapolimontpellier/,43.6378867,3.8733742
4281566507,node,Statue de Jeanne d'Arc,artwork,Montpellier,,,,43.6149687,3.8759106
4293164012,node,Gusto,restaurant,Montpellier,"2 Place de Lisbonne, 34000, Montpellier",34000,https://www.brasseriegusto.com,43.6034297,3.9213093
4296958557,node,Résidence Côté Mer,hotel,Montpellier,,,,43.5574885,4.0777264
4298723790,node,Le Lez,viewpoint,Montpellier,,,,43.5634699,3.8960353
4299691776,node,Le Restaurant,restaurant,Montpellier,,,,43.6091901,3.9147609
4303181987,node,Inter-Hotel Le Neptune,hotel,Montpellier,,,https://www.hotel-neptune.fr/,43.545779,3.9739919
4324886075,node,Fontaine des Trois Grâces,attraction,Montpellier,,,,43.6084697,3.8795
4324946079,node,,artwork,Montpellier,,,,43.6052563,3.8801319
4332360051,node,Cafétéria de Vertbois,restaurant,Montpellier,,,,43.6347414,3.8706096
4332360062,node,Restaurant universitaire de Vert-Bois,restaurant,Montpellier,,,,43.6348536,3.8708945
4332360069,node,Caféteria UM3,restaurant,Montpellier,,,,43.6330842,3.8686761
4338081589,node,Café Léon,restaurant,Montpellier,,,,43.6081153,3.875771
4343434189,node,Sushi Kawai,restaurant,Montpellier,,,http://www.sushi-kawai.fr,43.5963858,3.8879471
4357624595,node,Le Chupinazo,restaurant,Montpellier,"2 Place Saint-Côme, 34000",34000,,43.608058,3.8769043
4367619845,node,Les Corallines,hotel,Montpellier,"615 Allée de la Plage, 34280, La Grande-Motte",34280,https://www.thalasso-grandemotte.com,43.5562741,4.0959135
4367619846,node,Les Coralines,restaurant,Montpellier,,,,43.556302,4.0958302
4398568118,node,Le Bistro,restaurant,Montpellier,,,,43.3045533,3.5396471
4398568119,node,Marie-Louise,restaurant,Montpellier,,,,43.31552,3.5495626
4398568120,node,Le Floride,restaurant,Montpellier,,,,43.3081603,3.5444194
4399979026,node,Le Charlemagne Restaurant,restaurant,Montpellier,,,,43.310589,3.5434521
4402339752,node,Pharmacie et Chapelle de la Miséricorde,museum,Montpellier,,,,43.6107381,3.8792357
4404008292,node,Morin Sushis,restaurant,Montpellier,,,,43.5641515,3.8797161
4404008293,node,Chez Bruno,restaurant,Montpellier,,,,43.5628169,3.8792107
4404148232,node,Manine Pizza,restaurant,Montpellier,32,,,43.5602021,3.8755159
4404275408,node,Pizza,restaurant,Montpellier,,,,43.5693886,3.8990566
4404299198,node,Le Clos,restaurant,Montpellier,,,,43.5580167,3.9277202
4407760317,node,Chez François,restaurant,Montpellier,"2 Rue Paul Valéry, 34200, Sète",34200,,43.401847,3.696975
4408167440,node,Couleur Pizza,restaurant,Montpellier,,,,43.569669,3.9047448
4408167442,node,Le tête à tête,restaurant,Montpellier,,,,43.5695436,3.9048574
4408197922,node,Les Délices d'Ariane,restaurant,Montpellier,,,,43.572816,3.900644
4408197925,node,L'Oxalys,restaurant,Montpellier,,,,43.5725802,3.8983405
4409703739,node,La Baie d'Halong,restaurant,Montpellier,,,,43.4278883,3.6057093
4411106984,node,Brasserie de l'Europe,restaurant,Montpellier,,,,43.6137409,3.9061291
4414419319,node,Pizzeria Rizzo,restaurant,Montpellier,,,,43.426518,3.6071643
4414865439,node,La Marianne,artwork,Montpellier,,,,43.4273857,3.60496
4414891398,node,La Mèzon,restaurant,Montpellier,,,,43.4235542,3.6058863
4414902718,node,Mas Campo,restaurant,Montpellier,,,,43.5846099,3.9202258
4414948848,node,Lou Païs d’Aqui,restaurant,Montpellier,"Rue Louis Lumière, 34970, Lattes",34970,https://www.restaurant-loupaisdaqui.com,43.5856848,3.9333783
4414948854,node,Les Artistes,restaurant,Montpellier,"1 Rue Louis Lumière, 34970, Lattes",34970,,43.5850869,3.9345073
4415177857,node,L'Ambre Marine,restaurant,Montpellier,"18 Quai Augustin Descournut, 34140, Mèze",34140,https://l-ambre-marine.edan.io,43.4234285,3.6058063
4415185576,node,L'Abri Côtier,restaurant,Montpellier,,,,43.4228744,3.6054866
4415190510,node,Le Rendez-Vous,restaurant,Montpellier,,,,43.4229807,3.6055519
4415200803,node,La Méduse Électrique,gallery,Montpellier,,,,43.4244075,3.6071204
4416745087,node,La Taverne,restaurant,Montpellier,,,,43.5583003,4.0694555
4416749433,node,Chez Tetel,restaurant,Montpellier,"359 Avenue du Couchant, 34280, La Grande-Motte",34280,https://chez-tetel.com/,43.5580395,4.0705603
4416775085,node,Le Paséo,restaurant,Montpellier,"358 Avenue du Couchant, 34280, La Grande-Motte",34280,https://le-paseo.com/,43.5580481,4.0703689
4416775086,node,Le Catamaran,restaurant,Montpellier,"Allée du Maréchal Juin, 34280, La Grande-Motte",34280,http://www.lecatamaran.fr/,43.5581688,4.0699763
4418566824,node,Japan Burger,restaurant,Montpellier,"180 Route de la Pompignane, 34170, Castelnau-le-Lez",34170,,43.6279924,3.8983531
4420430027,node,La Rana Rossa,restaurant,Montpellier,,,,43.560275,3.8933179
4433387890,node,Thau'Thèmes,restaurant,Montpellier,6 Rue de Copenhague,,https://www.instagram.com/guinguette.thau.themes/?hl=en,43.4191194,3.7016522
4434225344,node,Antonio e Marco,restaurant,Montpellier,,,,43.6001636,3.8984955
4441177894,node,Ancien Grau,ruins,Montpellier,,,,43.4338596,3.7814049
4457963730,node,Coquillages et crustacés,restaurant,Montpellier,"13 Quai Maximin Licciardi, 34200, Sète",34200,,43.3978773,3.6964745
4457963732,node,Le grilladin cettois,restaurant,Montpellier,"11 Quai Maximin Licciardi, 34200",34200,,43.398026,3.696599
4457963734,node,La Sènne,restaurant,Montpellier,34200,34200,,43.3987702,3.6966722
4464638946,node,Brasserie du Salaison,restaurant,Montpellier,,,,43.6535892,3.9583863
4464638966,node,Chez Poulette,restaurant,Montpellier,,,https://www.facebook.com/chezpoulette/?locale=fr_FR,43.6537555,3.9553647
4464639498,node,La Saporta,restaurant,Montpellier,,,,43.6554158,3.9501834
4467083534,node,,memorial,Montpellier,,,,43.5773107,3.8266259
4489006441,node,,memorial,Montpellier,,,,43.610927,3.8816506
4502216357,node,Le Relais du Soleil,restaurant,Montpellier,,,,43.5623572,3.8496059
4504740674,node,Gambetta,restaurant,Montpellier,,,,43.6101309,3.9144638
4504740675,node,L'escale du millénaire,restaurant,Montpellier,,,,43.6100241,3.9144954
4508607931,node,Rucher pédagogique départemental,park,Montpellier,,,,43.7177556,3.8576621
4512429951,node,Le 29,restaurant,Montpellier,,,,43.4483506,3.6561108
4512429952,node,Authentique Bistrop Gourmant,restaurant,Montpellier,"23 Avenue Louis Tudesq, 34140, Bouzigues",34140,,43.4482802,3.6563481
4512429953,node,Chez Francine,restaurant,Montpellier,11 Avenue Louis Tudesq,,,43.447467,3.6574555
4512429954,node,À la Voile Blanche,restaurant,Montpellier,"1 Avenue Louis Tudesq, 34140, Bouzigues",34140,https://www.alavoileblanche.fr,43.4466788,3.6589655
4512429955,node,Chez Julie,restaurant,Montpellier,8 Avenue Louis Tudesq,,,43.4470483,3.6580935
4515186577,node,Station Pizza,restaurant,Montpellier,,,,43.5654267,3.8439437
4515209191,node,La Carafe,restaurant,Montpellier,,,,43.5628546,3.8400721
4526012486,node,,memorial,Montpellier,,,,43.611266,3.8816757
4526012487,node,,memorial,Montpellier,,,,43.611265,3.8816394
4526012488,node,,memorial,Montpellier,,,,43.6110873,3.8816783
4526013589,node,,memorial,Montpellier,,,,43.6112801,3.8820183
4526013590,node,,memorial,Montpellier,,,,43.6111441,3.8820089
4526013591,node,,memorial,Montpellier,,,,43.6110864,3.8818353
4526013592,node,,memorial,Montpellier,,,,43.6110024,3.8819935
4526013593,node,,memorial,Montpellier,,,,43.6109961,3.8819446
4526013594,node,,memorial,Montpellier,,,,43.6110572,3.8819895
4526067084,node,L'oustal de St Jean,restaurant,Montpellier,,,,43.5593941,3.8454618
4527885182,node,Fourchette et Tirebouchon,restaurant,Montpellier,"6 Rue Robert Schuman, 34430, Saint-Jean-de-Védas",34430,https://www.fourchetteettirebouchon.com,43.5686104,3.8373545
4527885185,node,Poz'pasta,restaurant,Montpellier,"9 Rue Robert Schuman, 34430, Saint-Jean-de-Védas",34430,https://poz-pasta.fr,43.5685778,3.8366149
4527886489,node,Campanile,hotel,Montpellier,"Rue Robert Schuman, 34430, Saint-Jean-de-Védas",34430,https://montpellier-ouest-saint-jean-de-vedas.campanile.com,43.567462,3.8353353
4527886515,node,Hôtel Première Classe,hotel,Montpellier,"Place de la Méditerranée, 34430, Saint-Jean-de-Védas",34430,https://montpellier-ouest-st-jean-de-vedas.premiereclasse.com,43.5670383,3.8352563
4527886516,node,Prime Hôtel,hotel,Montpellier,"Place de la Méditerranée, 34430, Saint-Jean-de-Védas",34430,https://hotel-montpellier-prime.com,43.5664309,3.8354837
4527886833,node,L'un des Sens,restaurant,Montpellier,"25 Rue Robert Schuman, 34430, Saint-Jean-de-Védas",34430,https://www.restaurant-lundessens.com,43.567799,3.8390604
4527886837,node,La Pataterie,restaurant,Montpellier,"27 Allée Jean Monnet, 34430, Saint-Jean-de-Védas",34430,https://www.lapataterie.fr,43.5686585,3.8391731
4527886838,node,Pepe & Pina,restaurant,Montpellier,"4 Rue du Traité de Rome, 34430, Saint-Jean-de-Védas",34430,https://www.pepepina.fr,43.5694178,3.8390821
4527926954,node,Trinque Fougasse,restaurant,Montpellier,,,,43.572154,3.8502018
4527996681,node,Espada Buffet,restaurant,Montpellier,,,,43.5736746,3.8507165
4527997441,node,Opanda,restaurant,Montpellier,,,,43.5722536,3.8510802
4527997442,node,Qualys Hôtel,hotel,Montpellier,,,,43.5727865,3.8524459
4528464398,node,Patio del Sol,hotel,Montpellier,,,,43.5763666,3.8493952
4528464417,node,Le Terral,hotel,Montpellier,,,,43.5762426,3.8504782
4528493857,node,Brasserie Les Arts,restaurant,Montpellier,34130,34130,,43.5428518,3.9753596
4530260832,node,Pizzeria Comptoir Bello,restaurant,Montpellier,,,,43.5736879,3.8493817
4532231258,node,Food Food,restaurant,Montpellier,,,,43.6078223,3.8896675
4532231259,node,Pourquoi Pas …,restaurant,Montpellier,,,,43.6079705,3.888846
4532231264,node,Jacques Coeur,artwork,Montpellier,,,,43.6091351,3.8906047
4543891325,node,,artwork,Montpellier,,,,43.618517,3.8545411
4578404961,node,Le Bouchon Lyonnais de Sète,restaurant,Montpellier,,,,43.4052491,3.6934495
4625530956,node,,memorial,Montpellier,,,,43.6050855,3.7354183
4634404169,node,Le Bouzou,restaurant,Montpellier,,,,43.6228733,3.8989342
4648921989,node,mur peint,artwork,Montpellier,,,,43.6081222,3.8757323
4665138461,node,Le Coureur,artwork,Montpellier,,,,43.601807,3.8935696
4670619781,node,Le resto du Lac,restaurant,Montpellier,3 Rue du Barnier,,,43.4616158,3.7669164
4674449758,node,China Wok,restaurant,Montpellier,,,,43.575157,3.9483643
4674757471,node,Domaine de Biar,hotel,Montpellier,,,,43.5964305,3.814494
4683775834,node,Léo O Resto,restaurant,Montpellier,,,,43.546623,3.7962888
4685462796,node,La Pyramide,restaurant,Montpellier,,,,43.4243328,3.7166449
4701732435,node,,monument,Montpellier,,,,45.854258,-75.1641548
4703190177,node,Le Fooky's,restaurant,Montpellier,,,,43.5778181,3.8788828
4703219794,node,L'Incontournable,restaurant,Montpellier,,,,43.5790593,3.8793773
4711927822,node,Pizza & Mozzarel,restaurant,Montpellier,,,,43.656987,3.9689374
4711927843,node,,memorial,Montpellier,,,,43.6568534,3.9695687
