osm_id,osm_type,name,category,city,address,postcode,website,lat,lon
267589863,node,Bellevue Hotel-Restaurant,hotel,Rouen,"13 Quai Hector Malot, 76530, La Bouille",76530,https://www.hotel-le-bellevue.com/,49.3528427,0.9295739
277254245,node,Chêne d'Allouville,attraction,Rouen,,,,49.5963611,0.6765317
290790131,node,Ibis Rouen Champs de Mars,hotel,Rouen,12,,http://www.ibis.com,49.4357213,1.1036174
290790135,node,Hôtel Mercure Rouen Champ de Mars,hotel,Rouen,12 bis,,http://www.mercure.com,49.4358557,1.103843
324747024,node,Novotel,hotel,Rouen,,,,49.4432137,1.075316
324806369,node,Hôtel de Dieppe,hotel,Rouen,"Place Bernard Tissot, 76000, Rouen",76000,https://hotel-dieppe.fr/,49.4483045,1.0934192
324806373,node,Yu Yuan,restaurant,Rouen,,,,49.4485663,1.0930125
362066740,node,Auberge du Bac,restaurant,Rouen,"2, 76480, Jumièges",76480,https://www.aubergedubac.fr/,49.4287088,0.8044444
362069457,node,,memorial,Rouen,,,,49.4341814,0.8205293
571285910,node,La Bertelière,hotel,Rouen,1641 Avenue du Mesnil Grémichon,,https://www.laberteliere.com/,49.4665368,1.1516414
654457489,node,Ibis Budget,hotel,Rouen,"Rue du Mont Perreux, 76230, Isneauville",76230,http://www.ibis.com,49.4901738,1.1447842
692634476,node,Panorama Rouen Est,viewpoint,Rouen,,,https://rouen.fr/saintecatherine,49.4336018,1.1098726
791077922,node,Dolce Vita Restaurant,restaurant,Rouen,,,https://dolcevitarestaurant.fr/,49.4404533,1.0983658
835732897,node,Margherita,restaurant,Rouen,,,https://margherita-rouen.fr/,49.442405,1.0893768
888347582,node,Le Relais de Montigny,hotel,Rouen,"248 Rue du Lieutenant Aubert, 76380, Montigny",76380,https://lerelaisdemontigny.fr/,49.4590142,0.9983604
937615243,node,Charles de Gaulle,memorial,Rouen,,,,49.4437212,1.0994022
946123639,node,Monument aux morts de la guerre 1914-1918 dit aux Forains,memorial,Rouen,,,,49.4462552,1.1074944
975714257,node,Mémorial de la déportation,memorial,Rouen,,,,49.4463104,1.0945292
1035703280,node,,memorial,Rouen,,,,49.439864,1.2026703
1038277900,node,Aître Saint-Maclou,attraction,Rouen,Rue Martainville,,,49.4402647,1.0998461
1259621991,node,Bûcher de Jeanne d'Arc,monument,Rouen,,,,49.4431509,1.0880297
1289584217,node,Sur la trace des Vikings,artwork,Rouen,,,,49.3212715,1.1017636
1332577877,node,La Taverne Alsacienne,restaurant,Rouen,"69 Route de Paris, 76240, Bonsecours",76240,https://www.lestavernes.com/rouen-bonsecours/,49.4227231,1.1253665
1339144126,node,Monument Jeanne d'Arc,monument,Rouen,,,,49.4216456,1.1211319
1339611921,node,Pavillon des transitions,museum,Rouen,"Quai de Boisguilbert, 76000, Rouen",76000,https://www.metropole-rouen-normandie.fr/equipements/le-pavillon-des-transitions,49.4419284,1.07756
1368358270,node,Le Darnétal,restaurant,Rouen,"2 Rue Albert Fauquet, 76160, Darnétal",76160,,49.4398045,1.1465539
1374611046,node,Le Shed,museum,Rouen,,,https://www.le-shed.com,49.482566,1.044893
1404018836,node,Au Bureau,restaurant,Rouen,,,,49.4430669,1.0738274
1445669163,node,,ruins,Rouen,,,,49.3859156,1.0354829
1497764650,node,Once udon a time,restaurant,Rouen,,,,49.4380724,1.1000092
1527088381,node,Ibis Budget,hotel,Rouen,,,,49.3921052,1.0594698
1527088390,node,Ibis,hotel,Rouen,,,https://ibis.accor.com/france/index.fr.shtml,49.3916723,1.0592499
1555746941,node,,castle,Rouen,,,,49.5620167,0.9653905
1596475358,node,La Sangria,restaurant,Rouen,"865, 76230, Bois-Guillaume",76230,https://la-sangria.fr/,49.4686695,1.1019041
1630228892,node,La Boîte à Pizza,restaurant,Rouen,83 Boulevard Charles de Gaulle,,https://www.laboiteapizza.com/fr/menu/magasin/index/pizzeria/7602,49.4195395,1.0612237
1647434283,node,Bonheur de Chine,restaurant,Rouen,,,,49.4192253,1.0445692
1654651000,node,Stand des Fusillés,memorial,Rouen,,,,49.405871,1.0665729
1657710788,node,Mairie Oissel,viewpoint,Rouen,,,,49.3395644,1.0896768
1657768231,node,ibis Styles Rouen Centre Cathédrale,hotel,Rouen,"9 Place de la République, 76000, Rouen",76000,https://all.accor.com/hotel/A0X8/index.fr.shtml,49.4377239,1.0958457
1657768235,node,Le Réverbère,restaurant,Rouen,,,,49.4376685,1.0960364
1668954541,node,Chez Meriem,restaurant,Rouen,,,,49.4264369,1.0753915
1672584477,node,Sun,restaurant,Rouen,100,,https://www.sun-sushi-rouen.fr/,49.4439633,1.0923454
1672585471,node,Le Bouillon Comptoir,restaurant,Rouen,"88 Rue Ganterie, 76000, Rouen",76000,,49.4438893,1.0926347
1672610778,node,Blotti,restaurant,Rouen,30,,https://blotti.fr/,49.4431508,1.0941972
1708100492,node,Les Capucines,restaurant,Rouen,16 Rue Jean Macé,,,49.4239747,1.0641449
1708179663,node,Le Corneille,hotel,Rouen,"140 Rue Pierre Corneille, 76300, Sotteville-lès-Rouen",76300,,49.4182198,1.0969045
1784832827,node,,viewpoint,Rouen,,,,49.4399371,1.0284211
1787046478,node,La Poste,restaurant,Rouen,"Grande Rue, 76690, Cailly",76690,,49.5797116,1.2293585
1811702228,node,Campanile Rouen Nord,hotel,Rouen,,,,49.4770033,1.0934509
1811702234,node,Eden Hotel Rouen,hotel,Rouen,"Rue Gustave Eiffel, 76230, Bois-Guillaume",76230,,49.4742805,1.1043269
1839921147,node,,ruins,Rouen,,,,49.5158057,1.094049
1846567681,node,Bistrot des Abattoirs,restaurant,Rouen,35,,,49.42642,1.0966803
1846579871,node,Tonton & Tantie Pizza,restaurant,Rouen,"109 Avenue du 14 Juillet, 76300, Sotteville-lès-Rouen",76300,https://tontontantiepizza.fr/,49.4081993,1.0886614
1846588756,node,,restaurant,Rouen,,,,49.4074,1.0916787
1846590991,node,,restaurant,Rouen,,,,49.4063796,1.1021826
1846590992,node,L'Odyssée,restaurant,Rouen,"1 Grande Rue de Quatre-Mares, 76300, Sotteville-lès-Rouen",76300,,49.4046703,1.1034806
1846627880,node,L'Atelier,restaurant,Rouen,22 Place de l'Hôtel de Ville,,,49.4155992,1.0890939
1846779722,node,Le Royal de Sotteville,restaurant,Rouen,"9 Rue Pierre Corneille, 76300, Sotteville-lès-Rouen",76300,,49.4233024,1.0905234
1846779724,node,Sushi First,restaurant,Rouen,"42 Place Voltaire, 76300",76300,https://www.sushifirst.fr/,49.4239703,1.0886888
1848332166,node,LP Pizza,restaurant,Rouen,182 Avenue du 14 Juillet,,,49.4107298,1.079177
1869987906,node,Le Vert Bocage,restaurant,Rouen,,,,49.3978856,1.1780462
1877526088,node,Le Millennial,restaurant,Rouen,,,https://www.le-millennial-rouen.fr/,49.4405723,1.09584
1877540235,node,JM's Café,restaurant,Rouen,"2 Place du Vieux Marché, 76000, Rouen",76000,https://jms-cafe.business.site/,49.4426661,1.0889317
1892286751,node,Campanile,restaurant,Rouen,,,,49.4025306,1.1614957
1915232795,node,Hôtel Campanile,hotel,Rouen,,,,49.40323,1.160757
1917414735,node,,viewpoint,Rouen,,,,49.6026351,1.0804413
1917790385,node,,ruins,Rouen,,,,49.4950621,1.0915829
1917790386,node,,ruins,Rouen,,,,49.4988892,1.062454
1919638603,node,,zoo,Rouen,,,,49.597624,1.1065613
1923940520,node,,ruins,Rouen,,,,49.5225473,1.1518185
1938479490,node,Colonne Napoléon,memorial,Rouen,,,,49.3706224,0.9985061
1952901915,node,"Bourdon ""Gros Léon""",memorial,Rouen,,,,49.4209658,1.1216581
2043803173,node,La Barbue,restaurant,Rouen,,,,49.4399904,1.0985537
2050266114,node,La Ville de Duclair à ses Enfants morts pour la France,memorial,Rouen,,,,49.4823383,0.8741358
2051119631,node,La Liberté,artwork,Rouen,,,,49.5350906,0.9640738
2127913716,node,Moulin Saint-Paul,attraction,Rouen,,,,49.4372657,1.1383043
2145286397,node,Ito,restaurant,Rouen,,,https://ito-sushi.com/rouen-gare-rue-verte/,49.4485974,1.0931438
2145294813,node,D'eux-mêmes,restaurant,Rouen,"9 Place du Vieux Marché, 76000, Rouen",76000,https://www.restaurant-deuxmemes.fr/,49.4426418,1.0883029
2154108943,node,L'Établi,restaurant,Rouen,,,,49.4655704,1.0518907
2205825882,node,Vierge,monument,Rouen,,,,49.6242179,0.7814225
2213093350,node,Le Cardinal,hotel,Rouen,,,https://www.hotelcardinal.fr/,49.4399152,1.0937419
2218322007,node,Esplanade Roland-Pesqueux,memorial,Rouen,,,,49.6124907,0.6878708
2218430824,node,Château,castle,Rouen,,,,49.6106361,0.694274
2219599443,node,La Strada,restaurant,Rouen,"3780, 76230, Bois-Guillaume",76230,https://www.restaurant-lastrada.com/,49.4735884,1.1242087
2222216306,node,Fujiya Sushi,restaurant,Rouen,3182,,https://fujiyasushi.fr/,49.4691442,1.1194177
2232392463,node,La Marine,restaurant,Rouen,,,,49.4145107,1.01416
2246454420,node,Le Bistrot du Coin,restaurant,Rouen,,,,49.4389443,1.1026798
2250346465,node,Le Clos Saint-Marc,restaurant,Rouen,112,,,49.4392133,1.101767
2254193512,node,,memorial,Rouen,,,,49.6165672,0.7560612
2258581743,node,Stèle Louis-Couroyer,memorial,Rouen,,,,49.6348466,0.8384218
2260472360,node,Stèle Jean Robic,memorial,Rouen,,,,49.4248221,1.1215633
2263101111,node,Les soeurs syriennes,restaurant,Rouen,,,,49.438235,1.100263
2278827739,node,,memorial,Rouen,,,,49.5958465,0.7274518
2298725085,node,Guillaume Le Conquérant,artwork,Rouen,,,,49.4689446,1.1170293
2299631665,node,Le Goupil,restaurant,Rouen,"66 Rue Bouvreuil, 76000, Rouen",76000,https://www.goupilrouen.com,49.4464515,1.0950454
2338642963,node,Palazzo,restaurant,Rouen,8,,,49.4431218,1.0927566
2340178517,node,La Crêpe dans le Bec,restaurant,Rouen,,,,49.4428623,1.0926179
2344459745,node,Le Sultan,restaurant,Rouen,,,,49.5464911,0.9539746
2366158239,node,,castle,Rouen,,,,49.5440912,0.822571
2382698870,node,Maison des Templiers,museum,Rouen,,,https://www.rives-en-seine.fr/pcu/maison-des-templiers/,49.5253513,0.7258829
2382706228,node,,viewpoint,Rouen,,,,49.5272284,0.7682037
2383590203,node,Dragon de Chine,restaurant,Rouen,,,,49.6159876,0.7760863
2383598178,node,Milano,restaurant,Rouen,"17 Place de l'Hôtel-de-Ville, 76190, Yvetot",76190,http://www.pizzeriamilanoyvetot.fr/,49.6163767,0.7557914
2386722789,node,Hôtel Notre-Dame,hotel,Rouen,4,,,49.4385577,1.0936682
2411326414,node,Domaine du château de Mondétour (également sur commune de Blainville-Crevon),castle,Rouen,,,,49.5205079,1.2670806
2414458308,node,,artwork,Rouen,,,,49.5408891,0.9531383
2414633941,node,Crêperie du Théâtre,restaurant,Rouen,,,,49.5452342,0.9523931
2414634004,node,,artwork,Rouen,,,,49.5437579,0.9492753
2414634010,node,Louis Ricard,artwork,Rouen,,,,49.544065,0.9503761
2414634014,node,Femme assise,artwork,Rouen,,,,49.5442093,0.9503625
2414634015,node,,artwork,Rouen,,,,49.5445411,0.9511099
2414634034,node,,artwork,Rouen,,,,49.5458241,0.9586675
2414634036,node,La Bienvenue,artwork,Rouen,,,,49.5459177,0.9519344
2414634037,node,Abbé Cochet,artwork,Rouen,,,,49.5460507,0.9518812
2414634039,node,,artwork,Rouen,,,,49.5461677,0.9546915
2414634041,node,Viaduc de Barentin,artwork,Rouen,,,,49.5477459,0.9562549
2414634055,node,Hebe,artwork,Rouen,,,,49.5512356,0.9536522
2414634061,node,,artwork,Rouen,,,,49.553409,0.9403268
2414710034,node,,artwork,Rouen,,,,49.5368437,0.9614188
2414710136,node,,artwork,Rouen,,,,49.5465835,0.9524816
2414710171,node,Statue de la Liberté de Barentin,artwork,Rouen,,,,49.5467655,0.9523018
2414710179,node,,artwork,Rouen,,,,49.5469255,0.9527427
2414710204,node,Gustave Flaubert,artwork,Rouen,,,,49.5479991,0.9540903
2414710222,node,Hector Malot,artwork,Rouen,,,,49.548166,0.9536973
2415405531,node,,artwork,Rouen,,,,49.5377454,0.9592383
2415423496,node,,artwork,Rouen,,,,49.5439054,0.9524277
2415423501,node,Sainte-Austreberthe,artwork,Rouen,,,,49.5450545,0.9539604
2417944631,node,A la mémoire des cheminots du centre de Rouen,memorial,Rouen,,,,49.4489345,1.0939906
2418326372,node,Vincent Auriol,artwork,Rouen,,,,49.5547767,0.9369415
2425438989,node,Château de Martainville,castle,Rouen,,,,49.4584553,1.2937917
2427185605,node,,memorial,Rouen,,,,49.3362276,0.9761926
2438050458,node,Stèle des Canadiens,attraction,Rouen,,,,49.327482,0.9738556
2438051018,node,,memorial,Rouen,,,,49.3353098,0.9183646
2441536962,node,,artwork,Rouen,,,,49.5448729,0.9532142
2441536963,node,Porteuse d'amphore,artwork,Rouen,,,,49.5451901,0.9526105
2451507933,node,Louis Leseigneur,artwork,Rouen,,,,49.5436099,0.9553677
2451507940,node,,artwork,Rouen,,,,49.5323259,0.9685678
2453824135,node,Manoir Du Fresnay,castle,Rouen,,,,49.7431268,0.7842976
2453865095,node,Manoir De Pichemont,castle,Rouen,,,,49.7141336,0.7737392
2552708049,node,Le Pacha,restaurant,Rouen,"4 Rue de la Chaine, 76160, Darnétal",76160,https://www.pizzerialepacha.fr/,49.4409186,1.1459717
2559795336,node,Colombier,monument,Rouen,,,,49.3852087,1.2017872
2562951410,node,Château de Launay,castle,Rouen,,,,49.5079387,0.8674208
2566954305,node,Le QG,restaurant,Rouen,,,,49.6117185,0.7727081
2631395021,node,Lemon Hôtel,hotel,Rouen,,,,49.4117344,1.1540687
2631487444,node,Le Boos,restaurant,Rouen,,,,49.3890045,1.2015862
2632971544,node,Campanile,hotel,Rouen,,,,49.3689059,1.1110064
2632971574,node,Premiere Classe,hotel,Rouen,,,,49.3692745,1.1108857
2632971588,node,B&B Hôtel,hotel,Rouen,,,,49.36925,1.1120552
2634128559,node,Chantegrill,restaurant,Rouen,,,,49.4006452,1.0638126
2634128634,node,Le Pavillon du Bonheur,restaurant,Rouen,"19-21 Avenue des Canadiens, 76800, Saint-Étienne-du-Rouvray",76800,,49.4007167,1.0647085
2635343659,node,Château de Saint-Victor,castle,Rouen,,,,49.664772,0.9701903
2635344339,node,,castle,Rouen,,,,49.6748604,0.9487995
2650291032,node,,memorial,Rouen,,,,49.6699599,0.9054576
2650643185,node,Pizza Lanna,restaurant,Rouen,,,,49.6677726,0.8952143
2663800318,node,monument aux morts,memorial,Rouen,,,,49.6349154,0.8392751
2663853903,node,,memorial,Rouen,,,,49.6345234,0.8541011
2672625898,node,,artwork,Rouen,,,,49.4675967,1.1839636
2712546942,node,Stèle Jacques Anquetil,monument,Rouen,,,,49.5222326,1.1867168
2746253439,node,Brit Hotel Rouen Centre,hotel,Rouen,"33 Boulevard Gambetta, 76000, Rouen",76000,,49.4387838,1.109288
2753924092,node,,monument,Rouen,,,,49.6345791,0.854912
2929018119,node,,viewpoint,Rouen,,,,49.3218125,1.0115024
2930255938,node,,viewpoint,Rouen,,,,49.3190247,1.0052307
2933634946,node,,viewpoint,Rouen,,,,49.4338894,0.7948939
2935684113,node,Barreau Malot,park,Rouen,,,,49.409886,1.1563795
3027755277,node,Château de Belmesnil,castle,Rouen,,,,49.4535039,1.3641036
3102967702,node,Taste of Tandoori,restaurant,Rouen,193,,https://tasteoftandoori-rouen.mystrikingly.com/,49.4259774,1.0748101
3102969830,node,Les Colonnades,restaurant,Rouen,189,,,49.4260296,1.0749293
3119272326,node,Crêperie la Bonne Famille,restaurant,Rouen,"107, 76480, Jumièges",76480,,49.4323029,0.8185037
3136684929,node,Bertran,gallery,Rouen,"Rue Molière, 76000, Rouen",76000,,49.4395197,1.0992773
3222335990,node,La Grillade,restaurant,Rouen,921 Route de Neufchâtel,,https://www.la-grillade.fr/,49.5141432,1.1701897
3299411483,node,Sous la Toque d'Olivier,restaurant,Rouen,"604 Rue de l'Église, 76230, Isneauville",76230,,49.4986615,1.1420656
3299411487,node,L'Addition,restaurant,Rouen,"509 Contre-Allée de la Route de Neufchâtel, 76230, Isneauville",76230,,49.4915135,1.142975
3338358693,node,Suzanne Savale,artwork,Rouen,,,,49.4455724,1.1479007
3393976273,node,La Petite Flamme,restaurant,Rouen,"5 Place de la Mairie, 76480, Jumièges",76480,,49.4324877,0.8188487
3400370796,node,,memorial,Rouen,,,,49.5979453,1.1106043
3416840100,node,,memorial,Rouen,,,,49.516271,0.8801598
3429884042,node,,memorial,Rouen,,,,49.3672849,1.1581098
3446025279,node,Le Dauphin,restaurant,Rouen,,,,49.4706966,1.0937373
3490751525,node,,memorial,Rouen,,,,49.5632029,1.1631654
3592496653,node,Le Saint-Pierre,restaurant,Rouen,"2 Place du Bateau, 76530, La Bouille",76530,,49.352294,0.9306148
3592537365,node,Café de la Poste,restaurant,Rouen,"6 Place du Bateau, La Bouille",,,49.352411,0.930306
3592537366,node,La maison Blanche,restaurant,Rouen,"1 Quai Hector Malot, La Bouille",,,49.3525146,0.9301413
3592537367,node,La escala,restaurant,Rouen,"3 Quai Hector Malot, La Bouille",,,49.3525733,0.9300312
3592537368,node,Les Gastronomes,restaurant,Rouen,"1 Place du Bateau, La Bouille",,,49.3519628,0.9305828
3592537373,node,,restaurant,Rouen,,,,49.3523569,0.9302783
3592599585,node,Le clos des Roses,restaurant,Rouen,,,,49.3583569,0.944819
3713076033,node,Le Central,restaurant,Rouen,"8 Rue du Bec, 76000, Rouen",76000,,49.441196,1.0930313
3714199539,node,Château de Bellegarde,castle,Rouen,,,,49.3984542,0.9338374
3714967240,node,Buste d'Hector Malo,artwork,Rouen,,,,49.3520761,0.9308808
3723249257,node,,castle,Rouen,,,,49.2660524,1.0517995
3734527924,node,Cosy Lunch,restaurant,Rouen,"8 Place de la Calende, 76000, Rouen",76000,,49.4395295,1.0950809
3758266619,node,,memorial,Rouen,,,,49.4447057,0.962319
3890804577,node,Pulp Lunch,restaurant,Rouen,24 Rue du Renard,,,49.44634,1.0849546
3891122763,node,Pagani,restaurant,Rouen,26,,https://www.pagani.pizza/,49.4463783,1.0862394
3894984634,node,Le 6e Sens,restaurant,Rouen,2,,https://le-sixiemesens.fr/,49.4433266,1.0866772
4030712519,node,Le Navy,restaurant,Rouen,11,,https://lenavy.fr/,49.4379025,1.0994803
4046470183,node,Amore Mio,restaurant,Rouen,149 Rue Saint-Hilaire,,https://amoremio-rouen.fr/,49.4423046,1.1066499
4051240235,node,Hôtel particulier,castle,Rouen,,,,49.4469913,1.0908267
4052798916,node,Ferme des Templiers,castle,Rouen,,,,49.4340994,0.9669875
4057019078,node,Joubeil,restaurant,Rouen,,,,49.4379821,1.0970691
4061990841,node,Ho Lamian,restaurant,Rouen,243,,,49.4414253,1.0995313
4121127458,node,Buste de Jean Lecanuet,artwork,Rouen,,,,49.4407753,1.1077522
4130807402,node,La Tarantine,restaurant,Rouen,"1 Route de Duclair, 76380, Canteleu",76380,https://latarantine.fr/,49.439888,1.0272794
4149907554,node,Wasabi,restaurant,Rouen,"34 bis Place de l'Hôtel de Ville, 76300, Sotteville-lès-Rouen",76300,https://wasabi76.fr/,49.4145472,1.0901088
4177197017,node,La Pasta Tinto,restaurant,Rouen,"4 Rue Alsace Lorraine, 76000, Rouen",76000,,49.4385994,1.1001082
4213480192,node,Panorama de Mont-Saint-Aignan,viewpoint,Rouen,,,,49.4565155,1.0684362
4213719658,node,,artwork,Rouen,,,,49.4571677,1.0671797
4226152609,node,Au Club,restaurant,Rouen,"37, 76130, Mont-Saint-Aignan",76130,,49.4668941,1.0655762
4241520713,node,,castle,Rouen,,,,49.6769995,0.9071378
4280018395,node,Statue de Jeanne d'Arc,memorial,Rouen,,,,49.4430506,1.0880551
4282132440,node,Cancan,restaurant,Rouen,,,https://cancantraiteur.com/,49.4429962,1.0871317
4363435272,node,,artwork,Rouen,,,,49.585616,1.3631339
4375664540,node,L'éveil humain,artwork,Rouen,,,,49.5438685,0.9487518
4375709624,node,L'Enfant au Dauphin,artwork,Rouen,,,,49.5454463,0.9517193
4375709625,node,Madeleine Vernet,artwork,Rouen,,,,49.544617,0.9526308
4375732899,node,,artwork,Rouen,,,,49.5457488,0.9531844
4379140989,node,Le Grand Atelier,gallery,Rouen,,,,49.4408915,1.1000262
4380216093,node,Bacetto,restaurant,Rouen,"5 Quai de Boisguilbert, 76000, Rouen",76000,https://bacetto-rouen.fr/,49.4434994,1.0723684
4386474579,node,,restaurant,Rouen,,,,49.4406998,1.1447994
4391465030,node,Restaurant universitaire du Madrillet,restaurant,Rouen,"1 Avenue de l'Université, 76800, Saint-Étienne-du-Rouvray",76800,,49.3867025,1.0696522
4403230180,node,Musée de la Céramique,museum,Rouen,1,,https://museedelaceramique.fr/,49.4455129,1.0936222
4410339672,node,,memorial,Rouen,,,,49.5842818,1.3568106
4410383866,node,,memorial,Rouen,,,,49.5923603,1.408407
4458368384,node,Hôtel Astrid,hotel,Rouen,11,,https://www.hotel-astrid.fr/,49.4482638,1.0938408
4458402696,node,Hoian Resto,restaurant,Rouen,9 Rue Verte,,https://hoianresto76.fr,49.4477479,1.0935707
4467955597,node,,memorial,Rouen,,,,49.4784848,1.2983917
4480957884,node,Ito Sushi,restaurant,Rouen,1,,,49.4429099,1.0907221
4489833541,node,Gandhi,restaurant,Rouen,18,,https://www.gandhi-rouen.com/,49.4344018,1.0855521
4490288420,node,Brasserie du Cailly,restaurant,Rouen,,,,49.4632859,1.0455023
4499166338,node,Mama fufu,restaurant,Rouen,,,,49.4324339,1.0890107
4500373406,node,Ikaze,restaurant,Rouen,12,,,49.4327888,1.0913379
4503496653,node,Kopitiam,restaurant,Rouen,,,,49.4348699,1.0897973
4548322200,node,Hisashi Ramen,restaurant,Rouen,,,https://www.hisashii-ramen.fr/,49.4419152,1.0901608
4548462935,node,Ancien hôtel de ville,castle,Rouen,,,,49.4414887,1.0915219
4548479498,node,Mamie,restaurant,Rouen,26 Place du Vieux Marché,,https://www.mamie-restaurants.com/,49.4437176,1.0882202
4548479499,node,Italian Trattoria,restaurant,Rouen,,,https://it-trattoria.fr/,49.4436876,1.0883957
4548479500,node,Le P'tit Zinc,restaurant,Rouen,,,https://www.leptitzinc.com/,49.4436208,1.088659
4548479504,node,New York Coffee,restaurant,Rouen,16 Place du Vieux Marché,,,49.4434764,1.089181
4548479505,node,"Gill, côté bistrot",restaurant,Rouen,,,https://www.gill-cote-bistro.fr/,49.4434497,1.0892755
4548479517,node,Marcel,restaurant,Rouen,"39 Place du Vieux Marché, 76000, Rouen",76000,https://marcel-rouen.fr/,49.4428003,1.0875244
4548479518,node,Les Maraichers,restaurant,Rouen,37 Place du Vieux Marché,,https://www.lesmaraichers.com/,49.4427841,1.0876069
4548479529,node,Le Café Populaire,restaurant,Rouen,,,,49.4425845,1.0885163
4552754543,node,Hôtel de la Cathédrale,hotel,Rouen,12,,https://hotel-de-la-cathedrale.fr,49.4401433,1.0969667
4552989462,node,Sole Mio,restaurant,Rouen,"122 Rue Martainville, 76000, Rouen",76000,,49.4394064,1.1011167
4552989478,node,Les Délices Afghans,restaurant,Rouen,"150 Rue Martainville, 76000, Rouen",76000,,49.4397072,1.1000687
4552989483,node,La Bocelli,restaurant,Rouen,"168 Rue Martainville, 76000, Rouen",76000,,49.4397883,1.0997483
4552989597,node,Galerie Drip's,gallery,Rouen,"210 Rue Martainville, 76000, Rouen",76000,,49.4399465,1.0990554
4552989599,node,Simone,restaurant,Rouen,"214 Rue Martainville, 76000, Rouen",76000,https://simone.onataste.fr/,49.4399448,1.0989401
4552989601,node,Auberge Saint-Maclou,restaurant,Rouen,222,,,49.4399924,1.098787
4552989605,node,Les Fils à Maman,restaurant,Rouen,232,,https://www.lesfilsamaman.com/restaurants/rouen/,49.4399858,1.0986178
4552989611,node,La Walsheim,restaurant,Rouen,260,,https://www.lawalsheim.fr/,49.4400275,1.0981444
4552989614,node,Zhoushi,restaurant,Rouen,"4 Place Barthélémy, 76000, Rouen",76000,http://www.zhoushi.fr/,49.4399785,1.0979395
4553046640,node,Restaurant des Beaux Arts,restaurant,Rouen,,,https://www.restaurant-des-beaux-arts.com/,49.4407503,1.0986561
4553046660,node,L'epicurius,restaurant,Rouen,,,https://www.lepicurius.fr/,49.4406691,1.098414
4553046664,node,Le Maharaja,restaurant,Rouen,,,https://www.le-maharaja.com/,49.4403261,1.0981396
4553046666,node,Tandem,restaurant,Rouen,,,https://tandem-rouen.fr/,49.4402195,1.0980855
4553046670,node,Tranché,restaurant,Rouen,,,,49.4400341,1.097993
4553652442,node,Afghan Restaurant,restaurant,Rouen,,,,49.4336082,1.0886287
4553713577,node,Petit Gars,restaurant,Rouen,"37, 76000",76000,,49.4405044,1.0916451
4553757724,node,La Régalière,restaurant,Rouen,"12, 76000",76000,,49.441916,1.0914505
4553757738,node,EMJI,restaurant,Rouen,3,,,49.4418648,1.0911957
4553781498,node,Les Initiés,hotel,Rouen,45,,,49.4419592,1.0924073
4553781504,node,Le Diplomate,restaurant,Rouen,10,,,49.4428694,1.091562
4553781505,node,Vila Nela,restaurant,Rouen,"5 Place Maréchal Foch, 76000, Rouen",76000,https://www.vilanela.fr/,49.4422704,1.0911906
4553889701,node,BaoBaozi,restaurant,Rouen,"14 Rue Thouret, 76000, Rouen",76000,,49.4416908,1.0921528
4555961858,node,Le Palais Indien,restaurant,Rouen,91,,https://lepalaisindien.com/,49.4469859,1.0950479
4556237006,node,Kopitiam,restaurant,Rouen,,,,49.4448553,1.0872165
4556237022,node,Hôtel Dandy,hotel,Rouen,,,http://www.hotels-rouen.net,49.4452871,1.0867145
4556237049,node,Lolo & Zaza,restaurant,Rouen,,,,49.4444996,1.0873403
4556237056,node,Doges,restaurant,Rouen,,,https://les-doges-rouen.eatbu.com/,49.4441018,1.0876143
4556237058,node,Chiba Ramen,restaurant,Rouen,,,https://www.chibaramen.fr/,49.4440157,1.0877007
4556237064,node,Chez Huri,restaurant,Rouen,,,,49.4442053,1.0877395
4556237068,node,Un Grain de,restaurant,Rouen,,,https://www.restaurant-rouen-ungrainde.fr/,49.4439894,1.0879101
4556237071,node,YumMó,restaurant,Rouen,,,,49.4438792,1.0879969
4565160838,node,Skáli,restaurant,Rouen,"2 Place de l'Église, 76490, Saint-Wandrille-Rançon",76490,https://www.skalirestaurant.com/,49.5280985,0.7666284
4569411355,node,,memorial,Rouen,,,,49.4167334,1.1397082
4583373685,node,Les Saveurs du Liban,restaurant,Rouen,55,,,49.4421641,1.1101876
4583391306,node,Musée national de l’Éducation,museum,Rouen,185,,https://www.munae.fr/,49.4413704,1.1016992
4584342927,node,Rollon,memorial,Rouen,,,,49.4420771,1.1003843
4597207819,node,L'Étoile d'Or,restaurant,Rouen,,,,49.4413038,1.0986604
4597229954,node,La Petite Bouffe,restaurant,Rouen,"1 Rue des Boucheries Saint-Ouen, 76000, Rouen",76000,https://www.rouentourisme.com/restaurants-traditionnels/la-petite-bouffe-1705/,49.4416026,1.0989338
4597235929,node,Le Berbère,restaurant,Rouen,,,,49.441866,1.0990917
4602932394,node,Le Duo Restaurant Grill,restaurant,Rouen,"71 Avenue Jean Jaurès, 76140, Le Petit-Quevilly",76140,,49.427165,1.0656235
4622670992,node,Pizza du Roi,restaurant,Rouen,"283 Route du Château, 76116",76116,https://m.facebook.com/pizzaduroimartainville/?locale2=fr_FR,49.4597828,1.2953675
4638897134,node,La Dune,restaurant,Rouen,10,,https://ladune-restaurant.fr/,49.4336465,1.0876516
4638897139,node,L'Étoile du Sud,restaurant,Rouen,12,,https://etoile-du-sud.eatbu.com/,49.433728,1.0873515
4665553159,node,Au Refuge Berbère,restaurant,Rouen,38,,https://www.restaurant-au-refuge-berbere.com/,49.4410125,1.087042
4687235116,node,Carrousel,restaurant,Rouen,,,https://www.carrousel-rouen.com/,49.440962,1.0997737
4687235117,node,Le Café Perdu,restaurant,Rouen,"44 Rue d'Amiens, 76000, Rouen",76000,https://www.instagram.com/lecafeperdu_rouen?igsh=MWtvZGllMmFiaXpiZw==,49.4410987,1.0998823
4687273796,node,Le Kaboul,restaurant,Rouen,,,,49.4407457,1.1005078
4687273799,node,La Famille syrienne,restaurant,Rouen,,,,49.4406711,1.1007864
4703567551,node,H Grill,restaurant,Rouen,,,,49.620987,0.7860859
4714008659,node,,monument,Rouen,,,,49.4381921,1.0945253
4722526524,node,Le Vieux Carré,hotel,Rouen,34,,https://www.hotel-vieux-carre.com/,49.4434522,1.0946477
4729048249,node,Le Mont Saint-Pizza,restaurant,Rouen,,,,49.4626591,1.0757611
4729457236,node,,monument,Rouen,,,,49.5661618,0.9509233
4729615504,node,Raoul Dautry,memorial,Rouen,,,,49.5492368,0.9534835
4729615505,node,Alphonse Karr,memorial,Rouen,,,,49.5490826,0.9536553
4729790449,node,,memorial,Rouen,,,,49.3398378,0.9616721
4730739896,node,Sculpture Transparente n°8,artwork,Rouen,,,,49.4767204,1.0927486
4737125599,node,Le Refuge,restaurant,Rouen,,,,49.4176997,1.043704
4769798821,node,Les P'tites Pommes,restaurant,Rouen,,,,49.5985669,1.1099603
4816681666,node,Tenzin Momo,restaurant,Rouen,2,,https://www.instagram.com/tenzinmomo2,49.4392602,1.1022397
4825137425,node,Auberge des ruines,restaurant,Rouen,,,,49.4326244,0.8188568
4825206436,node,,artwork,Rouen,,,,49.4526213,0.8303457
4825440879,node,Le Carré des Moines,artwork,Rouen,,,,49.4445076,0.9647003
4825440894,node,Le prieur,artwork,Rouen,,,,49.4444283,0.9669909
4825440895,node,La vierge à l'enfant,artwork,Rouen,,,,49.4444747,0.9643898
4838889358,node,,artwork,Rouen,,,,49.4380919,0.823862
4853844312,node,L'Etage,restaurant,Rouen,"7 Avenue Foch, 76190, Yvetot",76190,,49.6183706,0.7492637
4888346688,node,August,restaurant,Rouen,,,,49.4381179,1.1001782
4888346689,node,Le Delhi,restaurant,Rouen,15,,http://restaurantdelhi.net,49.4381936,1.1002348
4890039053,node,Brasserie du Bac,restaurant,Rouen,,,,49.524578,0.7276034
4897330421,node,Zhoushi,restaurant,Rouen,"13 Rue Grand Pont, 76000, Rouen",76000,,49.4388851,1.0921655
4910824977,node,Domaine d'Yville (également sur communes de Barneville-sur-Seine (27) et Mauny (76) ),castle,Rouen,,,,49.3971865,0.87841
4940930440,node,Le Croc Normand,restaurant,Rouen,,,https://lecrocnormand.eatbu.com/?lang=fr,49.6277317,1.1738754
4941047621,node,L'assiette du Boulanger,restaurant,Rouen,26,,,49.4461129,1.068225
4956203482,node,,restaurant,Rouen,,,,49.3874962,1.2008082
5000055887,node,Auberge du Val au Cesne,restaurant,Rouen,"140 Le Val au Cesne, 76190, Croix-Mare",76190,https://www.valaucesne.fr/,49.5902771,0.7991917
5002694157,node,Fujiya Sushi,restaurant,Rouen,"14, 76000, Rouen",76000,https://fujiyasushi.fr/restaurants/rouen-centre-place-du-vieux-marche/,49.4437281,1.0897234
5018484090,node,La Cantine,restaurant,Rouen,192,,,49.4416184,1.0994291
5020627309,node,,monument,Rouen,,,,49.6694714,0.9095051
5036948722,node,Rest'O'Rock,restaurant,Rouen,15,,https://www.restorock.net/,49.443257,1.0865934
5061516823,node,La Cornaëlle,restaurant,Rouen,"174 Rue Eau de Robec, 76000",76000,,49.4415225,1.1003646
5061624521,node,Payiz,restaurant,Rouen,9 Rue de l'Hôpital,,,49.4425522,1.0973882
5061652921,node,Le Boma,restaurant,Rouen,4,,https://leboma-restaurant.eatbu.com/?lang=fr#,49.4436541,1.0888857
5061680521,node,La Couronne,restaurant,Rouen,"31 Place du Vieux Marché, 76000",76000,https://www.lacouronne-rouen.fr/,49.4427562,1.0877831
5061711121,node,Gill,restaurant,Rouen,8,,https://www.gill.fr/,49.4386096,1.091032
5061727721,node,La Pêcherie,restaurant,Rouen,"29 Place de la Basse Vieille Tour, 76000",76000,https://www.lapecherie.fr/,49.4378684,1.0943683
5061733623,node,La Petite Auberge,restaurant,Rouen,164,,https://www.restaurant-petite-auberge.fr/,49.4397756,1.0997975
5061771224,node,Louisette,restaurant,Rouen,"35 Rue Percière, 76000, Rouen",76000,,49.4436977,1.0922642
5069557525,node,Bella Carlotta,restaurant,Rouen,,,,49.4842593,0.8069784
5070015252,node,,viewpoint,Rouen,,,,49.4236139,1.1173895
5070015253,node,,viewpoint,Rouen,,,,49.4228968,1.118577
5070015254,node,,viewpoint,Rouen,,,,49.4216616,1.1210393
5104014038,node,,memorial,Rouen,,,,49.623247,0.7763597
5105543539,node,La Bekaa,restaurant,Rouen,"36 Rue Percière, 76000, Rouen",76000,https://www.facebook.com/cusinelibanaise,49.4434362,1.092201
5146003966,node,Château de Canteleu,castle,Rouen,,,https://www.chateaudes2lions.fr,49.4368415,1.0250551
5147564511,node,Château de la Rivière-Bourdet,castle,Rouen,,,,49.4136257,0.9454733
5147564512,node,Château d'Esneval,castle,Rouen,,,,49.5716673,0.9533322
5162752006,node,Ancienne église Saint-Nicolas,ruins,Rouen,,,,49.4416338,1.0957069
5176351494,node,Joseph Hue,memorial,Rouen,,,,49.4699416,1.0495296
5180557320,node,Croix de Pierre,monument,Rouen,,,,49.4470624,1.0999937
5186239152,node,Louis Antier,memorial,Rouen,,,,49.3921496,1.0572051
5186451494,node,,artwork,Rouen,,,,49.5298367,0.7688451
5186464339,node,,artwork,Rouen,,,,49.5289422,0.7682929
5186561896,node,,artwork,Rouen,,,,49.4312514,0.8202306
5186817812,node,Henri IV en Hercule,artwork,Rouen,,,,49.4411654,1.0856661
5186817813,node,François-Adrien Boieldieu,memorial,Rouen,,,,49.4384043,1.0939661
5186817814,node,Gustave Flaubert,memorial,Rouen,,,,49.4423113,1.0960613
5186817815,node,Pierre Corneille,memorial,Rouen,,,,49.4452656,1.1004968
5186817816,node,Georges Dubosc,memorial,Rouen,,,,49.4471836,1.0925781
5186817818,node,Guy de Maupassant,memorial,Rouen,,,,49.4452494,1.0928982
5186817819,node,Père Hamel,memorial,Rouen,,,,49.382713,1.107011
5187952546,node,La Pomme d'or,artwork,Rouen,,,,49.4431,1.1034658
5187952576,node,Grosse pierre de Jelling,memorial,Rouen,,,,49.4422175,1.1004896
5187952600,node,Parole piégée,artwork,Rouen,,,,49.3952131,1.059557
5188299880,node,Escadron de chasse Normandie-Niemen,memorial,Rouen,,,,49.4436262,1.0996527
5189262521,node,Au bout de l'errance,memorial,Rouen,,,,49.4433346,1.0939157
5189262522,node,Pan,artwork,Rouen,,,,49.445727,1.0933787
5189262524,node,Louis Bouilhet,memorial,Rouen,,,,49.4443278,1.0947649
5189262525,node,Michel Anguier,artwork,Rouen,,,,49.4447775,1.0941069
5189262526,node,Nicolas Poussin,artwork,Rouen,,,,49.4448455,1.0941337
5189262528,node,Claude Monet,memorial,Rouen,,,,49.441637,1.0976058
5191130929,node,Préambule,restaurant,Rouen,"1370 Route de Neufchâtel, 76230, Isneauville",76230,,49.4962384,1.1499008
5191288383,node,Rest’Authentique,restaurant,Rouen,"496 Route de Neufchâtel, 76230, Quincampoix",76230,https://restauthentique.fr/,49.5109316,1.1669385
5194716122,node,Ottoman Palace,restaurant,Rouen,85 Avenue des Canadiens,,http://www.ottomanpalace.fr/,49.4104257,1.0716035
5202626609,node,In Situ,restaurant,Rouen,35 Rue Jean Lecanuet,,https://www.insitu-restaurant.com/,49.4441903,1.0938976
5202663018,node,L'Odas,restaurant,Rouen,"4 Passage Maurice Lenfant, 76000, Rouen",76000,https://lodas.fr,49.4410947,1.0945572
5202813445,node,Victor Hugo,memorial,Rouen,,,,49.516633,0.6803052
5204255036,node,Monument aux morts d'Indochine,memorial,Rouen,,,,49.4337042,1.0912608
5206551792,node,L'enlèvement de Déjanire par le centaure Nessus,artwork,Rouen,,,,49.4431397,1.1008356
5207112883,node,Jean Revel,memorial,Rouen,,,,49.4446782,1.0933976
5207112900,node,Monument des frères Bérat,memorial,Rouen,,,,49.4451049,1.0929274
5208595487,node,,artwork,Rouen,,,,49.4696811,1.0500488
5225212818,node,Restaurant Universitaire des deux bois,restaurant,Rouen,,,,49.4650248,1.0628662
5226149822,node,,memorial,Rouen,,,,49.469461,1.1115383
5226149860,node,,memorial,Rouen,,,,49.4694231,1.110753
5228354353,node,,memorial,Rouen,,,,49.4636916,1.1272734
5258059503,node,Musée du patrimoine des écoles,museum,Rouen,"Place du Général de Gaulle, 76920, Amfreville-la-Mi-Voie",76920,https://amfreville-la-mivoie.fr/wordpress/?page_id=208,49.4066818,1.1221347
5260322400,node,Flunch,restaurant,Rouen,,,,49.5351111,0.9679948
5260484415,node,La Terrasse,restaurant,Rouen,,,,49.5370352,0.9667845
5260484420,node,Le Madison,restaurant,Rouen,,,,49.5360376,0.9688583
5276478472,node,Pierre Corneille,memorial,Rouen,,,,49.6172859,0.7550046
5276478473,node,Guy de Maupassant,memorial,Rouen,,,,49.6173128,0.754957
5287604801,node,Le Tie Break,restaurant,Rouen,,,,49.6152301,0.7594079
5292325973,node,L'Anticonformiste,restaurant,Rouen,,,,49.4410628,1.098437
5292326968,node,Brasserie Al'1,restaurant,Rouen,,,,49.4399311,1.0936493
5312599340,node,Ôdate Sushi,restaurant,Rouen,,,https://www.odatesushi.fr/,49.4331435,1.0909379
5312608611,node,Richi Sushi,restaurant,Rouen,,,,49.4328345,1.0901979
5322529505,node,Hanoi Délices,restaurant,Rouen,,,,49.4397195,1.089433
5325166823,node,Le petit Boquié,restaurant,Rouen,"25 Rue des Bonnetiers, 76000, Rouen",76000,,49.4396336,1.0961258
5363059222,node,La Galerie de Rouen,gallery,Rouen,"33 Rue de l'Hôpital, 76000, Rouen",76000,,49.4427735,1.0963625
5372035422,node,Citizen Coffee,restaurant,Rouen,4,,,49.4435025,1.0943038
5398249322,node,Le XXI,restaurant,Rouen,,,,49.440582,1.0914142
5426753322,node,Hygge,restaurant,Rouen,,,,49.4437683,1.0896156
5442243426,node,O'Douze,restaurant,Rouen,,,,49.6189146,0.7532038
5452201039,node,Hôtel Art & Seine,hotel,Rouen,,,https://streetarthotel.com/,49.4389431,1.0920081
5468878521,node,Bibelot,restaurant,Rouen,"8 Place de la Pucelle, 76000, Rouen",76000,,49.4421089,1.0888695
5503632501,node,Nachos,restaurant,Rouen,,,http://nachos-mexicangrill.com,49.4425128,1.08917
5503743755,node,Mercure,hotel,Rouen,7,,https://www.accorhotels.com/,49.4411955,1.0950959
5521083124,node,Pierre tombale de Jehan IV,memorial,Rouen,,,,49.6162965,0.7527318
5528075691,node,,memorial,Rouen,,,,49.5283355,0.6668778
5550577323,node,Le Stromboli,restaurant,Rouen,,,,49.4390693,1.0908256
5556608396,node,Saveurs de Chine,restaurant,Rouen,43,,,49.4409372,1.0866166
5557629103,node,La Rotonde,restaurant,Rouen,,,,49.4331188,1.0881276
5566378621,node,Nam Bistrot,restaurant,Rouen,"93 Rue Beauvoisine, 76000, Rouen",76000,,49.4453625,1.0971612
5597087712,node,Galerie Sepid,gallery,Rouen,,,,49.4449449,1.0871602
5621402616,node,Pascaline,restaurant,Rouen,"5 Rue de la Poterne, 76000, Rouen",76000,https://laparenthese.metro.rest,49.44297,1.0922909
5629003534,node,Hôtel de Lille,hotel,Rouen,,,,49.4326196,1.0898279
5629481581,node,Asian Food,restaurant,Rouen,12,,,49.430913,1.0852966
5652093845,node,Canopée,restaurant,Rouen,8,,,49.4429945,1.0926853
5653467722,node,Carrefour du lin,museum,Rouen,,,https://www.doudeville.fr/decouverte-lin/visiter-et-sejouner/carrefour-du-lin/,49.7213571,0.7830922
5657296496,node,Le Roi du Poulet Grillé,restaurant,Rouen,1,,http://au-poulet-grille.com,49.4378128,1.0794754
5666005491,node,Monument guerre d'Algérie et seconde guerre mondiale,monument,Rouen,,,,49.3374038,1.082939
5667044871,node,Bân Thaï,restaurant,Rouen,95,,https://www.banthai-rouen.fr/,49.4439647,1.0907769
5719648822,node,La Terrasse,restaurant,Rouen,"9 Place du Vieux Marché, 76000, Rouen",76000,https://www.laterrasse-rouen.fr/,49.4426179,1.0883906
5746650514,node,Pizzeria de l'Abbaye,restaurant,Rouen,"269, 76480, Jumièges",76480,,49.4333474,0.8199137
5782594692,node,,artwork,Rouen,,,,49.3776338,1.002733
5839154710,node,,memorial,Rouen,,,,49.5072997,1.039796
5852336295,node,Le Square Henri IV,restaurant,Rouen,22,,,49.4408348,1.0853081
5892905342,node,Memphis Coffee,restaurant,Rouen,,,,49.5341325,0.9648361
5903352802,node,Couple assis,artwork,Rouen,,,,49.5379976,1.4009002
5903748291,node,Le Vivaldi,restaurant,Rouen,,,,49.5247582,0.7251866
5964239139,node,Délices de Yifan,restaurant,Rouen,20 Place du Vieux Marché,,https://www.yifan.fr/,49.4436503,1.0885077
6052649285,node,,memorial,Rouen,,,,49.5888896,1.0361491
6052655577,node,,memorial,Rouen,,,,49.5623467,0.8674894
6052655578,node,,memorial,Rouen,,,,49.5616856,0.8908381
6070521341,node,Hôtel de l’Europe,hotel,Rouen,,,https://www.h-europe.fr/,49.4411075,1.0892158
6070580531,node,Philippe,restaurant,Rouen,,,https://www.restaurantphilippe.fr/,49.4409349,1.0903566
6125635885,node,La grande muraille,restaurant,Rouen,,,,49.2868163,1.0065563
6125652532,node,Musée de la fabrique des savoirs,museum,Rouen,"7 Cours Gambetta, 76500, Elbeuf",76500,https://lafabriquedessavoirs.fr/,49.2849932,1.0058403
6125655720,node,Paulaner München,restaurant,Rouen,,,,49.2859976,1.0071499
6125672647,node,Le Bysance,restaurant,Rouen,32,,,49.4422519,1.0966586
6132161926,node,Le Paname,restaurant,Rouen,"32, 76130, Mont-Saint-Aignan",76130,,49.4627168,1.0704329
6132161929,node,Le Colbert,restaurant,Rouen,"Place Colbert, 76130, Mont-Saint-Aignan",76130,,49.4623152,1.0720295
6138950450,node,,castle,Rouen,,,,49.5497185,1.2903215
6142951054,node,,castle,Rouen,,,,49.5832462,1.3866867
6150147306,node,,castle,Rouen,,,,49.6336505,0.986917
6163242958,node,Auberge de la Durdent,restaurant,Rouen,,,,49.6982292,0.6972578
6171336563,node,Le Chakchouka,restaurant,Rouen,"110 Rue Saint-Hilaire, 76000, Rouen",76000,,49.4423736,1.1080231
6171377672,node,Au Bureau,restaurant,Rouen,,,,49.6150975,0.7731648
6173265139,node,Aux Delices des Carmes,restaurant,Rouen,"48 Place des Carmes, 76000, Rouen",76000,https://aux-delices-des-carmes.edan.io/,49.4424525,1.0953398
6173932435,node,,artwork,Rouen,,,,49.4091405,1.1214138
6238041171,node,,memorial,Rouen,,,,49.2916143,1.0069921
6255906961,node,Croix de Jesus,artwork,Rouen,,,,49.5405799,0.9963899
6259932600,node,Le P'tit Bec,restaurant,Rouen,182,,https://www.leptitbec.com/,49.4415473,1.0999704
6259948252,node,Les Gens Heureux,restaurant,Rouen,196,,,49.4415488,1.0993872
6266998359,node,Maneki Neko,restaurant,Rouen,"192 Rue Garibaldi, 76300, Sotteville-lès-Rouen",76300,http://manekineko76.fr,49.4174122,1.0911131
6285675909,node,,ruins,Rouen,,,,49.6138052,0.6658411
6342591336,node,Hot Sushi,restaurant,Rouen,"272, 76250",76250,,49.4665954,1.0516968
6348102016,node,,memorial,Rouen,,,,49.4214254,1.1791031
6373171821,node,Au Prince des Sables,restaurant,Rouen,78,,https://www.auprincedesables.fr/,49.4433547,1.1041225
6387889660,node,Pavillon Flaubert,museum,Rouen,"18 Quai Gustave Flaubert, 76380, Canteleu",76380,http://rnbi.rouen.fr/fr/page-descriptive/le-pavillon-flaubert,49.434432,1.0300291
6387900990,node,,monument,Rouen,,,,49.6707934,0.9051655
6416644608,node,Terres de France - Rouen Flaubert,hotel,Rouen,"29 Avenue Jean Rondeaux, 76100, Rouen",76100,https://www.apparthotel-rouen-flaubert.com/,49.4347136,1.0768052
6433084271,node,Le Suya,restaurant,Rouen,76,,,49.4298474,1.0748466
6434114445,node,Jeanne d’Arc,memorial,Rouen,,,,49.4381008,1.0915556
6434114454,node,,memorial,Rouen,,,,49.4371613,1.0958911
6440531751,node,,memorial,Rouen,,,,49.4279961,1.0798674
6440869410,node,,memorial,Rouen,,,,49.4337079,1.0775092
6440883871,node,Le Veau d'Or,restaurant,Rouen,3,,https://www.restaurantleveaudor.fr/,49.4292332,1.0950782
6443023207,node,La table du Boucher,restaurant,Rouen,"3980, 76230, Bois-Guillaume",76230,,49.4747228,1.1256959
6457133107,node,,memorial,Rouen,,,,49.471439,0.8159312
6458365223,node,La Pressqu'île,restaurant,Rouen,,,,49.4829022,0.7737141
6458803464,node,,memorial,Rouen,,,,49.4781425,0.7700439
6461327145,node,Bambini,restaurant,Rouen,"164 Rue Eau de Robec, 76000, Rouen",76000,,49.4415398,1.100889
6489483516,node,O'Fratelli,restaurant,Rouen,"28 Rue du Maréchal Foch, 76350, Oissel",76350,,49.3416008,1.0977796
6510565547,node,,memorial,Rouen,,,,49.4661975,1.0570492
6510583117,node,,memorial,Rouen,,,,49.4659905,1.0565798
6520659824,node,Gyro,artwork,Rouen,,,,49.4430686,1.0764724
6528475276,node,Ancre de la Jeanne d'Arc,attraction,Rouen,,,,49.4361343,1.0947511
6532589485,node,Maison natale Maurice et Charles Nicolle,attraction,Rouen,,,,49.4455561,1.096754
6541005882,node,Riquette,restaurant,Rouen,"Rue Malpalu, 76000, Rouen",76000,,49.4393452,1.0976016
6551818975,node,Dominute Pizza,restaurant,Rouen,"3803, 76230, Bois-Guillaume",76230,,49.4738407,1.1241294
6564565654,node,L'envie des mets,restaurant,Rouen,9,,,49.4397255,1.0944931
6569758843,node,Lion de Ningbo,artwork,Rouen,,,,49.420184,1.0779664
6569758844,node,Lion de Ningbo,artwork,Rouen,,,,49.420167,1.0778584
6569758846,node,Pierre runique,memorial,Rouen,,,,49.4208322,1.0778618
6569758848,node,Eugène Noël,artwork,Rouen,,,,49.4200138,1.0777169
6588739800,node,La Scala,restaurant,Rouen,,,https://www.lascalarouen.com/,49.4411022,1.0726473
6588739802,node,Hangar 107,gallery,Rouen,,,,49.4410643,1.072784
6588740091,node,cocorico,restaurant,Rouen,,,,49.4411494,1.0725185
6589580685,node,Vue sur Seine,restaurant,Rouen,,,,49.4445096,1.0674838
6589580690,node,,memorial,Rouen,,,,49.4401203,1.0834191
6589580691,node,,memorial,Rouen,,,,49.4378841,1.0914532
6589581285,node,La fabrik,restaurant,Rouen,,,,49.4412154,1.0800507
6614910006,node,Shalimar,restaurant,Rouen,,,,49.4418416,1.096901
6649520652,node,Rotomagus,restaurant,Rouen,7,,https://www.rotomagus.eu,49.4397908,1.0976354
6669628334,node,Le Dominion,restaurant,Rouen,"12, 76130, Mont-Saint-Aignan",76130,https://le-dominion.fr,49.4605167,1.084563
6669628351,node,Le Druide,restaurant,Rouen,"78, 76130, Mont-Saint-Aignan",76130,,49.4708089,1.078175
6685150860,node,André Marie,artwork,Rouen,,,,49.5400801,0.9649168
6710984577,node,Monument aux morts,memorial,Rouen,,,,49.3887413,1.1386748
6719060178,node,Noël-Honoré Fauvel,artwork,Rouen,,,,49.5662379,0.9542735
6719744188,node,Sainte-Austreberthe,artwork,Rouen,,,,49.5661473,0.9538879
6726462790,node,La Grignoterie : sandwicherie,restaurant,Rouen,,,,49.3856236,1.0712508
6726462791,node,La Grignoterie : sandwicherie,restaurant,Rouen,,,,49.3866847,1.0738277
6760420018,node,,artwork,Rouen,,,,49.4694893,1.049877
6789853621,node,,memorial,Rouen,,,,49.5266581,0.9301619
6790058590,node,,artwork,Rouen,,,,49.540268,0.9536383
6834784740,node,Brasserie & Traiteur LE CENTRAL,restaurant,Rouen,"1 Rue antoine laurent de lavoisier, 76300, Sotteville-lès-Rouen",76300,https://www.facebook.com/lecentralsotteville/,49.4029642,1.1136894
6903489462,node,Mémorial Départemental Algérie-Maroc-Tunisie 1952-1962,memorial,Rouen,,,,49.4339431,1.0912355
6920890722,node,La Crêperie Rouennaise,restaurant,Rouen,,,,49.4410378,1.0983927
6958278788,node,Paul,restaurant,Rouen,1,,http://brasserie-Paul.com,49.4398434,1.0937411
6966568734,node,Roland Tafforeau,memorial,Rouen,,,,49.4173378,1.0917091
6975341722,node,Le bistrot d'Arthur,restaurant,Rouen,,,https://www.lebistrotdarthur.com/,49.4442436,1.0874858
6975702635,node,Pizz' N Grill,restaurant,Rouen,49,,,49.4376828,1.0836177
6983707034,node,La Carte d'Orient,restaurant,Rouen,"137 Rue Pierre Corneille, 76300, Sotteville-lès-Rouen",76300,http://www.traiteur-lacartedorient.fr,49.41958,1.0951249
7004418897,node,,artwork,Rouen,,,,49.4478197,0.8285796
7005661393,node,Globe-trotters,restaurant,Rouen,33,,https://globe-trotters-restaurant.fr/,49.4748615,1.0935456
7005661403,node,,artwork,Rouen,,,,49.474658,1.0937351
7031976715,node,Kern’Up,restaurant,Rouen,"11 Rue Marie-Jean-Antoine de Condorcet, 76300, Sotteville-lès-Rouen",76300,https://kernup.fr/,49.4080975,1.1104083
7040943676,node,Seoul,restaurant,Rouen,,,https://www.seoul-rouen.fr/,49.4412121,1.0994688
7040968681,node,ITO,restaurant,Rouen,92,,https://ito-sushi.fr/,49.4416952,1.0982298
7041087482,node,Fujiya Sushi,restaurant,Rouen,"22 Place de la Pucelle, 76000, Rouen",76000,https://fujiyasushi.fr/restaurants/rouen-centre-place-de-la-pucelle/,49.4425205,1.0887911
7046070099,node,,memorial,Rouen,,,,49.5677632,1.2954754
7052447011,node,,monument,Rouen,,,,49.4543512,0.829526
7058396093,node,,restaurant,Rouen,,,,49.4818812,0.7725178
7083182985,node,L'Hardi'talie,restaurant,Rouen,,,,49.4804768,0.8733291
7083353749,node,Au Fil de l'Eau,restaurant,Rouen,"286 Quai de la Libération, 76480, Duclair",76480,,49.4812223,0.8755842
7083353750,node,Poke Bowl,restaurant,Rouen,"Quai de la Libération, 76480, Duclair",76480,,49.4812665,0.875728
7086161715,node,ibis Rouen Centre Rive Gauche Saint-Sever,hotel,Rouen,44,,https://ibis.accor.com,49.4317572,1.0821912
7090999494,node,Hôtel des Arcades,hotel,Rouen,,,https://www.hotel-des-arcades.fr/,49.4417782,1.0947581
7128434283,node,L'incontournable,restaurant,Rouen,"1, 76000, Rouen",76000,https://lincontournable-rouen.fr/,49.4428411,1.0872072
7128453385,node,Okinawa,restaurant,Rouen,"5 Rue de la Pie, 76000, Rouen",76000,https://okinawa-rouen.fr,49.4428994,1.0870443
7136813586,node,Chapelle de la mère de Dieu,monument,Rouen,,,,49.454931,0.8466596
7143427190,node,Simone de Beauvoir,artwork,Rouen,,,,49.4265153,1.0970063
7152160354,node,Henri Savale,artwork,Rouen,,,,49.4450558,1.1478441
7152160367,node,Aux Enfants de Darnétal morts pour la Patrie,memorial,Rouen,,,,49.4446646,1.1473789
7159006473,node,Ambroise Paré,artwork,Rouen,,,,49.4258673,1.0868247
7159006474,node,Louis Pasteur,artwork,Rouen,,,,49.4258756,1.0865587
7159006475,node,,artwork,Rouen,,,,49.4258839,1.0862762
7161321398,node,La Maison du Bonheur,restaurant,Rouen,33,,http://www.restaurant-lamaisondubonheur.fr,49.4391628,1.1324873
7206184359,node,Enfin chez Gaëlle,restaurant,Rouen,"4244, 76230, Bois-Guillaume",76230,,49.4771706,1.127803
7242650076,node,Cool Halal,restaurant,Rouen,,,,49.4705129,1.0498475
7246928239,node,C'vu E'pi,restaurant,Rouen,,,,49.4710994,1.0499373
7248192631,node,Les 2 Moulins,restaurant,Rouen,,,,49.4686496,1.0429689
7256195558,node,Anwal,restaurant,Rouen,,,,49.4644007,1.0524787
7256195562,node,Jacques Delattre,memorial,Rouen,,,,49.46394,1.0527435
7285790211,node,Mille et une pizzas,restaurant,Rouen,,,,49.4763137,1.052824
7371301967,node,Together Asia Fusion Food,restaurant,Rouen,"118 Rue Beauvoisine, 76000, Rouen",76000,https://together-rouen.carrd.co/,49.4455471,1.097481
7371301969,node,Bhumtso,restaurant,Rouen,114 Rue Beauvoisine,,,49.445473,1.0974193
7371302011,node,Markette,restaurant,Rouen,21 Rue Beauvoisine,,https://www.marketterouen.fr/,49.443651,1.09587
7371302022,node,Chiba,restaurant,Rouen,"9, 76000, Rouen",76000,https://www.chibaramen.fr,49.4432564,1.0956008
7371302023,node,Sisig,restaurant,Rouen,"8 Rue Beauvoisine, 76000, Rouen",76000,,49.4432535,1.0957551
7371302025,node,NGOC Kitchen,restaurant,Rouen,6,,,49.4432008,1.0957145
7371302029,node,Pizzeria du Drugstore,restaurant,Rouen,"2, 76000, Rouen",76000,https://www.pizzeriadrugstore.fr/,49.443109,1.0956537
7371526523,node,Hanoi gourmet,restaurant,Rouen,80,,,49.438734,1.10336
7372373032,node,Capri,restaurant,Rouen,"22 Rue Guillaume le Conquérant, 76000, Rouen",76000,,49.4433453,1.0897098
7403414822,node,MyArancini,restaurant,Rouen,"66 Rue de la République, 76000, Rouen",76000,https://www.myarancini.fr/,49.4403664,1.0976277
7406247689,node,Mama's curry,restaurant,Rouen,"7 Rue Pierre Corneille, 76300",76300,,49.4232515,1.0900961
7474241166,node,Ottoman Palace,restaurant,Rouen,"42 Avenue des Canadiens, 76140, Le Petit-Quevilly",76140,http://www.ottomanpalace.fr/,49.4129442,1.0729509
7497272205,node,,restaurant,Rouen,,,,49.5249641,0.7347826
7519172416,node,La Table de Benoît,restaurant,Rouen,"24 Rue Méridienne, 76300",76300,,49.4237993,1.0877765
7530846454,node,sculpture,artwork,Rouen,,,,49.5548844,0.702657
7549119784,node,,memorial,Rouen,,,,49.4638176,1.0754689
7549121185,node,,memorial,Rouen,,,,49.4640259,1.0755321
7549121186,node,,memorial,Rouen,,,,49.4635449,1.0752725
7598116942,node,Le Piano Crêpes,restaurant,Rouen,3121,,,49.4688945,1.1187346
7638673067,node,,memorial,Rouen,,,,49.4804884,0.9541891
7691077077,node,Kang Sushi,restaurant,Rouen,"251 Route de Dieppe, 76770",76770,https://kangsushi.fr/,49.5268138,1.0425993
7704756289,node,Sainte-Barbe,artwork,Rouen,,,,49.5426807,0.9509955
7704756291,node,,artwork,Rouen,,,,49.5428272,0.9515617
7726486357,node,Chez L'Walida,restaurant,Rouen,,,,49.4312568,1.0872703
7747157761,node,,artwork,Rouen,,,,49.3795454,1.1078252
7773124838,node,Emblême de l'ESIGELEC,artwork,Rouen,,,,49.3828356,1.0775396
7796443408,node,,artwork,Rouen,,,,49.4608663,1.1291772
7796635549,node,Mon P'tit resto,restaurant,Rouen,,,,49.6612806,0.8785496
7798325303,node,L'atelier,restaurant,Rouen,,,,49.6153913,0.7733207
7835547427,node,Mamma Mia,restaurant,Rouen,"1649, 76230, Bois-Guillaume",76230,https://www.mammamiastore.fr/,49.481849,1.1052793
7862894505,node,Outsiders,gallery,Rouen,7,,https://outsidersgalerie.com/,49.4385999,1.0961529
7884690543,node,Le Roi du Poulet,restaurant,Rouen,"8 Avenue Jean Jaurès, 76140, Le Petit-Quevilly",76140,,49.4285174,1.0694797
7902536892,node,Docteur Joseph Cotoni,artwork,Rouen,,,,49.3409949,1.0956163
7955800437,node,Ibis,hotel,Rouen,"13, 76100",76100,https://all.accor.com/hotel/C0I0/index.fr.shtml,49.4342442,1.0716955
7966856465,node,Hommage aux combattants et civils africains et antillais assassinés le 9 juin 1940,memorial,Rouen,,,,49.4484432,1.1026199
7969561071,node,Génération Sushi,restaurant,Rouen,244,,http://genesushi76.fr/,49.4421732,1.1148488
7978182002,node,Bouillon Italia Osteria d'Or,restaurant,Rouen,"4 Place Saint-Marc, 76000, Rouen",76000,https://www.bouillon-italia.fr/,49.4380313,1.1011667
7996985399,node,C'Cuit,restaurant,Rouen,"49 Rue Longpaon, 76160, Darnétal",76160,,49.4427036,1.1466793
8000832793,node,Papa pizz,restaurant,Rouen,,,,49.4211972,1.0930155
8021511189,node,,memorial,Rouen,,,,49.6745761,0.9460252
8025502159,node,,memorial,Rouen,,,,49.7139707,0.7549483
8053212580,node,Cocottes & Patinas,restaurant,Rouen,"112 Avenue du 14 Juillet, 76300, Sotteville-lès-Rouen",76300,,49.4081898,1.0897361
8062795190,node,Le Kashemir,restaurant,Rouen,13 Rue Anatole France,,,49.4411089,1.084849
8062795195,node,Le Figuier,restaurant,Rouen,31 rue Anatole France,,,49.4415778,1.0835986
8062795222,node,La Terre Neuve,restaurant,Rouen,67,,,49.4406283,1.0837228
8063373829,node,L'Alaje,restaurant,Rouen,"60 Rue de Fontenelle, 76000, Rouen",76000,,49.4445125,1.0877357
8063373848,node,Racine 14,restaurant,Rouen,22 Rue de Fontenelle,,https://racine14.wixsite.com/racine14,49.4423316,1.0855113
8063434960,node,Creperie Kerso Breizh Galette & Co,restaurant,Rouen,,,,49.4430379,1.0865857
8063434961,node,Rajastahn,restaurant,Rouen,,,,49.4430137,1.0866673
8063434963,node,Maison natale Pierre Corneille,museum,Rouen,4,,https://rouen.fr/corneille,49.4430839,1.0867826
8069295935,node,Bar ADN,restaurant,Rouen,"18 Rue du Vieux Palais, 76000, Rouen",76000,,49.4422275,1.0867
8069295940,node,Chez Pépé & Fils,restaurant,Rouen,10,,,49.4419162,1.0863993
8069295961,node,Raclette to GO,restaurant,Rouen,3,,,49.4414935,1.0857654
8069302224,node,Hôtel Littéraire Gustave Flaubert,hotel,Rouen,,,https://www.hotelslitteraires.fr/nos-hotels/hotel-litteraire-gustave-flaubert/,49.4426129,1.086776
8069437253,node,Les Halles,restaurant,Rouen,25,,,49.4423139,1.0884939
8069437254,node,Paul-Arthur,restaurant,Rouen,23,,,49.4422553,1.0884423
8069437266,node,Le Bistrot De La Pucelle,restaurant,Rouen,6,,,49.442065,1.0889417
8069437267,node,Acqua & Farine,restaurant,Rouen,"4 bis Place de la Pucelle, 76000, Rouen",76000,,49.4419895,1.088915
8069437271,node,Bibelot,restaurant,Rouen,"80, 76000, Rouen",76000,,49.4419876,1.0893487
8069440088,node,Pottier Frères,restaurant,Rouen,103,,,49.4419928,1.0892283
8069440090,node,La Tarte Tatin,restaurant,Rouen,99,,,49.4419212,1.0891665
8075467982,node,La Marmite,restaurant,Rouen,3,,https://www.lamarmiterouen.com/,49.4435535,1.0874205
8075548578,node,Le Mojo,restaurant,Rouen,"28 Rue des Bons Enfants, 76000, Rouen",76000,,49.4442733,1.0905608
8075585040,node,Boom boom,restaurant,Rouen,"14 Rue de l'Ancienne Prison, 76000, Rouen",76000,,49.4438747,1.0890083
8077905881,node,La Galerie,restaurant,Rouen,4,,http://restaurant-lagalerie.fr/,49.4435097,1.0896339
8077966292,node,Nouilles Fait Maison,restaurant,Rouen,"83 Rue Écuyère, 76000, Rouen",76000,,49.4437646,1.0906703
8093481804,node,Original Relais Rouen La Bertelière,restaurant,Rouen,,,,49.4666356,1.1516788
8112126150,node,,memorial,Rouen,,,,49.5092085,0.8416851
8140127944,node,,memorial,Rouen,,,,49.5696184,1.4272185
8142442619,node,Exploitation laitière Ferme de la mare,monument,Rouen,,,,49.5410547,0.7668162
8142442620,node,Exploitation laitière Ferme,monument,Rouen,,,,49.5356383,0.7731611
8142442718,node,Exploitation laitière Ferme,monument,Rouen,,,,49.5498994,0.7758647
8148499552,node,,memorial,Rouen,,,,49.6340618,0.9388543
8148641043,node,Léo à table,restaurant,Rouen,1,,https://www.leoatable.fr/,49.4510611,1.1405224
8170757926,node,Panorama de la Vacquerie,viewpoint,Rouen,,,,49.4482174,0.6579432
8184512862,node,Sushis Z,restaurant,Rouen,"3 Rue du Pacifique, 76240, Belbeuf",76240,https://www.sushiz76.com/,49.3974464,1.1568075
8184833335,node,Pizza Steph,restaurant,Rouen,"95 Route de Paris, 76240, Bonsecours",76240,https://www.pizzastef.com/,49.4243617,1.1223886
8211224519,node,La Toile de lin,restaurant,Rouen,"4 Rue Carnot, 76560, Doudeville",76560,https://restaurantlatoiledelin.fr,49.7211922,0.7842504
8241125547,node,Andakka,restaurant,Rouen,19,,,49.4414435,1.0930064
8263040362,node,Les Papilles en Seine,restaurant,Rouen,16,,,49.4369959,1.0860183
8267112730,node,,viewpoint,Rouen,,,,49.4262846,1.1163661
8267501320,node,Crêperie de La Caillouville,restaurant,Rouen,5 Place de l'Église,,,49.5280844,0.7676865
8273281355,node,Le Machacha,restaurant,Rouen,42,,,49.4375562,1.0840566
8612008948,node,Restaurant de La Basilique,restaurant,Rouen,"8, 76240, Bonsecours",76240,,49.4221377,1.1245125
8669078402,node,,restaurant,Rouen,,,,49.2898099,1.0148666
8669209567,node,,artwork,Rouen,,,,49.2907383,1.0167298
8713045222,node,Comme Chez Mam's,restaurant,Rouen,"92 Rue de Paris, 76800, Saint-Étienne-du-Rouvray",76800,,49.3902737,1.1047184
8713045224,node,Le Coup de Coeur,restaurant,Rouen,,,,49.3756673,1.1082304
8757588294,node,Pizz'à Toto,restaurant,Rouen,"1 Rue Vacquerie, 76490, Villequier",76490,,49.5132214,0.6745675
8770335985,node,,memorial,Rouen,,,,49.397566,1.1729763
8792957571,node,La Rose des Vents,restaurant,Rouen,,,,49.4379707,1.0941106
8928412767,node,Ristorante Del Arte,restaurant,Rouen,,,https://www.delarte.fr/restaurants/4393-isneauville,49.4911976,1.1442191
8999630812,node,,artwork,Rouen,,,,49.4410597,1.0907663
9004253095,node,,artwork,Rouen,,,,49.5813237,0.703972
9004253096,node,,artwork,Rouen,,,,49.5813385,0.7040845
9004253097,node,,artwork,Rouen,,,,49.5822776,0.703659
9004253098,node,,artwork,Rouen,,,,49.5822881,0.703745
9007937271,node,,monument,Rouen,,,,49.6111282,0.9296265
9008021365,node,Vierge,artwork,Rouen,,,,49.7121109,0.9150213
9052779959,node,,memorial,Rouen,,,,49.4666337,0.6831594
9057033748,node,PokéShop,restaurant,Rouen,,,https://pokeshop-paris.fr/,49.4412537,1.099306
9083877607,node,Émile Verhaeren,memorial,Rouen,,,,49.4421482,1.1005965
9083910679,node,Hoguera,restaurant,Rouen,239 Rue Eau de Robec,,,49.441409,1.0996803
9083910697,node,Les Concessions,restaurant,Rouen,150,,,49.4415138,1.1014264
9083910702,node,Noodle shop,restaurant,Rouen,172,,,49.4415143,1.1004637
9085485431,node,L'espiguette,restaurant,Rouen,,,,49.4416657,1.097392
9130128532,node,Corn Dog,restaurant,Rouen,18 Rue Petit de Julleville,,,49.4394895,1.0960216
9130492640,node,Pitaya,restaurant,Rouen,,,https://pitaya-thaistreetfood.com/,49.4421825,1.0898257
9133065176,node,Little Italy,restaurant,Rouen,"14 Place Victor Hugo, 76190, Yvetot",76190,https://little-italy-yvetot.edan.io/,49.616276,0.7521885
9134989174,node,Villa du Buquet,attraction,Rouen,,,,49.2936462,0.9753371
9166842537,node,Café Hamlet,restaurant,Rouen,,,,49.4401059,1.0996798
9166842538,node,Galerie des Arts du Feu,gallery,Rouen,,,,49.4403526,1.1001655
9166863041,node,Galerie Telmah,gallery,Rouen,,,,49.4400592,1.0999519
9223019146,node,Pizza palace,restaurant,Rouen,,,,49.6154046,0.7733898
9237732081,node,,park,Rouen,,,,49.449358,1.1758055
9251292082,node,Au Fil du Temps,restaurant,Rouen,"34 Rue Saint-Clair, 76490, Rives-en-Seine",76490,https://www.aufildutemps76.fr/,49.5249459,0.7288655
9330595405,node,La table de Baptiste,restaurant,Rouen,,,,49.6417768,0.8060192
9407195228,node,Terrain de pétanque,park,Rouen,,,,49.2639759,1.0611265
9448414375,node,Au Feu de Bois,restaurant,Rouen,"27 Rue de la République, 76190, Yvetot",76190,,49.6206662,0.7499226
9469320308,node,Le ryad du Mesnil,restaurant,Rouen,,,,49.4053265,1.1532785
9484714662,node,La P'tite Fringale,restaurant,Rouen,"42 Rue de l'Église, 76480, Saint-Pierre-de-Varengeville",76480,https://www.restaurant-laptitefringale.com/,49.5016386,0.9312212
9505234724,node,Les Jardins du Menhir,restaurant,Rouen,"93 Route de Paris, 76240, Le Mesnil-Esnard",76240,,49.4115772,1.1393722
9505234746,node,Fujiya Sushi,restaurant,Rouen,"59 Route de Paris, 76240, Le Mesnil-Esnard",76240,https://fujiyasushi.fr/,49.4092276,1.1437945
9507873819,node,Le Délice du Soleil,restaurant,Rouen,"130 Route de Paris, 76240, Le Mesnil-Esnard",76240,,49.4128515,1.138404
9524012485,node,Dispatchwork,artwork,Rouen,,,https://www.janvormann.com/,49.4427202,1.0914925
9575435161,node,Stand des Fusillés,memorial,Rouen,,,,49.4063356,1.0682642
9589953982,node,Musée de la Nature,artwork,Rouen,,,,49.5916837,0.6819355
9609477926,node,,memorial,Rouen,,,,49.4831002,0.8730984
9611471562,node,Palais du Cailly,restaurant,Rouen,,,,49.482434,1.0406734
9644380995,node,Orochi,attraction,Rouen,,,,49.6015098,1.0811233
9653877779,node,French & Fried,restaurant,Rouen,71 Avenue des Canadiens,,,49.4113327,1.0722788
9733058151,node,,artwork,Rouen,,,,49.3992202,1.0356371
9733058152,node,,artwork,Rouen,,,,49.3992032,1.0355932
9756986954,node,L'Hirondelle,hotel,Rouen,,,https://lhirondelle.webnode.fr/,49.6763411,0.7830387
9756986955,node,L'hirondelle,restaurant,Rouen,,,,49.676282,0.7830012
9780167695,node,Musée des Traditions et Arts Normands,museum,Rouen,,,,49.45854,1.29381
9785248899,node,,memorial,Rouen,,,,49.4595517,1.2945977
9788979739,node,Nanakô,restaurant,Rouen,"1-3 Place Maréchal Foch, 76000, Rouen",76000,,49.4422264,1.0913521
9853161655,node,,viewpoint,Rouen,,,,49.4109104,0.9828418
9853161661,node,,viewpoint,Rouen,,,,49.4109627,0.9863234
9853161672,node,,viewpoint,Rouen,,,,49.407776,0.9815276
9853161693,node,André Chopart,viewpoint,Rouen,,,,49.4079296,0.9857252
9853161706,node,,viewpoint,Rouen,,,,49.4045961,0.98712
9856182491,node,La Tragédie,artwork,Rouen,,,,49.5439941,0.9549082
9857976181,node,Maison Vacquerie,museum,Rouen,,,https://www.museevictorhugo.fr/fr/home/,49.5121593,0.6736752
9899288848,node,Entrée du parc du château de Martainville,park,Rouen,"429 Route du Château, 76116, Martainville-Epreville",76116,,49.4600147,1.2932377
9899296440,node,Le jardin retrouvé,garden,Rouen,,,,49.4584996,1.2945302
9914755997,node,,memorial,Rouen,,,,49.7009799,0.7378603
9932617768,node,Monument à Napoléon Ier,artwork,Rouen,,,,49.4434283,1.0989007
9943516202,node,Magnolia,restaurant,Rouen,"12 Rue Jean Le Gaffric, 76490, Villequier",76490,https://magnolia-villequier.fr/,49.5137408,0.6754449
9952642810,node,,artwork,Rouen,,,,49.4213748,1.0749489
9965874372,node,,castle,Rouen,,,,49.6473914,0.8237978
9968391088,node,Nathan Ettinger,memorial,Rouen,,,https://stolpersteine-guide.de/map/biografie/3116/famille-ettinger,49.4416265,1.1106083
9968391089,node,Hantza Ettinger,memorial,Rouen,,,https://stolpersteine-guide.de/map/biografie/3116/famille-ettinger,49.4416263,1.1106149
9968391090,node,Lisa Ettinger,memorial,Rouen,,,https://stolpersteine-guide.de/map/biografie/3116/famille-ettinger,49.4416222,1.1105997
9968391091,node,Henri Ettinger,memorial,Rouen,,,https://stolpersteine-guide.de/map/biografie/3116/famille-ettinger,49.4416226,1.1106066
9968391092,node,Jacques Ettinger,memorial,Rouen,,,https://stolpersteine-guide.de/map/biografie/3116/famille-ettinger,49.4416226,1.1106142
9968391093,node,Albert Ettinger,memorial,Rouen,,,https://stolpersteine-guide.de/map/biografie/3116/famille-ettinger,49.4416222,1.1106231
9968391094,node,Ida Ettinger,memorial,Rouen,,,https://stolpersteine-guide.de/map/biografie/3116/famille-ettinger,49.4416168,1.1106035
9968391095,node,Odette Ettinger,memorial,Rouen,,,https://stolpersteine-guide.de/map/biografie/3116/famille-ettinger,49.4416168,1.1106123
9968391096,node,Maurice Ettinger,memorial,Rouen,,,https://stolpersteine-guide.de/map/biografie/3116/famille-ettinger,49.4416172,1.11062
9997504574,node,La Bicicletta,restaurant,Rouen,"128 bis Avenue des Martyrs de la Résistance, 76100, Sotteville-lès-Rouen",76100,,49.4186685,1.0770977
10038884348,node,,viewpoint,Rouen,,,,49.4300676,0.8207489
10098752133,node,,ruins,Rouen,,,,49.4793626,0.678336
10102713035,node,Albane,memorial,Rouen,,,,49.4667326,1.1347333
10161881786,node,,memorial,Rouen,,,,49.4566852,1.365702
10161881787,node,,memorial,Rouen,,,,49.4603438,1.3622145
10282766920,node,,artwork,Rouen,,,,49.5243204,0.7228634
10282766921,node,Appel du 18 juin 1940,memorial,Rouen,,,,49.5244222,0.7233918
10282766923,node,,memorial,Rouen,,,,49.5243665,0.7233522
10282766924,node,Capitaine Gallier,memorial,Rouen,,,,49.524316,0.7234226
10295738609,node,Café Crème,restaurant,Rouen,"3 Rue des Basnages, 76000",76000,,49.4440827,1.092533
10562359882,node,Riege,gallery,Rouen,,,,49.4402483,1.098205
10600561627,node,Pizza Max,restaurant,Rouen,"4 Place de la République, 76710, Montville",76710,https://www.pizzamaxmontville.fr,49.5487434,1.0742742
10660614574,node,,memorial,Rouen,,,,49.5037455,1.3001316
10718498641,node,Le Grenadier,artwork,Rouen,,,,49.4685889,1.100139
10719360595,node,,viewpoint,Rouen,,,,49.4809037,0.8756943
10721719602,node,L'automne,artwork,Rouen,,,,49.539155,1.4031823
10721719603,node,,artwork,Rouen,,,,49.538229,1.4029339
10721719604,node,,artwork,Rouen,,,,49.5387293,1.4026306
10721736505,node,,artwork,Rouen,,,,49.5386949,1.403965
10721736506,node,,artwork,Rouen,,,,49.5377255,1.403862
10721736507,node,Le crépuscule,artwork,Rouen,,,,49.5390477,1.4028115
10721736508,node,Couple allongé,artwork,Rouen,,,,49.5381354,1.4016283
10721736509,node,L'été,artwork,Rouen,,,,49.5390775,1.4032768
10721736510,node,Pégase,artwork,Rouen,,,,49.5378969,1.4033045
10721736511,node,,artwork,Rouen,,,,49.5376165,1.403005
10721736512,node,Le cloître des quatre saisons,garden,Rouen,,,,49.539175,1.4033233
10721736513,node,Antoine de Saint-Exupéry,artwork,Rouen,,,,49.5384708,1.403068
10721736514,node,L'aurore,artwork,Rouen,,,,49.5389106,1.4025921
10721736515,node,L'hiver,artwork,Rouen,,,,49.5392969,1.4033861
10721736516,node,Le Plongeur,artwork,Rouen,,,,49.5387483,1.4037911
10721736517,node,Le printemps,artwork,Rouen,,,,49.5391916,1.4034614
10736567367,node,ITO,restaurant,Rouen,"8, 76130, Mont-Saint-Aignan",76130,https://ito-sushi.com/,49.4624069,1.0716808
10794848605,node,Bisou,restaurant,Rouen,"6 Rue Thomas Corneille, 76000",76000,https://www.bisourouen.fr/,49.4432424,1.086868
10822372415,node,,memorial,Rouen,,,,49.6071525,1.0810415
10824026405,node,Pop Corn Labyrinthe,park,Rouen,,,https://www.popcornlabyrinthe.fr/rouen/,49.4948018,1.1301885
10824455915,node,Osteria,restaurant,Rouen,"31 Allée Eugène Delacroix, 76000, Rouen",76000,,49.4441019,1.0933893
10855572058,node,,memorial,Rouen,,,,49.3547385,1.1900941
10860014687,node,Midi Vin,restaurant,Rouen,9,,,49.4707386,1.0840912
10940494914,node,Home of Pasticcio,restaurant,Rouen,,,,49.4731138,1.104362
10961539444,node,Les folies douces,restaurant,Rouen,,,,49.4705295,1.0949394
10969051317,node,All Sports Café Tourville,restaurant,Rouen,,,,49.3335646,1.1015017
10971351055,node,Val de Seine,gallery,Rouen,,,,49.3527392,0.9297457
11013561678,node,3 Brasseurs,restaurant,Rouen,2 Parc En Seine,,,49.3307481,1.1017482
11043020841,node,Les Caudalies,restaurant,Rouen,"174 Rue de la République, 76230, Bois-Guillaume",76230,https://www.restaurant-lescaudalies.fr/,49.4704798,1.1174591
11044454445,node,,viewpoint,Rouen,,,,49.4380654,1.1550881
11049175031,node,Rodizio Brazil,restaurant,Rouen,"105 Allée François Mitterrand, 76100, Rouen",76100,https://restaurants.rodizio-brazil.fr/rouen/,49.4398344,1.0780223
11049175032,node,Pintxos,restaurant,Rouen,"105 Allée François Mitterrand, 76100, Rouen",76100,,49.4397449,1.0786216
11068362181,node,,memorial,Rouen,,,,49.6367726,0.849809
11071731346,node,Au Gourmet de Chine,restaurant,Rouen,,,,49.4704643,1.0947187
11088684576,node,In Fine,restaurant,Rouen,"32 Allée Eugène Delacroix, 76000, Rouen",76000,https://www.infinerouen.com/,49.4438443,1.0936338
11091259907,node,Le B3,restaurant,Rouen,"71 Rue des Martyrs, 76360, Barentin",76360,,49.5442465,0.9493024
11099357474,node,Les Jardins d’Angélique,park,Rouen,"2692 Route de Lyons-la-Forêt, 76520, Montmain",76520,https://lesjardinsdangelique.com/,49.409794,1.2620333
11101822378,node,Donkey Kong Graffiti,artwork,Rouen,,,,49.4445178,1.0899438
11107652210,node,Galerie Rollin,gallery,Rouen,rue Écuyère,,https://www.galerie-rollin.com/,49.4428854,1.0900799
11115325505,node,EuroAsia Mng,restaurant,Rouen,"19 Rue Molière, 76120, Le Grand-Quevilly",76120,https://euroasiamng.com/,49.4093644,1.0502963
11116220797,node,Le Palais,hotel,Rouen,12 Rue du Tambour,,,49.4422186,1.0911226
11136095828,node,Les Nymphéas,restaurant,Rouen,"7, 9 Rue de la Pie, 76000, Rouen",76000,,49.4429415,1.086909
11212620944,node,Le Trufficulteur,artwork,Rouen,,,,49.5374757,1.4032278
11213726470,node,Afrique,artwork,Rouen,,,,49.53657,1.4007238
11213726471,node,Le roi,artwork,Rouen,,,,49.5382599,1.4032845
11213726472,node,L'Arche d'alliance,artwork,Rouen,Route d'Héronchelles,,,49.5372842,1.4035023
11213726473,node,Le buveur,artwork,Rouen,,,,49.5383263,1.4031585
11213726474,node,Le vaniteux,artwork,Rouen,,,,49.5383591,1.4030982
11213726475,node,,artwork,Rouen,,,,49.538273,1.4042265
11213726476,node,L'œil des anges,artwork,Rouen,,,,49.536741,1.40111
11213726477,node,Europe,artwork,Rouen,,,,49.5364512,1.4010535
11213726478,node,L'allumeur de réverbère,artwork,Rouen,,,,49.5383946,1.4030494
11213726479,node,Le géographe,artwork,Rouen,,,,49.5384294,1.4030108
11213726480,node,Gaïa - La terre,artwork,Rouen,,,,49.5372454,1.4005817
11213726481,node,Le businessman,artwork,Rouen,,,,49.5382919,1.4032149
11213726482,node,L'Homme boule,artwork,Rouen,,,,49.5369712,1.4021751
11213726483,node,La grande gazelle,artwork,Rouen,,,,49.5367186,1.4006387
11213726484,node,Le bateleur,artwork,Rouen,,,,49.5386917,1.4026153
11213726485,node,Concrétion,artwork,Rouen,,,,49.5367556,1.4009219
11220116252,node,,memorial,Rouen,,,,49.444902,1.0958664
11222630012,node,,memorial,Rouen,,,,49.3730229,1.2329522
11227226250,node,,viewpoint,Rouen,,,,49.48365,0.93132
11227255350,node,Chez l'Gros,restaurant,Rouen,"42 Rue de la Vicomte, 76000, Rouen",76000,,49.4411583,1.0888955
11228660189,node,,memorial,Rouen,,,,49.4990171,0.9808077
11228932137,node,j Sushi,restaurant,Rouen,,,,49.4455909,1.0692726
11242936202,node,La Grange,restaurant,Rouen,"150, 76130, Mont-Saint-Aignan",76130,https://www.lagrangemontsaintaignan.fr/,49.4701512,1.0870202
11246013654,node,B&M Terroir,restaurant,Rouen,14 Allée Eugène Delacroix,,,49.4434322,1.0933049
11259526636,node,My Pizza,restaurant,Rouen,677 Rue Georges Clemenceau,,https://www.mypizza-letrait.fr,49.4948103,0.7971946
11274582819,node,Lila & Thalia,restaurant,Rouen,"31 Rue de Paris, 76800, Saint-Étienne-du-Rouvray",76800,,49.3954373,1.1033952
11276056109,node,,memorial,Rouen,,,,49.4018562,1.1758164
11295241334,node,Garden Resto,restaurant,Rouen,56 Rue des Carmes,,,49.4418957,1.0948041
11295411556,node,Providence,artwork,Rouen,,,,49.4447982,1.0935447
11326169957,node,L'Établi,gallery,Rouen,45 Rue des Bons Enfants,,,49.444367,1.0895938
11327481467,node,Galerie Racaille,gallery,Rouen,43 Rue des Bons Enfants,,,49.4443613,1.089634
11327520369,node,La Petite Galerie,gallery,Rouen,25 Rue des Bons Enfants,,,49.4442515,1.0901744
11346093432,node,,memorial,Rouen,,,,49.5490293,0.9506285
11423711430,node,Fujiya Sushi,restaurant,Rouen,,,,49.3303229,1.1006341
11425217135,node,Fujiya Sushi,restaurant,Rouen,94 Rue de la République,,,49.4417676,1.0982739
11432639383,node,La Petite Auberge,hotel,Rouen,"65, 76480, Jumièges",76480,https://lapetiteaubergejumieges.com/,49.4321845,0.8182281
11435036241,node,La Rose des Sables,restaurant,Rouen,113 Place Beauvoisine,,https://larosedessablesrouen.fr/,49.4481963,1.1003427
11459200416,node,,artwork,Rouen,,,,49.4964978,0.7952526
11459216706,node,,artwork,Rouen,,,,49.4872348,0.8046339
11459314023,node,Pizza Palace,restaurant,Rouen,,,,49.4820264,0.876474
11459981192,node,Sushi Rouen,restaurant,Rouen,2 Place de la République,,https://sushirouen.com/,49.437332,1.0967526
11472945927,node,Tempo,restaurant,Rouen,"5 Rue de la République, 76000, Rouen",76000,https://www.temporestaurant.fr/,49.4378068,1.0961899
11480961396,node,,artwork,Rouen,,,,49.5254965,0.7261368
11511136890,node,Galerie Lernon,gallery,Rouen,,,,49.4401195,1.0980325
11511136958,node,Galerie Impressions,gallery,Rouen,,,,49.4403886,1.0981649
11532146140,node,Le Cinoche,restaurant,Rouen,,,,49.3287914,1.095885
11532146142,node,Venghour,restaurant,Rouen,,,https://www.venghour.com/,49.3288062,1.0964182
11537189688,node,Guillaume,restaurant,Rouen,"46 Rue Bourg l'Abbé, 76000, Rouen",76000,https://www.restaurantguillaume.fr/accueil,49.4447325,1.0991973
11569135149,node,La Grenouille,attraction,Rouen,,,,49.4223973,1.1211803
11697803875,node,Hai bà,restaurant,Rouen,"8;10;12 Rue des Augustins, 76000, Rouen",76000,,49.4380567,1.0998562
11697818238,node,La Casa de las tapas,restaurant,Rouen,"49 Rue Molière, 76000, Rouen",76000,https://lacasadelastapas.fr/,49.438463,1.0987346
11769476641,node,,viewpoint,Rouen,,,,49.4760527,0.8183503
11769478979,node,,viewpoint,Rouen,,,,49.4731216,0.8162553
11836723320,node,Station Service,restaurant,Rouen,,,https://stationservicerouen.fr/,49.4441189,1.0938122
11916526469,node,Bouillon d'or,restaurant,Rouen,"4 Rue des Basnages, 76000, Rouen",76000,https://www.bouillondor.fr/,49.4441102,1.0928246
11947712308,node,,memorial,Rouen,,,,49.5079822,1.0782393
11979065519,node,Quai 246,restaurant,Rouen,,,,49.4813829,0.8761276
11982901066,node,Cité immersive Viking,museum,Rouen,"105 Allée François Mitterrand, 76100, Rouen",76100,https://viking.cites-immersives.fr/,49.4395322,1.0791244
11982950258,node,Le Rouf,restaurant,Rouen,"105 Allée François Mitterrand, 76100, Rouen",76100,https://le-rouf.com/,49.4401368,1.0769349
11989648589,node,Socle d'un ancien calvaire du prieuré Saint-Michel,ruins,Rouen,,,,49.4343708,1.1085822
12049864269,node,Crêperie Roland,restaurant,Rouen,"22 Rue Saint-Nicolas, 76000",76000,https://creperie-roland.eatbu.com/,49.4411452,1.0967199
12075112358,node,,artwork,Rouen,,,,49.443332,1.0938902
12080271506,node,FADA,restaurant,Rouen,,,,49.4405995,1.0983559
12089541147,node,Clos Saint-Jacques,hotel,Rouen,,,,49.5298228,0.7615672
12102048864,node,uchiwa gallery,gallery,Rouen,,,,49.4402319,1.0966798
12103908058,node,Centrale électrique de Yainville,ruins,Rouen,,,http://melao.free.fr/centrale-B.htm,49.4609208,0.819497
12103968335,node,Raffinerie du Trait,ruins,Rouen,,,,49.4866397,0.7797724
12120443874,node,Le Green Club,restaurant,Rouen,"3001 Rue Herbeuse, 76230, Bois-Guillaume",76230,https://www.facebook.com/profile.php?id=100092355204412,49.4823487,1.1361708
12146118933,node,Charli & Sézam,restaurant,Rouen,"62 Rue Louis Ricard, 76000, Rouen",76000,https://charlietsezam.com/,49.4480826,1.1000386
12160023727,node,Sensei Sushi,restaurant,Rouen,"20 Rue de la Pierre d'État, 76650, Petit-Couronne",76650,https://www.petit-couronne.senseisushi.fr/,49.3886,1.0240238
12168522836,node,L'Aristide,restaurant,Rouen,"731 Rue Aristide Briand, 76650, Petit-Couronne",76650,,49.3922225,1.0235164
12168581761,node,Ô garden brunch,restaurant,Rouen,,,,49.3882996,1.0242845
12169999944,node,,memorial,Rouen,,,,49.6044119,1.224658
12170024524,node,,memorial,Rouen,,,,49.5483237,1.0746539
12185801157,node,,memorial,Rouen,,,,49.5088816,1.25747
12192759193,node,La Parenthèse,restaurant,Rouen,"7 Rue de la Poterne, 76000, Rouen",76000,https://laparenthese.metro.rest,49.4430411,1.0923564
12273387601,node,Au plaisir cuisiné,restaurant,Rouen,"1120 Route de Gournay, 76160",76160,https://auplaisircuisine.com,49.4415663,1.1843553
12288454803,node,Le 607,restaurant,Rouen,"1571 Rue Aristide Briand, 76650, Petit-Couronne",76650,https://www.le607.com/,49.3847122,1.0217357
12293955045,node,Horizontal,artwork,Rouen,,,,49.4448726,1.0937838
12302796501,node,Le Pardaillan,restaurant,Rouen,"7 Bis Boulevard Charles de Gaulle, 76140",76140,,49.4217094,1.0649976
12331120156,node,Asie,artwork,Rouen,,,,49.5365915,1.401451
12331120157,node,Amérique,artwork,Rouen,Route d'Héronchelles,,,49.5364754,1.4012402
12331120158,node,Océanie,artwork,Rouen,Route d'Héronchelles,,,49.5365322,1.4013944
12331231265,node,Les pères de l'Europe,artwork,Rouen,Route d'Héronchelles,,,49.5385671,1.4038161
12331231266,node,La marche du temps,artwork,Rouen,Route d'Héronchelles,,,49.5393993,1.4036749
12331417219,node,L'Office,restaurant,Rouen,"71 Rue de la Ronce, 76230, Isneauville",76230,https://lofficerestaurant.com/,49.4886827,1.1396945
12374698396,node,Gold Beef,restaurant,Rouen,"31 Avenue Jean Rondeaux, 76100, Rouen",76100,https://www.goldbeefrouen.fr/,49.4346584,1.0768439
12382818931,node,L'Actrice,restaurant,Rouen,,,,49.6075511,0.7854495
12385963925,node,Galerie Fontaine,gallery,Rouen,"186 Rue Eau de Robec, 76000, Rouen",76000,https://galerie-fontaine.com/,49.4415334,1.0998119
12387926601,node,Buffalo Grill,restaurant,Rouen,Rue Alexandre Dumas,,https://www.buffalo-grill.fr/,49.5338706,0.9623547
12388178501,node,Les 3 Brasseurs,restaurant,Rouen,"963 Boulevard de Westphalie, 76360",76360,https://restaurants.3brasseurs.com/fr/france-FR/844/3-brasseurs-rouen-barentin/details,49.5315184,0.9684852
12409907926,node,Monument aux morts de la guerre 1914-1918,memorial,Rouen,,,,49.2916158,1.0069929
12441295326,node,,memorial,Rouen,,,,49.4102655,1.064963
12441295327,node,,memorial,Rouen,,,,49.4111911,1.0666101
12453132818,node,Neptune,artwork,Rouen,,,,49.5532198,0.9530563
12453136293,node,,artwork,Rouen,,,,49.5554755,0.953448
12453142623,node,,artwork,Rouen,,,,49.5541432,0.953006
12460808702,node,Da Cosimo,restaurant,Rouen,,,,49.3186866,0.9941603
12467449934,node,Stèle commémorative de ll'Union Sportive de Quevillaise,memorial,Rouen,,,,49.4329195,1.0560396
12467490215,node,Monument aux Morts de 1870,memorial,Rouen,,,,49.4343972,1.0561447
12467525743,node,Plaque et stèle aux victimes des camps nazis,memorial,Rouen,,,,49.4329021,1.0560012
12467551602,node,Plaque commémorative aux morts en Afrique du Nord,memorial,Rouen,,,,49.4328938,1.0559798
12467603257,node,,memorial,Rouen,,,,49.4328371,1.055792
12467628725,node,Plaques commémoratives des victimes civiles et S.T.O.,memorial,Rouen,,,,49.4328546,1.055845
12467646989,node,La Régalette,restaurant,Rouen,35,,https://la-regalette.eatbu.com/,49.4437291,1.0805587
12469163083,node,4 Saisons,restaurant,Rouen,,,,49.4337291,1.0883773
12492765616,node,,viewpoint,Rouen,,,,49.5135501,0.6662082
12492765617,node,,viewpoint,Rouen,,,,49.5094451,0.6676318
12512453542,node,Elina,memorial,Rouen,,,,49.4386659,1.0989296
12521012304,node,Musée d'Automates,museum,Rouen,,,,49.4725722,1.344116
12529482314,node,M création,gallery,Rouen,"61 Rue Saint-Vivien, 76000, Rouen",76000,,49.4420645,1.1040824
12548905966,node,Suzette,restaurant,Rouen,"5 Place de la Cathédrale, 76000, Rouen",76000,,49.4399838,1.0934662
12548911339,node,L'Art Des Marines,gallery,Rouen,,,https://artdesmarines.com/,49.4409294,1.0971083
12560926959,node,,memorial,Rouen,,,,49.3066628,0.9565061
12560926960,node,,memorial,Rouen,,,,49.3082169,0.9613654
12560926961,node,Stèle commémorative aux Aviateurs,memorial,Rouen,,,,49.3064815,0.9565664
12560926962,node,Soldats Canadiens,memorial,Rouen,,,,49.3066678,0.9564362
12560926963,node,Stèle commémorative aux soldats du 90e R.I,memorial,Rouen,,,,49.306488,0.9565773
12563384478,node,,memorial,Rouen,,,,49.5547104,0.6239816
12569217931,node,Koala pizza,restaurant,Rouen,"325 Route de Dieppe, 76250, Déville-lès-Rouen",76250,https://www.koalapizza.fr/,49.4711674,1.049621
12585285902,node,Chéri,restaurant,Rouen,"44 Rue de l'Hôpital, 76000, Rouen",76000,https://www.brasseriecheri.com/,49.4430281,1.0957584
12656257101,node,Le P'tit Bistrot,restaurant,Rouen,,,,49.4282279,1.0718459
12660737603,node,Zelia,restaurant,Rouen,"76130, Mont-Saint-Aignan",76130,https://lezelia.hubside.fr,49.4588007,1.0665499
12667822388,node,Abner's Pizzeria,restaurant,Rouen,3 bis. Rue des Bons Enfants,,https://www.abners.fr/,49.4440692,1.0912507
12668689633,node,Le Boston,restaurant,Rouen,"21 Mail du Bois Cany, 76120, Le Grand-Quevilly",76120,,49.4173082,1.0431238
12688229164,node,Restaurant scolaire,restaurant,Rouen,,,,49.4927068,0.6848203
12688230077,node,Restaurant scolaire,restaurant,Rouen,,,,49.5077058,0.7248482
12709506177,node,Le fifteen,restaurant,Rouen,"32 Rue de Le Nostre, 76000, Rouen",76000,,49.4435948,1.0816345
12726437524,node,Izakaya,restaurant,Rouen,"3 Rue Paul Vaillant Couturier, 76120, Le Grand-Quevilly",76120,https://izakaya-rouen.fr/,49.4203904,1.0491256
12765723483,node,Hôtel Morand,hotel,Rouen,"1 Rue Morand, 76000, Rouen",76000,,49.4456838,1.094502
12806019433,node,Comptoir des Halles,restaurant,Rouen,,,,49.4431434,1.0887853
12831286579,node,Sushi Tea-m,restaurant,Rouen,5 Rue Écuyère,,,49.4424228,1.0897259
12843575773,node,La Grande Table,restaurant,Rouen,,,,49.4421524,1.0864539
12846498990,node,Hôtel d'Angleterre,hotel,Rouen,,,https://www.hotelangleterrerouen.com/,49.4395714,1.0872848
12847859122,node,Sushi Yaki World,restaurant,Rouen,56 Rue des Martyrs,,,49.289304,1.005566
12847859129,node,Yami Yami,restaurant,Rouen,63 Rue des Martyrs,,,49.2895058,1.0046647
12847859139,node,La Pasteria,restaurant,Rouen,86 Rue des Martyrs,,,49.2898772,1.0041497
12847859154,node,Le café de la Poste,restaurant,Rouen,95 Rue des Martyrs,,,49.2900005,1.0028682
12847859158,node,Le Serhad,restaurant,Rouen,13 Rue de la République,,,49.2901296,1.0022404
12847859181,node,Nagoya,restaurant,Rouen,4 Rue de la République,,https://nagoyaelbeuf.com/,49.2902737,1.0023738
12847859191,node,La Fleur de Sel,restaurant,Rouen,60 Rue Guynemer,,,49.2910205,1.0031078
12847859194,node,Daxing BAR,restaurant,Rouen,33 Rue Guynemer,,https://www.daxingbar.fr,49.2912922,1.0035747
12848675697,node,Fanum,ruins,Rouen,,,,49.3204355,0.9991426
12861148681,node,Le bouche à oreille,restaurant,Rouen,"28 Rue de la République, 76710, Montville",76710,,49.5481503,1.0739707
12882260996,node,Le Blason,restaurant,Rouen,167B Avenue des Alliés,,,49.4231098,1.0541053
12886172295,node,Ita Wetsztein,memorial,Rouen,,,,49.4446246,1.0889298
12886214238,node,Regine Wetsztein,memorial,Rouen,,,,49.4446244,1.0889319
12886225922,node,Edith Wetsztein,memorial,Rouen,,,,49.4446249,1.0889272
12892157197,node,Au delà de l'eau,artwork,Rouen,,,,49.4217661,1.0772689
12892336737,node,,artwork,Rouen,,,,49.4207061,1.0776915
12899451970,node,La Vierge à l'Enfant,artwork,Rouen,Route de l'Abbaye,,,49.4449897,0.9645306
12909065640,node,,artwork,Rouen,,,,49.4339851,1.0913402
12925452808,node,Beila Gerszt née Rotbardt,memorial,Rouen,,,,49.4393395,1.0971212
12925457683,node,Nathan Gerszt,memorial,Rouen,,,,49.4393407,1.0971202
12925467710,node,David Gerszt,memorial,Rouen,,,,49.4393398,1.0971198
12925491115,node,Chaïm Gerszt,memorial,Rouen,,,,49.4393404,1.0971216
12925684697,node,Merkado Leon,memorial,Rouen,,,,49.4414984,1.100337
12925687379,node,Dora Leon,memorial,Rouen,,,,49.4414981,1.1003322
12925697021,node,Perla Kavayero,memorial,Rouen,,,,49.4414981,1.1003299
12925700688,node,Mazaltow Leon,memorial,Rouen,,,,49.4414981,1.1003344
12926456438,node,Punjab,restaurant,Rouen,3 Rue des Bons Enfants,,,49.4440565,1.091323
12926456439,node,Hokkaido,restaurant,Rouen,5 Rue des Bons Enfants,,https://hokkaido.eatbu.com/,49.4440832,1.0911826
12948974175,node,Elie Kofman,memorial,Rouen,,,,49.4379647,1.0984041
12948991863,node,Tzipra Kofman,memorial,Rouen,,,,49.4379663,1.098404
12949022022,node,Simon Kofman,memorial,Rouen,,,,49.4379665,1.0984072
12949047159,node,Ari Kofman,memorial,Rouen,,,,49.4379651,1.0984072
12953495082,node,Maurice Buisson,memorial,Rouen,,,,49.4823224,0.8742061
12953521957,node,Jean Neel,memorial,Rouen,,,,49.4823324,0.8742048
12954017784,node,Eugène Edde,memorial,Rouen,,,,49.4823126,0.8742064
12956843857,node,,artwork,Rouen,,,,49.4438493,1.0926421
12956901779,node,,memorial,Rouen,,,,49.4440729,1.0918932
12956905969,node,,memorial,Rouen,,,,49.4409862,1.0969955
12958851865,node,,artwork,Rouen,,,,49.3403272,1.0937984
12959779430,node,,artwork,Rouen,,,,49.4224896,1.0888219
12960781377,node,Espérance Langlois,memorial,Rouen,,,,49.4401033,1.0995758
12961125475,node,,memorial,Rouen,,,,49.4413951,1.0918081
12973547280,node,,castle,Rouen,,,,49.5564897,0.936804
12978034218,node,Le Chou-chêne,restaurant,Rouen,"1 Route de Louvetot, 76190, Allouville-Bellefosse",76190,,49.5961183,0.6771562
12980662267,node,Plaque commémorative Roger Chauvin,memorial,Rouen,,,,49.2826852,1.0149615
12980662268,node,,memorial,Rouen,,,,49.2851996,1.0189777
12981848999,node,Plaque commémorative des victimes civiles et du S.T.O.,memorial,Rouen,,,,49.2731452,1.0193377
12985270347,node,Beef House,restaurant,Rouen,,,,49.2891344,1.0379161
12987779937,node,Monument aux morts 1870-1871,memorial,Rouen,,,,49.2841892,1.0031245
12999021467,node,,museum,Rouen,,,https://gonzevillepatrimoine.wixsite.com/asso,49.7661908,0.807291
12999802164,node,,memorial,Rouen,,,,49.4860239,1.0478515
12999802175,node,,memorial,Rouen,,,,49.4814417,1.0400518
12999807351,node,Monument aux morts de la guerre 1914-1918,memorial,Rouen,,,,49.5667358,0.9540632
12999807379,node,,memorial,Rouen,,,,49.6761222,0.7845762
12999807380,node,,memorial,Rouen,,,,49.6760478,0.784686
13002221427,node,,viewpoint,Rouen,,,,49.447481,1.119971
13006006792,node,,viewpoint,Rouen,,,,49.2920822,0.9937964
13006006793,node,,viewpoint,Rouen,,,,49.3111943,1.0706501
13006014782,node,,viewpoint,Rouen,,,,49.484521,0.9280422
13006014785,node,Bellevue,viewpoint,Rouen,,,,49.4698347,0.9572698
13006014901,node,,viewpoint,Rouen,,,,49.4207084,1.1211537
13006020705,node,,viewpoint,Rouen,,,,49.3215291,1.0099981
13006054426,node,,viewpoint,Rouen,,,,49.5244042,0.7381384
13009018485,node,,gallery,Rouen,24 Rue Petit de Julleville,,,49.4395618,1.0960561
13011417992,node,Classe des années 50,museum,Rouen,,,,49.5970781,0.67666
13027162803,node,,memorial,Rouen,,,,49.6125248,0.6873786
13031228778,node,Le Kitsch,restaurant,Rouen,,,https://kitsch-rouen.com/,49.4421537,1.0911006
13031228787,node,Le bistrot des Carmes,restaurant,Rouen,,,,49.4422548,1.0952997
13033951389,node,Le monde dans un gland,artwork,Rouen,,,,49.4558428,1.0280396
13033981228,node,Les chaumes,artwork,Rouen,,,,49.4567811,1.0268658
13033983424,node,L’attrape-brume,artwork,Rouen,,,,49.4592193,1.0261832
13033996478,node,Compluvium,artwork,Rouen,,,,49.461915,1.0202406
13034001435,node,La forêt sacrée,artwork,Rouen,,,,49.4622538,1.0261259
13034008289,node,Herd,artwork,Rouen,,,,49.4594807,1.0248857
13034016135,node,Camels,artwork,Rouen,,,,49.4611014,1.0274451
13034032433,node,A ladder to heaven,artwork,Rouen,,,,49.4636575,1.0236005
13034046263,node,Une Rivière Sonore du Possible,artwork,Rouen,,,,49.4594929,1.0199105
13034058507,node,Cathédrale de vert,artwork,Rouen,,,,49.4614027,1.0196378
13034084455,node,Origine,artwork,Rouen,,,,49.4579409,1.0195134
13034141518,node,Seesaw,artwork,Rouen,,,,49.4547352,1.0290214
13034148818,node,Gargan le Géant,artwork,Rouen,,,,49.4567141,1.0248406
13034356843,node,La Forêt monumentale #2,gallery,Rouen,,,https://www.laforetmonumentale.fr,49.4533568,1.0312315
13050645617,node,Bangkok Factory,restaurant,Rouen,,,https://bangkokfactory.fr,49.4317912,1.0872765
13094510417,node,,memorial,Rouen,,,,49.5681849,0.6375191
13103488187,node,Hokati,restaurant,Rouen,,,https://hokati.fr/,49.4435913,1.0921796
13105804051,node,Lé Là,restaurant,Rouen,,,https://lela-restaurant.fr/,49.4390464,1.0909374
13112859184,node,Suzanne Lévy,memorial,Rouen,,,,49.4547897,1.1137459
13112859185,node,Raymond Lévy,memorial,Rouen,,,,49.4547901,1.1137472
13112859186,node,Alice Lévy,memorial,Rouen,,,,49.4547905,1.1137486
13112859187,node,Jean Lévy,memorial,Rouen,,,,49.4547892,1.1137479
13112859188,node,Nathan Lévy,memorial,Rouen,,,,49.4547896,1.1137493
13112859189,node,Rachel Lévy née Davidovici,memorial,Rouen,,,,49.4547887,1.1137465
13112879419,node,Annie Erdelyi,memorial,Rouen,,,,49.4673396,1.1080923
13112879420,node,Betty Erdelyi,memorial,Rouen,,,,49.4673416,1.1080929
13112879421,node,Michèle Erdelyi,memorial,Rouen,,,,49.4673406,1.1080926
13112879422,node,Nesea Erdelyi née Cataf,memorial,Rouen,,,,49.4673399,1.108094
13112879423,node,Georges Erdelyi,memorial,Rouen,,,,49.4673409,1.1080943
13114437517,node,Jean-Pierre Weisz,memorial,Rouen,,,,49.4304963,1.0615176
13114437518,node,Rose Weisz née Forgacs,memorial,Rouen,,,,49.4304954,1.0615175
13114437519,node,Eugène Weisz,memorial,Rouen,,,,49.4304973,1.0615178
13114729115,node,Pinkus Ettinger,memorial,Rouen,,,,49.4384238,1.1043767
13114729116,node,Behor Eskenazi,memorial,Rouen,,,,49.4395274,1.1050759
13114729117,node,Doudou Eskenazi née Malki,memorial,Rouen,,,,49.439527,1.1050772
13114729118,node,Albert Eskenazi,memorial,Rouen,,,,49.439526,1.1050773
13114729119,node,Allegre Eskenazi,memorial,Rouen,,,,49.4395264,1.105076
13114729120,node,Rose Eskenazi,memorial,Rouen,,,,49.4395268,1.1050747
13114729121,node,Léon Eskenazi,memorial,Rouen,,,,49.4395256,1.1050786
13114729122,node,Nissin Eskenazi,memorial,Rouen,,,,49.4395271,1.1050734
13114729123,node,Charles Dreier,memorial,Rouen,,,,49.4441688,1.0963909
13114729124,node,Malka Mary Dreier née Leizerovitch,memorial,Rouen,,,,49.4441697,1.0963915
13114729125,node,Ida Halfon née Leizerovitch,memorial,Rouen,,,,49.4441706,1.0963921
13114729126,node,Francine Dreier,memorial,Rouen,,,,49.444168,1.0963903
13114729127,node,Haya Leizerovitch née Ruderman,memorial,Rouen,,,,49.4441714,1.0963926
13114729128,node,Rachel Cofman née Stoczyk,memorial,Rouen,,,,49.4408047,1.1004213
13114729129,node,Monique Cofman,memorial,Rouen,,,,49.4408051,1.10042
13114729130,node,Ovsu Cofman,memorial,Rouen,,,,49.4408043,1.1004227
13114729131,node,Clara Burstin,memorial,Rouen,,,,49.4397475,1.1005052
13114729132,node,Ginette Burstin,memorial,Rouen,,,,49.4397484,1.1005057
13114729133,node,Anna Burstin née Blanfeld,memorial,Rouen,,,,49.4397487,1.1005043
13114729134,node,Osias Burstin,memorial,Rouen,,,,49.4397478,1.1005038
13114729135,node,Claude Bigard,memorial,Rouen,,,,49.4529309,1.1062111
13114729136,node,Monique Abramovitch,memorial,Rouen,,,,49.4424449,1.089866
13114729137,node,Michel Abramovitch,memorial,Rouen,,,,49.4424441,1.0898652
13114729138,node,Meyer Abramovitch,memorial,Rouen,,,,49.442444,1.0898669
13114729139,node,Suzanne Abramovitch née Lehmann,memorial,Rouen,,,,49.4424431,1.089866
13114729140,node,Marguerite Lehmann née Weill,memorial,Rouen,,,,49.4424448,1.0898677
13114803461,node,Renée Ganon,memorial,Rouen,,,,49.4394302,1.1017369
13114803462,node,Lina Ganon,memorial,Rouen,,,,49.4394293,1.1017363
13114803463,node,Germaine Ganon née Hakim,memorial,Rouen,,,,49.4394312,1.1017374
13114803464,node,Lucie Frauenthal née Sieradzki,memorial,Rouen,,,,49.4498899,1.0852865
13114803465,node,Salomon Frauenthal,memorial,Rouen,,,,49.4498906,1.0852876
13114803466,node,René Frauenthal,memorial,Rouen,,,,49.4498912,1.0852865
13114803467,node,Colette Frauenthal,memorial,Rouen,,,,49.4498905,1.0852855
13114949629,node,Maurice Szlakowski,memorial,Rouen,,,,49.4463425,1.0848687
13114949630,node,Perla Szlakowski née Falkowicz,memorial,Rouen,,,,49.4463422,1.0848701
13114949631,node,Henri Szlakowski,memorial,Rouen,,,,49.4463415,1.0848689
13114949632,node,Sophie Szlakowski,memorial,Rouen,,,,49.4463412,1.0848703
13114949633,node,Jean Szlakowski,memorial,Rouen,,,,49.4463418,1.0848676
13114949634,node,Léon Rybstein,memorial,Rouen,,,,49.4370331,1.0835459
13114949635,node,Ruchla Rybstein née Mirel,memorial,Rouen,,,,49.4370327,1.0835473
13114949636,node,Bernard Rybstein,memorial,Rouen,,,,49.4370318,1.0835467
13114949637,node,Henri Rybstein,memorial,Rouen,,,,49.4370321,1.0835453
13114949638,node,Nelly Rechtchaft,memorial,Rouen,,,,49.4346245,1.0755294
13114949639,node,Hélène Rechtchaft,memorial,Rouen,,,,49.4346244,1.0755309
13114949640,node,Elie Rechtchaft,memorial,Rouen,,,,49.4346234,1.0755308
13114949641,node,Frejda Rechtchaft née Rechtman,memorial,Rouen,,,,49.4346235,1.0755293
13116245506,node,Raymond Lacheray,memorial,Rouen,,,,49.4821961,0.8756573
13116245507,node,Gaston Levasseur,memorial,Rouen,,,,49.4822437,0.875724
13116245508,node,Georges Philippon,memorial,Rouen,,,,49.4821602,0.8756108
13116245509,node,Otto Fernand Ulrikson dit Strand,memorial,Rouen,,,,49.4793182,0.8699668
13116245510,node,Raymond Foucault,memorial,Rouen,,,,49.480411,0.8740056
13116245511,node,Marcel Ponty,memorial,Rouen,,,,49.4804085,0.874007
13116245512,node,Paul Lefebvre,memorial,Rouen,,,,49.4843221,0.8777449
13116752617,node,Perla Kavayero née Garguir,memorial,Rouen,,,,49.4241623,1.0892545
13116752618,node,Moïse Kavayero,memorial,Rouen,,,,49.4241629,1.0892559
13116752619,node,Estréa Garguir née Schimoula,memorial,Rouen,,,,49.4241635,1.0892572
13116752620,node,Diamante Kavayero,memorial,Rouen,,,,49.4241631,1.0892536
13116752621,node,Élie Kavayero,memorial,Rouen,,,,49.4241638,1.0892549
13116752622,node,Esther Kavayero,memorial,Rouen,,,,49.4241644,1.0892563
13116752623,node,Suzanne Kavayero,memorial,Rouen,,,,49.4241625,1.0892522
13116752624,node,Sarah Kavayero,memorial,Rouen,,,,49.424165,1.0892576
13116752625,node,Kalo Mizrahi née Abeni,memorial,Rouen,,,,49.4248574,1.0907266
13116752626,node,Raphaël Mizrahi,memorial,Rouen,,,,49.424858,1.090728
13116752627,node,Jacques Cohen,memorial,Rouen,,,,49.4201203,1.0837126
13116752628,node,Mathilde Cohen née Ménaché,memorial,Rouen,,,,49.4201195,1.0837115
13116752629,node,Victor Cohen,memorial,Rouen,,,,49.4201188,1.0837104
13118841619,node,Sarah Rotmentz,memorial,Rouen,,,,49.2931175,1.0002351
13118841620,node,Dina Vicquelin née Karatchoun,memorial,Rouen,,,,49.2931179,1.0002336
13118841621,node,Jean Katzburg,memorial,Rouen,,,,49.2873481,1.0008415
13118841622,node,Lilly Katzburg née Dubsky,memorial,Rouen,,,,49.2873475,1.0008428
13118841623,node,Nicolas Katzburg,memorial,Rouen,,,,49.2873487,1.0008402
13118841624,node,Germaine Senders,memorial,Rouen,,,,49.286997,1.015589
13118841625,node,Jean Senders,memorial,Rouen,,,,49.286997,1.0155874
13118841626,node,Fanny Batakès née Nupel,memorial,Rouen,,,,49.286997,1.0155906
13118841627,node,Chana Senders née Kac,memorial,Rouen,,,,49.2864227,1.0099556
13118841628,node,Maurice Sender,memorial,Rouen,,,,49.2864234,1.0099545
13118841629,node,Serge Senders,memorial,Rouen,,,,49.2864223,1.0099539
13118841630,node,Anna Sender,memorial,Rouen,,,,49.2864216,1.009955
13118841631,node,Simon Senders,memorial,Rouen,,,,49.286423,1.0099528
13123665856,node,La Pizzaïola Due,restaurant,Rouen,,,,49.5712174,1.1101595
13125036166,node,,artwork,Rouen,,,,49.5073057,0.9301494
13125036168,node,,artwork,Rouen,,,,49.5079239,0.9294012
13125036185,node,,artwork,Rouen,,,,49.5067114,0.9310633
13125077813,node,,artwork,Rouen,,,,49.5065442,0.9309375
13125077837,node,,artwork,Rouen,,,,49.5076898,0.930316
13125077840,node,,artwork,Rouen,,,,49.507419,0.9307392
13125077859,node,,artwork,Rouen,,,,49.5074625,0.9293365
13125077880,node,,artwork,Rouen,,,,49.5078847,0.9288878
13125077935,node,659,artwork,Rouen,,,,49.5061454,0.9304944
13125077938,node,,artwork,Rouen,,,,49.5068178,0.9301323
13125077951,node,,artwork,Rouen,,,,49.5057424,0.9308372
13136467690,node,Plaque commémorative des fusillés de la Régie d'Electricité,memorial,Rouen,,,,49.2911884,1.0111101
13136510974,node,Plaque commémorative SNCF,memorial,Rouen,,,,49.3101377,0.9961231
13136510975,node,Plaque commémorative du crash du B24,memorial,Rouen,,,,49.3101386,0.9961188
13136536340,node,,memorial,Rouen,,,,49.3101371,0.9961259
13136812336,node,,memorial,Rouen,,,,49.3041122,1.0117179
13136812337,node,Stèle commémorative 1939-1945,memorial,Rouen,,,,49.3040605,1.0117029
13142302868,node,Mezzati,restaurant,Rouen,,,,49.4429512,1.0868754
13142889777,node,André Martin,artwork,Rouen,,,,49.5484095,1.072353
13142922004,node,Sushi Nomi,restaurant,Rouen,,,https://www.facebook.com/61575233978916/,49.5474433,1.0741879
13183522632,node,Bistro du siècle,restaurant,Rouen,,,,49.4832644,0.8763127
13183522633,node,Le Thamazirt,restaurant,Rouen,,,,49.480883,0.874391
13183522641,node,Auberge Tartarin,restaurant,Rouen,,,,49.4824945,0.8747889
13190298747,node,Bambou,restaurant,Rouen,,,,49.440034,1.0930487
13195717739,node,,memorial,Rouen,,,,49.3807199,0.8862894
13204311576,node,Le Shed,museum,Rouen,,,https://www.le-shed.com,49.4872934,1.0426838
13231580182,node,Hommage aux donneurs d'organes,memorial,Rouen,,,,49.4406743,1.1074613
13236954447,node,,artwork,Rouen,,,,49.5967848,1.1103286
13288809825,node,,ruins,Rouen,,,,49.4325222,1.112966
13295546105,node,Adn,gallery,Rouen,,,,49.4419566,1.0993568
13300526151,node,Pizza Di Paulo,restaurant,Rouen,"84 Route de Duclair, 76150, Maromme",76150,https://www.pizzadipaulo.fr/,49.4824122,1.0182421
13356348678,node,Nawaab,restaurant,Rouen,,,,49.4379399,1.0998513
13356376713,node,Ariana,restaurant,Rouen,,,https://restaurantariana.eatbu.com/,49.4382286,1.0998851
13374236335,node,Moshi Moshi,restaurant,Rouen,,,https://www.moshimoshi-rouen.fr/,49.4409775,1.0976743
13382326187,node,,memorial,Rouen,,,,49.3547268,1.2596051
13382327201,node,,memorial,Rouen,,,,49.3997142,1.179559
13406656881,node,Pizzeria du Cailly,restaurant,Rouen,,,https://www.tiktok.com/@pizzeria.du.cailly,49.5498149,1.0746323
13410767444,node,Le Manoir,restaurant,Rouen,,,,49.4958029,1.1478763
13413585734,node,Mémorial de la trombe de 1845,memorial,Rouen,,,,49.5464834,1.0806192
13414414751,node,,viewpoint,Rouen,,,,49.5510299,1.0700476
13420699776,node,Le Septiode,artwork,Rouen,,,,49.4376221,1.0858226
13421144940,node,,artwork,Rouen,,,,49.4379218,1.0847644
13428072305,node,Nhà,restaurant,Rouen,,,,49.4422418,1.0912637
13428076273,node,Hôtel des Carmes,hotel,Rouen,,,,49.4422051,1.095507
13440316842,node,La Marmotte,restaurant,Rouen,,,https://restaurantlamarmotte.com/,49.4422837,1.0866018
13440316843,node,Bistrot Saigon,restaurant,Rouen,20 Rue du Vieux Palais,,,49.4422765,1.0867523
13440316845,node,Okto,restaurant,Rouen,,,http://okto-restaurant.fr,49.4423309,1.0868432
13440316847,node,Chez Yulin,restaurant,Rouen,,,,49.4425874,1.0869808
13444783845,node,Le clap,restaurant,Rouen,,,,49.2810004,1.0258641
13446018906,node,Galerie Guillaume Fouquet,gallery,Rouen,,,https://guillaumefouquet.com/,49.43997,1.0986898
13471495173,node,ITO Tourville-la-rivière,restaurant,Rouen,"2 Avenue Gustave Picard, 76410, Tourville-la-Rivière",76410,https://ito-sushi.com/tourville-la-riviere/,49.3284428,1.0962001
13501678561,node,Stèle René Tamarelle,memorial,Rouen,,,,49.4550358,1.1153782
13528058991,node,Tommasino,restaurant,Rouen,,,,49.4405753,1.0864303
13528259769,node,Centre photographique Rouen,gallery,Rouen,,,https://centrephotographique.com/,49.4417954,1.0970231
13530619691,node,Musée des Beaux-Arts,museum,Rouen,"Esplanade Marcel Duchamp, 76000, Rouen",76000,https://mbarouen.fr/fr,49.4448162,1.0942239
13531770801,node,Nagoya sushi Rouen,restaurant,Rouen,"15 Rue de la Champmesle, 76000",76000,https://nagoya-sushi-rouen.com/,49.4392831,1.0915302
13532188623,node,Hôtel Céline,hotel,Rouen,,,,49.4490702,1.0900882
13563165453,node,Plaque commémorative LGBTQIA+,memorial,Rouen,,,,49.4446996,1.0937242
13563165454,node,La Passeuse,artwork,Rouen,,,,49.4446979,1.0937096
13564509480,node,Sakuraa,restaurant,Rouen,76 Rue du Général Leclerc,,https://www.sakuraa-sushi.fr/index-rouen-76000,49.4397074,1.0922863
13592659723,node,Galerie de l'Aigle,gallery,Rouen,,,,49.4441973,1.0964508
13592666603,node,Galerie Christine Métais,gallery,Rouen,,,,49.4442806,1.0965273
13592773481,node,François Duboc,gallery,Rouen,,,,49.4461879,1.0980053
13607580600,node,,memorial,Rouen,,,,49.3391667,1.0897653
13607687157,node,,memorial,Rouen,,,,49.2716461,1.0348043
13649040408,node,,memorial,Rouen,,,,49.3952947,1.1021713
13699268178,node,Homs,restaurant,Rouen,,,,49.442313,1.1091833
13699268182,node,La Scampia,restaurant,Rouen,,,,49.4422781,1.1072876
13706305455,node,Oh my Poké Bowl,restaurant,Rouen,,,,49.4403379,1.1018971
13708501941,node,Mun by Ito,restaurant,Rouen,,,https://munbyito.com/,49.471907,1.1223306
13744275043,node,,restaurant,Rouen,,,,49.598204,1.1105
13755384502,node,Les Boréales Rouen Sud,hotel,Rouen,,,https://www.les-boreales.com/,49.4253936,1.0840988
13786450842,node,La Confiance Family,restaurant,Rouen,,,https://www.la-confiance-family-76.fr,49.6276638,1.1759227
13787402843,node,,memorial,Rouen,,,,49.538477,1.3169466
13809427792,node,Little Garden,restaurant,Rouen,,,,49.5853919,1.3583191
13821359874,node,Mon P'tit Hanoi,restaurant,Rouen,,,https://monptithanoi.fr/,49.4429745,1.0948319
13821363496,node,Galerie Métais,gallery,Rouen,,,https://www.galeriemetais.com/,49.4399973,1.0976185
13821376913,node,Le Cercle des Arômes,restaurant,Rouen,,,https://lecercledesaromes.com/cercle/rouen/,49.4397542,1.099908
13821382002,node,Au Flaméron,restaurant,Rouen,,,https://www.auflameron.com/,49.439993,1.0984911
13859920418,node,,artwork,Rouen,,,,49.4426498,1.1008912
13859920419,node,,artwork,Rouen,,,,49.4427621,1.1012812
13860273638,node,Ô Papilles,restaurant,Rouen,,,,49.6184059,0.7540391
13860273639,node,,hotel,Rouen,,,,49.6184126,0.7543336
13871189960,node,Saveurs du Sud,restaurant,Rouen,,,,49.6177265,0.7559143
13887658416,node,La Grilladerie,restaurant,Rouen,,,,49.4197435,1.0972178
13889593410,node,Taverne Saint-Amant,restaurant,Rouen,,,http://www.tavernesaintamant.fr,49.4415169,1.0970506
13892142201,node,Restaurant l'Hermitage,restaurant,Rouen,"Carrefour de la Maison Brûlée, 76500",76500,https://restaurant-lhermitage.com/index.html,49.3442401,0.9320397
13959320701,node,Secret,gallery,Rouen,,,,49.4461966,1.0943922
13964104148,node,Tartifoule,restaurant,Rouen,,,,49.4434799,1.072498
13964104149,node,Foule moule,restaurant,Rouen,,,,49.4434556,1.0725966
13968666029,node,Lafiasso,restaurant,Rouen,,,,49.2863918,1.0073169
13968667473,node,Le Royal,restaurant,Rouen,,,,49.2866781,1.0087513
13968678235,node,Fast Sushi,restaurant,Rouen,,,,49.2857579,1.0085886
25492626,way,Square Verdrel,park,Rouen,,,,49.4449544,1.0931913
25833576,way,Jardin des Plantes,park,Rouen,"76100, Rouen",76100,https://rouen.fr/jardindesplantes,49.4216529,1.0766431
31270016,way,,artwork,Rouen,,,,49.4434281,1.0989042
31583248,way,Jardin de l’Hôtel de Ville,park,Rouen,"76000, Rouen",76000,,49.442837,1.1012145
37180170,way,Parc Jean de Verrazane,park,Rouen,,,,49.4431384,1.0764676
37194331,way,Jardins Jean de Verrazane,park,Rouen,,,,49.4419449,1.0798014
38133723,way,,ruins,Rouen,,,,49.3419499,1.0121255
38806495,way,Parc Achille-Lefort,park,Rouen,"76000, Rouen",76000,,49.4480411,1.0800786
41682249,way,Square La Divine,park,Rouen,,,,49.4472776,1.0727681
52924302,way,Square Jean Monnet,park,Rouen,,,,49.4705812,1.0502771
53155386,way,Parc du logis,park,Rouen,,,,49.4696883,1.0512675
54194609,way,Rouen,artwork,Rouen,,,,48.8667203,2.3210127
61719312,way,Big beef,restaurant,Rouen,"2 Avenue des Canadiens, 76120, Le Grand-Quevilly",76120,https://rouen.bigbeef.fr/,49.4100579,1.0707647
61730417,way,La brasserie des Bruyère,restaurant,Rouen,,,,49.4115559,1.071884
63072681,way,,castle,Rouen,,,,49.4596003,1.2683639
63222565,way,Hôtel de Paris,hotel,Rouen,12,,https://hotelcentrerouen.com/,49.4387658,1.091467
63230682,way,Hôtel Comfort Alba,hotel,Rouen,,,,49.4384848,1.0944139
